Timestamp,ElapsedMillis,Yaw,Pitch,Roll,Altitude,YawServo,PitchServo
21:49:40.322,11276,-28.93,-40.78,14.08,730.1,0.00,0.00
21:49:40.607,11561,-1.40,0.52,0.02,0.2,-0.86,0.33
21:49:40.665,11619,-1.40,0.51,0.02,0.2,-0.88,0.31
21:49:40.722,11676,-1.40,0.51,0.02,0.2,-0.90,0.33
21:49:40.779,11733,-1.28,0.39,0.02,0.2,-0.63,0.06
21:49:40.836,11790,-0.86,0.01,0.01,0.2,0.27,-0.84
21:49:40.893,11847,-0.61,-0.53,-0.01,0.1,0.28,-1.53
21:49:40.951,11905,-0.54,-1.04,-0.02,-0.0,-0.21,-1.94
21:49:41.008,11962,-0.39,-1.63,-0.02,0.1,0.01,-2.38
21:49:41.065,12019,-0.24,-2.19,-0.02,0.0,0.17,-2.70
21:49:41.122,12076,-0.18,-2.46,-0.02,0.1,-0.01,-2.28
21:49:41.179,12133,-0.25,-2.54,-0.02,0.1,-0.31,-1.83
21:49:41.237,12191,-0.41,-2.39,-0.01,0.1,-0.73,-1.14
21:49:41.293,12248,-0.50,-2.26,-0.01,0.1,-0.65,-1.08
21:49:41.351,12305,-0.48,-2.07,-0.01,0.1,-0.36,-0.86
21:49:41.409,12363,-0.46,-1.76,-0.01,0.1,-0.26,-0.43
21:49:41.465,12419,-0.63,-1.34,0.00,0.2,-0.85,0.11
21:49:41.522,12477,-0.79,-0.95,0.01,0.3,-0.99,0.33
21:49:41.580,12534,-0.85,-0.63,0.02,0.1,-0.77,0.33
21:49:41.637,12591,-0.90,-0.42,0.02,0.1,-0.77,0.18
21:49:41.693,12647,-0.90,-0.30,0.03,0.3,-0.67,0.05
21:49:41.752,12706,-0.87,-0.29,0.02,0.1,-0.61,-0.22
21:49:41.809,12763,-0.79,-0.33,0.03,0.1,-0.41,-0.40
21:49:41.865,12819,-0.74,-0.33,0.03,0.0,-0.42,-0.33
21:49:41.922,12876,-0.74,-0.28,0.03,-0.0,-0.57,-0.17
21:49:41.980,12934,-0.77,-0.30,0.03,0.1,-0.69,-0.29
21:49:42.038,12992,-0.84,-0.48,0.03,0.2,-0.76,-0.83
21:49:42.095,13049,-1.28,-0.82,0.04,0.2,-1.85,-1.39
21:49:42.152,13106,-2.27,-1.23,0.08,0.3,-3.55,-1.82
21:49:42.209,13163,-3.65,-1.43,0.12,0.3,-5.81,-1.58
21:49:42.266,13220,-4.85,-1.48,0.16,0.2,-6.21,-1.15
21:49:42.324,13278,-5.89,-1.52,0.19,0.2,-6.30,-1.15
21:49:42.380,13335,-6.67,-1.59,0.21,0.2,-6.27,-1.32
21:49:42.438,13392,-7.49,-1.63,0.24,0.2,-6.78,-1.23
21:49:42.494,13448,-8.00,-1.68,0.26,0.2,-6.65,-1.30
21:49:42.552,13506,-7.41,-1.88,0.24,0.2,-3.92,-1.67
21:49:42.609,13563,-5.96,-2.22,0.19,0.2,-0.39,-2.43
21:49:42.666,13620,-4.22,-2.53,0.14,0.2,1.27,-2.51
21:49:42.724,13678,-2.33,-2.76,0.08,0.1,2.62,-2.49
21:49:42.780,13734,-0.81,-2.76,0.04,0.0,3.07,-1.92
21:49:42.838,13792,0.46,-2.63,0.00,0.2,2.87,-1.55
21:49:42.895,13849,1.22,-2.40,-0.02,0.2,2.22,-1.16
21:49:42.952,13906,1.49,-2.53,-0.01,0.2,1.12,-1.88
21:49:43.010,13964,1.61,-3.25,-0.02,0.2,0.84,-3.95
21:49:43.067,14021,1.78,-4.49,-0.02,0.2,0.98,-5.89
21:49:43.125,14079,2.18,-5.91,-0.04,0.1,1.77,-7.28
21:49:43.181,14135,2.50,-7.06,-0.06,0.2,1.80,-7.30
21:49:43.238,14192,2.73,-7.70,-0.07,0.2,1.78,-6.92
21:49:43.296,14250,2.77,-7.99,-0.07,0.2,1.46,-6.14
21:49:43.353,14307,2.73,-8.11,-0.07,0.3,1.14,-5.74
21:49:43.410,14364,2.68,-8.12,-0.07,0.2,1.09,-5.48
21:49:43.466,14420,2.66,-8.08,-0.07,0.1,1.16,-5.40
21:49:43.524,14478,2.66,-8.02,-0.07,0.2,1.31,-5.35
21:49:43.582,14536,2.65,-7.96,-0.06,0.2,1.21,-5.30
21:49:43.639,14593,2.61,-7.88,-0.06,0.1,1.17,-5.31
21:49:43.695,14649,2.60,-7.82,-0.06,-0.0,1.21,-5.32
21:49:43.753,14707,2.55,-7.79,-0.06,0.0,1.16,-5.43
21:49:43.810,14764,2.52,-7.75,-0.05,0.1,1.14,-5.44
21:49:43.868,14822,2.54,-7.73,-0.06,0.0,1.30,-5.49
21:49:43.925,14879,2.56,-7.71,-0.07,0.1,1.32,-5.57
21:49:43.982,14936,2.58,-7.69,-0.06,0.2,1.40,-5.60
21:49:44.039,14993,2.54,-7.63,-0.06,0.2,1.20,-5.49
21:49:44.096,15050,2.53,-7.59,-0.06,0.1,1.27,-5.54
21:49:44.154,15108,2.55,-7.55,-0.06,0.1,1.41,-5.57
21:49:44.210,15165,2.59,-7.51,-0.06,0.2,1.47,-5.60
21:49:44.268,15222,2.61,-7.50,-0.06,0.3,1.47,-5.74
21:49:44.326,15280,2.63,-7.49,-0.06,0.3,1.48,-5.75
21:49:44.382,15336,2.60,-7.48,-0.05,0.3,1.39,-5.77
21:49:44.440,15394,2.58,-7.46,-0.06,0.2,1.38,-5.79
21:49:44.496,15450,2.58,-7.41,-0.05,0.3,1.43,-5.73
21:49:44.554,15508,2.57,-7.38,-0.06,0.2,1.46,-5.82
21:49:44.610,15564,2.54,-7.40,-0.06,0.2,1.41,-5.93
21:49:44.668,15622,2.53,-7.43,-0.06,0.2,1.42,-6.04
21:49:44.726,15680,2.59,-7.46,-0.06,0.2,1.67,-6.14
21:49:44.783,15737,2.60,-7.50,-0.05,0.2,1.58,-6.24
21:49:44.840,15794,2.58,-7.51,-0.05,0.2,1.50,-6.21
21:49:44.897,15851,2.53,-7.49,-0.05,0.1,1.39,-6.14
21:49:44.954,15908,2.45,-7.46,-0.05,0.0,1.33,-6.16
21:49:45.012,15966,2.41,-7.46,-0.05,0.0,1.41,-6.24
21:49:45.080,16034,2.41,-7.48,-0.05,0.0,1.48,-6.37
21:49:45.126,16080,2.44,-7.51,-0.06,0.2,1.59,-6.45
21:49:45.183,16137,2.45,-7.53,-0.06,0.1,1.60,-6.53
21:49:45.240,16194,2.42,-7.55,-0.05,0.1,1.47,-6.56
21:49:45.297,16251,2.39,-7.56,-0.05,0.2,1.45,-6.56
21:49:45.355,16309,2.36,-7.57,-0.05,0.1,1.44,-6.62
21:49:45.413,16367,2.36,-7.44,-0.05,0.2,1.56,-6.35
21:49:45.469,16423,2.30,-6.86,-0.05,0.2,1.43,-4.94
21:49:45.525,16479,1.87,-5.82,-0.03,0.3,0.42,-3.28
21:49:45.583,16537,1.01,-4.48,-0.00,0.3,-1.25,-1.64
21:49:45.640,16594,0.32,-3.65,0.02,0.3,-1.65,-1.34
21:49:45.698,16652,-0.97,-2.09,0.07,0.3,-2.80,-0.69
21:49:45.755,16709,-1.48,-1.16,0.09,0.3,-2.13,-0.46
21:49:45.812,16766,-1.85,-0.43,0.10,0.2,-1.87,-0.67
21:49:45.869,16823,-2.03,-0.01,0.10,0.1,-1.58,-1.17
21:49:45.927,16881,-2.02,0.17,0.10,0.2,-1.10,-1.67
21:49:45.984,16938,-1.98,0.19,0.10,0.1,-0.93,-2.07
21:49:46.041,16995,-2.00,0.19,0.11,0.2,-1.14,-2.14
21:49:46.098,17052,-2.02,0.16,0.11,0.2,-1.14,-2.23
21:49:46.155,17109,-2.03,0.10,0.11,0.2,-1.19,-2.31
21:49:46.212,17166,-2.05,0.01,0.11,0.2,-1.19,-2.45
21:49:46.269,17223,-2.04,-0.04,0.12,0.3,-1.17,-2.42
21:49:46.327,17281,-2.04,-0.04,0.12,0.3,-1.16,-2.31
21:49:46.384,17338,-2.10,-0.01,0.12,0.2,-1.34,-2.18
21:49:46.441,17396,-2.14,0.02,0.13,0.2,-1.36,-2.15
21:49:46.498,17452,-2.15,-0.01,0.12,0.1,-1.32,-2.32
21:49:46.556,17510,-2.09,-0.15,0.12,0.2,-1.14,-2.60
21:49:46.613,17567,-1.99,-0.37,0.12,0.1,-1.01,-2.97
21:49:46.670,17624,-1.87,-0.78,0.11,0.2,-0.85,-3.60
21:49:46.727,17681,-1.82,-1.45,0.11,0.1,-0.96,-4.73
21:49:46.785,17739,-1.69,-2.62,0.11,0.0,-0.77,-6.57
21:49:46.842,17796,-1.42,-4.05,0.10,0.0,-0.33,-8.05
21:49:46.898,17852,-1.10,-5.33,0.09,-0.0,0.00,-9.03
21:49:46.956,17910,-0.42,-6.22,0.07,0.0,1.16,-8.37
21:49:47.013,17967,0.48,-6.50,0.03,0.2,2.29,-7.07
21:49:47.070,18024,1.53,-6.37,0.00,0.1,3.39,-6.06
21:49:47.127,18081,2.67,-5.95,-0.03,0.2,4.29,-5.05
21:49:47.184,18138,3.82,-5.36,-0.08,0.3,5.16,-4.38
21:49:47.241,18195,4.39,-4.35,-0.09,0.2,4.23,-2.82
21:49:47.299,18253,4.28,-3.19,-0.08,0.2,2.41,-1.43
21:49:47.356,18310,3.59,-1.95,-0.07,0.3,0.79,-0.77
21:49:47.414,18368,2.57,-1.07,-0.03,0.4,-0.81,-0.96
21:49:47.470,18424,1.53,-0.59,-0.01,0.4,-1.57,-1.55
21:49:47.527,18481,0.53,-0.62,0.03,0.3,-2.02,-2.90
21:49:47.584,18539,-0.27,-1.21,0.07,0.2,-2.13,-4.57
21:49:47.643,18597,-0.76,-2.23,0.07,0.4,-1.71,-6.37
21:49:47.699,18653,-1.09,-3.64,0.10,0.2,-1.43,-8.17
21:49:47.756,18710,-0.98,-5.20,0.10,0.1,-0.48,-9.30
21:49:47.813,18767,-0.36,-6.60,0.06,0.2,1.28,-10.28
21:49:47.871,18825,0.39,-7.82,0.03,0.2,2.21,-10.45
21:49:47.928,18882,0.84,-8.75,0.01,0.3,1.75,-10.27
21:49:47.985,18939,0.88,-9.23,0.01,0.2,0.80,-9.63
21:49:48.042,18996,0.73,-9.39,0.02,0.1,0.13,-8.94
21:49:48.100,19054,0.55,-9.44,0.03,0.2,-0.03,-8.73
21:49:48.157,19111,0.40,-9.38,0.03,0.3,-0.06,-8.46
21:49:48.214,19168,0.39,-9.28,0.03,0.3,0.21,-8.37
21:49:48.271,19225,0.61,-8.96,0.02,0.3,0.89,-7.83
21:49:48.329,19283,0.99,-8.09,0.01,0.3,1.55,-6.21
21:49:48.386,19340,1.22,-6.81,0.01,0.4,1.50,-4.09
21:49:48.442,19396,1.09,-5.27,0.01,0.3,0.52,-2.54
21:49:48.501,19455,0.55,-3.48,0.02,0.3,-0.75,-1.16
21:49:48.557,19511,-0.09,-1.87,0.04,0.2,-1.55,-0.29
21:49:48.615,19569,-0.65,-0.52,0.07,0.2,-1.67,-0.25
21:49:48.673,19627,-1.05,0.55,0.08,0.2,-1.55,-0.29
21:49:48.730,19684,-1.30,1.30,0.09,0.2,-1.30,-0.60
21:49:48.786,19740,-1.38,1.68,0.09,0.2,-0.96,-1.13
21:49:48.843,19797,-1.46,1.95,0.10,0.1,-0.98,-1.35
21:49:48.900,19854,-1.52,2.10,0.09,0.1,-1.01,-1.56
21:49:48.957,19911,-1.60,2.11,0.09,0.0,-1.10,-1.86
21:49:49.014,19968,-1.61,2.07,0.09,0.1,-0.95,-2.02
21:49:49.071,20025,-1.67,2.10,0.09,0.1,-1.06,-1.89
21:49:49.129,20083,-1.80,2.21,0.11,0.1,-1.37,-1.56
21:49:49.186,20140,-1.96,2.39,0.11,0.2,-1.58,-1.29
21:49:49.243,20197,-2.05,2.53,0.11,0.1,-1.42,-1.25
21:49:49.300,20255,-2.14,2.63,0.12,0.1,-1.53,-1.28
21:49:49.358,20312,-2.11,2.64,0.11,0.1,-1.19,-1.47
21:49:49.414,20368,-2.11,2.59,0.12,0.2,-1.29,-1.62
21:49:49.472,20426,-2.06,2.43,0.12,0.2,-1.20,-1.94
21:49:49.529,20483,-1.94,2.15,0.11,0.1,-0.89,-2.44
21:49:49.586,20540,-1.81,1.82,0.11,0.1,-0.86,-2.71
21:49:49.644,20598,-1.73,1.62,0.10,0.2,-0.90,-2.65
21:49:49.701,20655,-1.72,1.59,0.10,0.2,-1.03,-2.16
21:49:49.759,20713,-1.81,1.61,0.10,0.2,-1.42,-1.99
21:49:49.816,20770,-1.88,1.63,0.11,0.2,-1.40,-1.97
21:49:49.873,20827,-1.87,1.59,0.12,0.3,-1.24,-2.16
21:49:49.930,20884,-1.80,1.52,0.11,0.2,-1.04,-2.29
21:49:49.987,20941,-1.71,1.47,0.11,0.1,-0.92,-2.24
21:49:50.044,20998,-1.72,1.48,0.12,0.2,-1.15,-2.05
21:49:50.101,21056,-1.75,1.49,0.12,0.2,-1.29,-2.04
21:49:50.158,21112,-1.70,1.51,0.12,0.3,-1.07,-1.98
21:49:50.215,21169,-1.69,1.53,0.12,0.2,-1.15,-1.98
21:49:50.272,21226,-1.69,1.51,0.11,0.2,-1.21,-2.06
21:50:01.877,32831,12.27,-13.19,-0.41,0.1,-1.24,-2.10
21:50:01.991,32945,10.65,-12.23,0.00,0.0,6.43,-7.42
21:50:02.162,33116,10.70,-12.27,-0.01,0.1,6.65,-7.73
21:50:02.220,33174,10.57,-12.09,-0.00,0.2,6.47,-7.35
21:50:02.277,33231,10.15,-11.59,0.01,0.1,5.54,-6.26
21:50:02.334,33288,9.58,-10.96,0.02,0.1,4.89,-5.71
21:50:02.392,33346,8.65,-10.08,0.06,0.1,3.86,-4.51
21:50:02.450,33404,7.52,-9.05,0.09,0.2,2.18,-3.60
21:50:02.506,33460,6.29,-7.74,0.13,0.2,1.34,-2.12
21:50:02.563,33517,4.89,-6.33,0.15,0.2,0.30,-1.17
21:50:02.620,33574,3.62,-5.11,0.18,0.2,-0.42,-0.77
21:50:02.677,33631,2.32,-3.89,0.22,0.1,-1.00,-0.19
21:50:02.735,33689,1.04,-2.79,0.25,0.1,-1.75,0.15
21:50:02.792,33746,-0.00,-1.86,0.28,0.1,-1.80,0.25
21:50:02.849,33803,-0.74,-1.12,0.30,0.1,-1.82,0.48
21:50:02.906,33860,-1.27,-0.44,0.31,0.1,-1.44,0.63
21:50:02.963,33917,-1.53,0.11,0.32,0.2,-0.95,0.59
21:50:03.021,33975,-1.55,0.31,0.31,0.2,-0.39,-0.03
21:50:03.078,34032,-1.37,0.34,0.30,0.1,0.24,-0.52
21:50:03.135,34089,-1.06,0.16,0.30,0.1,0.74,-1.12
21:50:03.191,34145,-0.91,-0.06,0.30,0.2,0.56,-1.44
21:50:03.250,34204,-0.86,-0.32,0.30,0.1,0.26,-1.64
21:50:03.306,34260,-0.94,-0.42,0.30,0.1,-0.07,-1.40
21:50:03.364,34318,-1.03,-0.43,0.30,0.2,-0.21,-1.15
21:50:03.420,34374,-1.10,-0.36,0.31,0.1,-0.17,-0.90
21:50:03.477,34431,-1.13,-0.35,0.31,0.1,-0.22,-1.02
21:50:03.535,34489,-1.12,-0.39,0.31,0.2,-0.03,-1.18
21:50:03.592,34546,-1.20,-0.38,0.32,0.2,-0.28,-1.08
21:50:03.649,34603,-1.33,-0.32,0.33,0.3,-0.50,-0.91
21:50:03.707,34662,-1.37,-0.27,0.33,0.1,-0.38,-0.84
21:50:03.764,34718,-1.34,-0.27,0.33,0.1,-0.14,-1.02
21:50:03.821,34775,-1.32,-0.27,0.33,0.1,-0.18,-1.03
21:50:03.878,34832,-1.30,-0.29,0.33,0.2,-0.15,-1.05
21:50:03.936,34890,-1.34,-0.28,0.33,0.3,-0.34,-1.01
21:50:03.992,34946,-1.37,-0.30,0.34,0.3,-0.33,-1.11
21:50:04.050,35004,-1.34,-0.32,0.33,0.4,-0.23,-1.06
21:50:04.108,35062,-1.33,-0.35,0.33,0.3,-0.23,-1.16
21:50:04.164,35118,-1.32,-0.36,0.34,0.2,-0.25,-1.12
21:50:04.221,35176,-1.31,-0.39,0.34,0.1,-0.22,-1.16
21:50:04.279,35233,-1.31,-0.41,0.35,0.2,-0.27,-1.17
21:50:04.336,35290,-1.31,-0.44,0.35,0.2,-0.30,-1.21
21:50:04.392,35346,-1.29,-0.49,0.35,0.2,-0.22,-1.27
21:50:04.451,35405,-1.26,-0.52,0.35,0.2,-0.22,-1.29
21:50:04.507,35461,-1.24,-0.52,0.34,0.2,-0.20,-1.22
21:50:04.564,35518,-1.25,-0.50,0.34,0.2,-0.30,-1.15
21:50:04.622,35576,-1.27,-0.44,0.34,0.2,-0.35,-1.02
21:50:04.679,35633,-1.27,-0.39,0.34,0.1,-0.32,-0.98
21:50:04.736,35690,-1.24,-0.38,0.34,0.2,-0.19,-1.08
21:50:04.793,35747,-1.21,-0.37,0.34,0.3,-0.24,-1.06
21:50:04.850,35804,-1.20,-0.37,0.33,0.3,-0.26,-1.14
21:50:04.907,35861,-1.19,-0.38,0.34,0.2,-0.24,-1.17
21:50:04.965,35919,-1.20,-0.38,0.33,0.3,-0.28,-1.14
21:50:05.023,35977,-1.19,-0.36,0.34,0.3,-0.25,-1.08
21:50:05.079,36033,-1.19,-0.35,0.33,0.3,-0.30,-1.11
21:50:05.136,36091,-1.19,-0.32,0.34,0.2,-0.32,-1.04
21:50:05.193,36147,-1.19,-0.29,0.34,0.1,-0.31,-1.02
21:50:05.251,36205,-1.20,-0.27,0.33,0.2,-0.35,-0.99
21:50:05.308,36262,-1.19,-0.24,0.34,0.2,-0.31,-0.99
21:50:05.365,36319,-1.20,-0.23,0.34,0.3,-0.35,-1.04
21:50:05.422,36376,-1.16,-0.24,0.33,0.3,-0.25,-1.09
21:50:05.480,36434,-1.15,-0.24,0.33,0.2,-0.32,-1.07
21:50:05.538,36492,-1.15,-0.27,0.34,0.2,-0.30,-1.13
21:50:05.594,36548,-1.14,-0.34,0.34,0.3,-0.32,-1.23
21:50:05.651,36605,-1.12,-0.41,0.34,0.2,-0.27,-1.36
21:50:05.766,36720,-1.16,-0.55,0.35,0.1,-0.43,-1.42
21:50:05.823,36781,-1.18,-0.57,0.35,0.1,-0.48,-1.30
21:50:05.880,36834,-1.18,-0.61,0.35,0.1,-0.38,-1.42
21:50:05.937,36891,-1.17,-0.65,0.35,0.2,-0.38,-1.45
21:50:05.994,36948,-1.18,-0.66,0.35,0.1,-0.40,-1.37
21:50:06.052,37006,-1.21,-0.64,0.35,0.2,-0.49,-1.31
21:50:06.109,37063,-1.23,-0.65,0.35,0.1,-0.49,-1.35
21:50:06.166,37120,-1.22,-0.66,0.36,0.1,-0.45,-1.37
21:50:06.224,37178,-1.21,-0.69,0.36,0.1,-0.41,-1.45
21:50:06.281,37235,-1.20,-0.73,0.36,0.1,-0.42,-1.48
21:50:06.338,37292,-1.21,-0.77,0.36,0.2,-0.47,-1.55
21:50:06.394,37348,-1.20,-0.80,0.36,0.3,-0.43,-1.53
21:50:06.452,37406,-1.22,-0.80,0.36,0.3,-0.51,-1.48
21:50:06.567,37521,-1.26,-0.76,0.37,0.2,-0.57,-1.39
21:50:06.623,37577,-1.25,-0.77,0.37,0.2,-0.50,-1.50
21:50:06.680,37635,-1.25,-0.80,0.37,0.1,-0.54,-1.55
21:50:06.738,37692,-1.28,-0.81,0.38,0.2,-0.64,-1.52
21:50:06.795,37749,-1.31,-0.82,0.38,0.1,-0.65,-1.54
21:50:06.852,37806,-1.31,-0.85,0.38,0.2,-0.59,-1.57
21:50:06.910,37864,-1.32,-0.87,0.38,0.2,-0.63,-1.60
21:50:06.967,37921,-1.33,-0.89,0.38,0.2,-0.65,-1.59
21:50:07.024,37979,-1.33,-0.92,0.38,0.2,-0.60,-1.63
21:50:07.081,38035,-1.36,-0.94,0.38,0.2,-0.72,-1.64
21:50:07.138,38092,-1.37,-0.97,0.38,0.1,-0.67,-1.69
21:50:07.195,38149,-1.38,-0.98,0.39,0.2,-0.69,-1.65
21:50:07.252,38206,-1.39,-0.98,0.39,0.2,-0.72,-1.64
21:50:07.310,38264,-1.37,-0.97,0.39,0.2,-0.63,-1.61
21:50:07.367,38321,-1.35,-0.96,0.39,0.2,-0.64,-1.62
21:50:07.424,38378,-1.33,-0.93,0.39,0.2,-0.62,-1.54
21:50:07.481,38435,-1.34,-0.90,0.39,0.2,-0.71,-1.54
21:50:07.538,38492,-1.32,-0.90,0.38,0.2,-0.65,-1.62
21:50:07.596,38550,-1.30,-0.90,0.38,0.2,-0.62,-1.63
21:50:07.653,38607,-1.29,-0.92,0.38,0.2,-0.68,-1.65
21:50:07.710,38664,-1.27,-0.98,0.38,0.1,-0.62,-1.85
21:50:07.767,38721,-1.24,-1.06,0.39,0.2,-0.60,-1.89
21:50:07.882,38836,-1.21,-1.19,0.39,0.2,-0.66,-1.95
21:50:07.939,38893,-1.22,-1.15,0.39,0.2,-0.71,-1.75
21:50:07.996,38950,-1.24,-1.09,0.39,0.2,-0.76,-1.63
21:50:08.053,39007,-1.22,-1.02,0.40,0.1,-0.64,-1.57
21:50:08.111,39065,-1.14,-0.96,0.39,0.3,-0.49,-1.58
21:50:08.167,39121,-1.04,-0.87,0.39,0.3,-0.37,-1.46
21:50:08.225,39179,-0.97,-0.84,0.39,0.2,-0.33,-1.55
21:50:08.283,39237,-0.96,-0.84,0.39,0.2,-0.55,-1.63
21:50:08.339,39293,-0.94,-0.89,0.38,0.1,-0.50,-1.77
21:50:08.396,39351,-0.88,-0.95,0.39,0.1,-0.40,-1.87
21:50:08.454,39408,-0.82,-1.02,0.38,0.1,-0.31,-1.95
21:50:08.511,39465,-0.77,-1.06,0.37,0.2,-0.33,-1.88
21:50:08.568,39522,-0.74,-1.09,0.38,0.2,-0.39,-1.91
21:50:08.625,39579,-0.76,-1.06,0.38,0.2,-0.47,-1.76
21:50:08.683,39637,-0.80,-1.01,0.38,0.1,-0.60,-1.69
21:50:08.740,39694,-0.84,-0.96,0.39,0.2,-0.62,-1.63
21:50:08.797,39751,-0.86,-0.99,0.39,0.1,-0.59,-1.85
21:50:08.855,39809,-0.86,-1.05,0.39,0.0,-0.55,-1.98
21:50:08.911,39865,-0.84,-1.12,0.38,0.2,-0.49,-2.07
21:50:08.968,39922,-0.83,-1.17,0.39,0.1,-0.50,-2.03
21:50:09.026,39980,-0.83,-1.19,0.39,0.1,-0.53,-2.05
21:50:09.083,40037,-0.86,-1.20,0.40,0.1,-0.61,-1.97
21:50:09.140,40094,-0.88,-1.20,0.40,0.2,-0.61,-1.97
21:50:09.198,40152,-0.90,-1.20,0.40,0.2,-0.66,-1.98
21:50:09.254,40208,-0.90,-1.21,0.41,0.2,-0.59,-2.02
21:50:09.312,40266,-0.90,-1.20,0.41,0.2,-0.63,-1.96
21:50:09.368,40322,-0.90,-1.20,0.40,0.1,-0.65,-1.97
21:50:09.426,40380,-0.84,-1.22,0.40,0.1,-0.42,-2.04
21:50:09.483,40437,-0.82,-1.25,0.40,0.1,-0.52,-2.09
21:50:09.540,40494,-0.80,-1.25,0.40,0.2,-0.51,-2.05
21:50:09.598,40552,-0.79,-1.25,0.40,0.2,-0.54,-2.03
21:50:09.654,40608,-0.74,-1.26,0.40,0.3,-0.45,-2.05
21:50:09.712,40666,-0.73,-1.25,0.40,0.2,-0.50,-2.04
21:50:09.769,40723,-0.72,-1.23,0.40,0.2,-0.51,-1.97
21:50:09.826,40780,-0.69,-1.22,0.39,0.1,-0.48,-2.04
21:50:09.884,40838,-0.67,-1.21,0.39,0.2,-0.46,-2.03
21:50:09.941,40895,-0.65,-1.22,0.38,0.2,-0.44,-2.09
21:50:09.998,40952,-0.65,-1.24,0.38,0.2,-0.51,-2.12
21:50:10.055,41009,-0.64,-1.29,0.38,0.3,-0.49,-2.23
21:50:10.113,41067,-0.62,-1.33,0.38,0.2,-0.46,-2.29
21:50:10.169,41123,-0.57,-1.35,0.37,0.3,-0.34,-2.23
21:50:10.227,41181,-0.57,-1.32,0.37,0.2,-0.44,-2.11
21:50:10.284,41238,-0.60,-1.26,0.37,0.2,-0.56,-2.01
21:50:10.341,41296,-0.62,-1.22,0.37,0.3,-0.56,-2.00
21:50:10.398,41352,-0.59,-1.23,0.36,0.3,-0.46,-2.13
21:50:10.455,41409,-0.56,-1.26,0.37,0.2,-0.41,-2.26
21:50:10.513,41467,-0.54,-1.29,0.37,0.1,-0.39,-2.25
21:50:10.570,41524,-0.55,-1.30,0.37,0.1,-0.51,-2.20
21:50:10.627,41581,-0.60,-1.30,0.36,0.1,-0.65,-2.21
21:50:10.684,41638,-0.62,-1.30,0.37,0.2,-0.57,-2.23
21:50:10.742,41696,-0.62,-1.31,0.37,0.1,-0.56,-2.24
21:50:10.799,41753,-0.58,-1.30,0.37,0.1,-0.43,-2.19
21:50:10.856,41810,-0.54,-1.30,0.38,0.2,-0.43,-2.24
21:50:10.913,41867,-0.55,-1.28,0.39,0.3,-0.51,-2.19
21:50:10.972,41926,-0.58,-1.22,0.38,0.2,-0.62,-2.05
21:50:11.028,41982,-0.55,-1.21,0.38,0.1,-0.43,-2.19
21:50:11.084,42038,-0.57,-1.21,0.38,0.2,-0.58,-2.20
21:50:11.142,42096,-0.57,-1.21,0.39,0.2,-0.53,-2.22
21:50:11.199,42153,-0.57,-1.19,0.39,0.2,-0.55,-2.12
21:50:11.256,42210,-0.50,-1.15,0.39,0.3,-0.37,-2.12
21:50:11.313,42267,-0.47,-1.08,0.39,0.3,-0.36,-2.00
21:50:11.371,42325,-0.50,-0.94,0.40,0.2,-0.55,-1.74
21:50:11.427,42381,-0.56,-0.83,0.41,0.3,-0.69,-1.70
21:50:11.485,42439,-0.55,-0.81,0.41,0.2,-0.56,-1.95
21:50:11.542,42496,-0.49,-0.86,0.40,0.3,-0.36,-2.12
21:50:11.599,42553,-0.44,-0.92,0.40,0.3,-0.31,-2.25
21:50:11.656,42610,-0.45,-0.92,0.40,0.3,-0.51,-2.12
21:50:11.713,42667,-0.45,-0.94,0.40,0.3,-0.49,-2.13
21:50:11.770,42724,-0.43,-0.92,0.40,0.3,-0.42,-2.08
21:50:11.828,42782,-0.39,-0.89,0.39,0.3,-0.35,-2.00
21:50:45.109,76063,3.49,-1.03,0.11,0.2,-0.33,-2.06
21:50:45.280,76234,-1.35,-0.14,-0.00,-0.1,-0.75,-0.06
21:50:45.396,76350,-1.37,-0.14,-0.00,-0.1,-0.85,-0.07
21:50:45.452,76406,-1.37,-0.13,-0.01,-0.1,-0.87,-0.05
21:50:45.510,76464,-1.36,-0.13,-0.01,-0.1,-0.86,-0.07
21:50:45.566,76520,-1.36,-0.14,-0.01,-0.0,-0.89,-0.10
21:50:45.624,76578,-1.37,-0.14,-0.01,0.0,-0.90,-0.11
21:50:45.681,76635,-1.37,-0.15,-0.01,0.1,-0.89,-0.12
21:50:45.738,76692,-1.37,-0.15,-0.01,0.0,-0.93,-0.11
21:50:45.796,76750,-1.36,-0.15,-0.02,0.1,-0.88,-0.08
21:50:45.852,76806,-1.37,-0.14,-0.02,0.1,-0.92,-0.08
21:50:45.909,76863,-1.37,-0.14,-0.02,0.1,-0.93,-0.06
21:50:45.967,76921,-1.37,-0.16,-0.02,0.2,-0.97,-0.17
21:50:46.024,76978,-1.38,-0.16,-0.01,0.2,-0.96,-0.12
21:50:46.081,77035,-1.39,-0.16,-0.00,0.1,-0.99,-0.11
21:50:46.138,77092,-1.41,-0.15,0.00,0.0,-1.04,-0.06
21:50:46.196,77150,-1.40,-0.21,0.01,-0.0,-1.07,-0.11
21:50:46.252,77206,-1.00,-1.05,-0.02,-0.0,0.15,-2.61
21:50:46.310,77264,-0.66,-2.24,-0.03,0.1,0.38,-4.22
21:50:46.367,77321,-0.10,-3.40,-0.04,0.0,1.07,-5.01
21:50:46.423,77377,0.64,-4.85,-0.07,-0.1,1.99,-6.42
21:50:46.482,77436,1.08,-5.90,-0.08,-0.0,1.67,-6.28
21:50:46.539,77493,1.21,-6.16,-0.08,-0.0,0.95,-4.77
21:50:46.596,77550,0.97,-5.56,-0.07,0.0,-0.04,-2.22
21:50:46.653,77607,0.39,-4.16,-0.05,0.1,-1.17,0.43
21:50:46.710,77664,-0.47,-2.18,-0.02,0.1,-2.44,3.13
21:50:46.768,77722,-1.11,-0.40,0.01,-0.1,-2.49,4.22
21:50:46.824,77778,-1.43,0.93,0.01,-0.1,-1.89,3.60
21:50:46.882,77836,-1.57,1.59,0.01,-0.0,-1.52,2.57
21:50:46.939,77893,-1.47,1.74,0.00,-0.1,-0.83,1.36
21:50:46.996,77950,-1.39,1.54,-0.00,-0.0,-0.83,0.29
21:50:47.053,78007,-1.19,1.00,-0.00,0.1,-0.47,-0.81
21:50:47.110,78064,-0.87,0.41,-0.01,0.2,0.07,-1.40
21:50:47.168,78122,-0.60,-0.12,-0.01,0.2,0.15,-1.62
21:50:47.225,78179,-0.57,-0.42,-0.01,0.2,-0.41,-1.25
21:50:47.282,78236,-0.58,-0.60,-0.01,0.2,-0.55,-1.02
21:50:47.339,78293,-0.61,-0.71,-0.01,0.2,-0.65,-0.89
21:50:47.454,78408,-0.53,-0.89,-0.01,0.1,-0.38,-0.96
21:50:47.511,78465,-0.49,-1.03,-0.01,0.1,-0.39,-1.19
21:50:47.568,78522,-0.38,-1.14,-0.01,0.1,-0.15,-1.18
21:50:47.625,78579,-0.40,-1.14,-0.01,0.1,-0.48,-0.89
21:50:47.683,78637,-0.48,-1.09,0.00,-0.0,-0.74,-0.76
21:50:47.739,78693,-0.52,-1.04,0.00,0.0,-0.64,-0.73
21:50:47.797,78751,-0.57,-1.00,0.00,0.1,-0.68,-0.75
21:50:47.854,78808,-0.62,-0.92,0.01,0.1,-0.75,-0.59
21:50:47.911,78866,-0.63,-0.86,0.01,0.1,-0.62,-0.61
21:50:47.969,78923,-0.67,-0.71,0.01,0.2,-0.68,-0.33
21:50:48.026,78980,-0.81,-0.56,0.02,0.1,-1.08,-0.21
21:50:48.083,79037,-0.95,-0.40,0.02,0.0,-1.16,-0.09
21:50:48.140,79094,-1.00,-0.36,0.02,0.0,-1.03,-0.32
21:50:48.197,79151,-1.03,-0.41,0.03,0.0,-0.94,-0.60
21:50:48.254,79208,-1.01,-0.48,0.03,0.0,-0.83,-0.75
21:50:48.311,79265,-0.97,-0.54,0.03,-0.0,-0.73,-0.77
21:50:48.369,79323,-0.92,-0.53,0.03,-0.0,-0.71,-0.60
21:50:48.426,79380,-0.94,-0.43,0.03,0.1,-0.90,-0.28
21:50:48.484,79438,-0.93,-0.37,0.03,0.1,-0.83,-0.36
21:50:48.540,79494,-0.90,-0.37,0.03,0.1,-0.77,-0.48
21:50:48.597,79551,-0.84,-0.41,0.03,0.0,-0.65,-0.60
21:50:48.655,79609,-0.83,-0.42,0.03,0.1,-0.77,-0.60
21:50:48.711,79665,-0.82,-0.42,0.03,0.1,-0.73,-0.54
21:50:48.770,79724,-0.85,-0.37,0.03,0.1,-0.89,-0.38
21:50:48.826,79780,-0.85,-0.33,0.03,0.0,-0.93,-0.37
21:50:48.884,79838,-0.87,-0.27,0.02,0.1,-0.87,-0.32
21:50:48.941,79895,-0.85,-0.26,0.03,0.1,-0.77,-0.43
21:50:48.998,79952,-0.82,-0.24,0.02,0.1,-0.75,-0.36
21:50:49.055,80009,-0.80,-0.21,0.03,0.1,-0.77,-0.37
21:50:49.112,80066,-0.80,-0.13,0.04,0.1,-0.81,-0.20
21:50:49.169,80123,-0.80,-0.05,0.04,0.2,-0.80,-0.12
21:50:49.228,80182,-0.76,-0.01,0.04,0.1,-0.75,-0.20
21:50:49.284,80238,-0.71,-0.01,0.04,0.1,-0.64,-0.27
21:50:49.341,80295,-0.69,0.02,0.04,0.1,-0.74,-0.24
21:50:49.398,80352,-0.68,0.03,0.04,0.0,-0.74,-0.24
21:50:49.456,80410,-0.66,0.04,0.04,-0.0,-0.69,-0.26
21:50:49.513,80467,-0.64,0.05,0.03,-0.1,-0.71,-0.22
21:50:49.570,80524,-0.62,0.06,0.03,-0.1,-0.70,-0.22
21:50:49.627,80581,-0.64,0.07,0.04,-0.1,-0.78,-0.25
21:50:49.684,80638,-0.66,0.07,0.04,-0.0,-0.86,-0.22
21:50:49.741,80695,-0.66,0.07,0.04,-0.0,-0.75,-0.25
21:50:49.799,80753,-0.69,0.04,0.05,0.1,-0.86,-0.31
21:50:49.855,80809,-0.72,-0.02,0.05,0.2,-0.92,-0.45
21:50:49.913,80867,-0.73,-0.10,0.06,0.2,-0.87,-0.54
21:50:49.970,80924,-0.71,-0.16,0.06,0.0,-0.77,-0.53
21:50:50.027,80981,-0.73,-0.18,0.06,0.0,-0.88,-0.46
21:50:50.085,81039,-0.76,-0.20,0.06,0.1,-0.94,-0.47
21:50:50.141,81095,-0.80,-0.22,0.06,0.1,-1.00,-0.47
21:50:50.199,81153,-0.82,-0.28,0.07,0.2,-0.96,-0.60
21:50:50.256,81210,-0.81,-0.34,0.07,0.1,-0.92,-0.63
21:50:50.314,81268,-0.80,-0.36,0.06,0.1,-0.88,-0.59
21:50:50.370,81324,-0.81,-0.33,0.07,0.1,-0.91,-0.48
21:50:50.428,81382,-0.86,-0.24,0.07,0.0,-1.07,-0.25
21:50:50.485,81439,-0.91,-0.17,0.07,0.2,-1.10,-0.23
21:50:50.542,81496,-0.89,-0.15,0.07,0.2,-0.93,-0.29
21:50:50.599,81553,-0.82,-0.15,0.07,0.2,-0.78,-0.42
21:50:50.657,81611,-0.79,-0.14,0.07,0.0,-0.85,-0.37
21:50:50.714,81668,-0.79,-0.07,0.07,0.0,-0.92,-0.17
21:50:50.771,81725,-0.74,0.03,0.07,-0.0,-0.78,-0.04
21:50:50.828,81782,-0.77,0.13,0.07,-0.1,-0.99,0.01
21:50:50.885,81839,-0.77,0.16,0.07,0.0,-0.94,-0.11
21:50:50.942,81896,-0.71,0.14,0.07,0.1,-0.77,-0.26
21:50:51.000,81954,-0.69,0.10,0.07,0.1,-0.83,-0.38
21:50:51.057,82011,-0.69,0.09,0.07,0.1,-0.89,-0.28
21:50:51.113,82067,-0.73,0.12,0.07,0.1,-1.00,-0.17
21:50:51.171,82125,-0.77,0.16,0.07,0.2,-1.10,-0.11
21:50:51.229,82183,-0.81,0.16,0.07,0.1,-1.08,-0.21
21:50:51.285,82239,-0.83,0.13,0.07,0.1,-1.04,-0.30
21:50:51.342,82296,-0.83,0.12,0.07,0.0,-1.03,-0.26
21:50:51.400,82354,-0.79,0.12,0.07,-0.0,-0.90,-0.20
21:50:51.458,82412,-0.70,0.10,0.07,-0.0,-0.67,-0.28
21:50:51.514,82468,-0.74,0.10,0.06,-0.1,-1.01,-0.27
21:50:51.572,82526,-0.80,0.13,0.07,-0.0,-1.17,-0.15
21:50:51.629,82583,-0.81,0.11,0.07,0.1,-1.05,-0.26
21:50:51.686,82640,-0.77,0.03,0.08,0.1,-0.93,-0.45
21:50:51.743,82697,-0.73,-0.03,0.07,0.0,-0.86,-0.53
21:50:51.800,82754,-0.76,-0.02,0.07,0.1,-1.05,-0.31
21:50:51.857,82811,-0.84,0.06,0.08,0.0,-1.23,-0.07
21:50:51.914,82868,-0.90,0.16,0.08,0.1,-1.25,0.03
21:50:51.972,82926,-0.87,0.20,0.09,0.1,-1.02,-0.05
21:50:52.029,82983,-0.84,0.23,0.08,0.1,-0.98,-0.09
21:50:52.086,83040,-0.87,0.30,0.08,0.1,-1.17,0.04
21:50:52.143,83097,-0.90,0.35,0.08,0.1,-1.18,0.07
21:50:52.201,83155,-0.85,0.40,0.08,0.1,-0.94,0.06
21:50:52.259,83213,-0.82,0.43,0.09,0.1,-1.01,0.01
21:50:52.315,83269,-0.77,0.44,0.09,0.1,-0.96,0.06
21:50:52.372,83326,-0.76,0.46,0.08,0.1,-0.98,0.02
21:50:52.429,83383,-0.76,0.46,0.09,0.1,-1.06,0.04
21:50:52.487,83441,-0.78,0.47,0.09,0.0,-1.11,0.03
21:50:52.543,83497,-0.77,0.45,0.09,-0.1,-1.03,-0.08
21:50:52.601,83555,-0.75,0.42,0.09,-0.0,-1.03,-0.08
21:50:52.658,83612,-0.74,0.41,0.09,0.0,-1.02,-0.06
21:50:52.715,83669,-0.74,0.42,0.09,0.1,-1.07,0.01
21:50:52.773,83727,-0.78,0.43,0.10,0.2,-1.17,0.01
21:50:52.831,83785,-0.80,0.46,0.10,0.2,-1.13,0.11
21:50:52.887,83841,-0.81,0.45,0.10,0.1,-1.14,0.00
21:50:52.945,83899,-0.80,0.42,0.10,-0.0,-1.12,-0.09
21:50:53.001,83955,-0.80,0.40,0.10,0.1,-1.11,-0.07
21:50:53.058,84012,-0.83,0.43,0.10,0.1,-1.19,0.05
21:50:53.116,84070,-0.87,0.50,0.11,0.1,-1.27,0.20
21:50:53.173,84127,-0.94,0.59,0.11,0.2,-1.41,0.34
21:50:53.230,84184,-0.99,0.66,0.11,0.1,-1.39,0.32
21:50:53.287,84241,-1.00,0.65,0.11,0.1,-1.32,0.10
21:50:53.345,84299,-0.99,0.61,0.10,0.1,-1.22,0.03
21:50:53.402,84356,-1.02,0.59,0.11,0.2,-1.36,0.09
21:50:53.459,84413,-1.05,0.60,0.11,0.1,-1.40,0.13
21:50:53.516,84470,-1.06,0.59,0.11,0.1,-1.35,0.11
21:50:53.573,84527,-1.07,0.60,0.11,0.1,-1.35,0.17
21:50:53.631,84585,-1.12,0.64,0.12,0.1,-1.50,0.26
21:50:53.688,84642,-1.15,0.64,0.12,0.2,-1.45,0.17
21:50:53.745,84699,-1.15,0.62,0.13,0.1,-1.40,0.16
21:50:53.802,84756,-1.13,0.60,0.13,0.1,-1.36,0.11
21:50:53.859,84813,-1.12,0.55,0.13,0.1,-1.33,-0.02
21:50:53.916,84870,-1.12,0.51,0.14,0.0,-1.41,-0.02
21:50:53.973,84927,-1.12,0.46,0.14,0.2,-1.43,-0.03
21:50:54.031,84985,-1.12,0.43,0.14,0.1,-1.42,-0.03
21:50:54.088,85042,-1.10,0.41,0.14,0.2,-1.36,-0.02
21:50:54.145,85099,-1.10,0.41,0.14,0.2,-1.43,0.05
21:50:54.203,85157,-1.09,0.42,0.13,0.1,-1.39,0.11
21:50:54.260,85214,-1.10,0.44,0.14,0.2,-1.45,0.10
21:50:54.316,85270,-1.10,0.46,0.14,0.2,-1.42,0.14
21:50:54.374,85328,-1.09,0.45,0.14,0.1,-1.41,0.08
21:50:54.432,85386,-1.10,0.44,0.14,0.1,-1.50,0.08
21:50:54.488,85442,-1.10,0.45,0.14,0.1,-1.42,0.12
21:50:54.546,85500,-1.11,0.45,0.14,0.1,-1.48,0.09
21:50:54.603,85557,-1.11,0.47,0.14,0.2,-1.49,0.16
21:50:54.660,85614,-1.12,0.50,0.14,0.3,-1.51,0.20
21:50:54.717,85671,-1.11,0.53,0.14,0.2,-1.47,0.22
21:50:54.775,85729,-1.12,0.58,0.14,0.1,-1.53,0.27
21:50:54.832,85786,-1.15,0.64,0.15,0.1,-1.59,0.38
21:50:54.888,85842,-1.19,0.71,0.15,0.1,-1.63,0.41
21:50:54.946,85900,-1.20,0.75,0.16,0.2,-1.63,0.41
21:50:55.004,85958,-1.21,0.75,0.16,0.3,-1.56,0.36
21:50:55.061,86015,-1.21,0.77,0.17,0.2,-1.60,0.38
21:53:05.767,216721,133.20,-25.73,28.68,731.0,0.00,0.00
21:53:06.111,217065,10.18,7.46,0.01,0.3,5.78,4.31
21:53:06.168,217122,9.44,7.20,0.04,0.3,4.25,3.88
21:53:06.225,217179,8.38,6.62,0.06,0.3,2.56,2.76
21:53:06.282,217236,7.17,5.64,0.08,0.2,1.47,1.22
21:53:06.340,217294,6.01,4.31,0.11,0.2,1.03,-0.30
21:53:06.397,217351,4.94,2.93,0.12,0.3,0.45,-1.55
21:53:06.453,217407,3.76,1.54,0.14,0.3,-0.19,-2.17
21:53:06.511,217466,2.67,0.55,0.15,0.3,-1.13,-2.21
21:53:06.569,217523,1.44,-0.35,0.17,0.4,-1.72,-2.16
21:53:06.626,217580,0.59,-0.95,0.18,0.4,-1.92,-2.14
21:53:06.682,217636,-0.18,-1.56,0.20,0.4,-1.85,-2.29
21:53:06.740,217694,-0.65,-2.15,0.21,0.4,-1.39,-2.51
21:53:06.798,217752,-0.94,-2.76,0.21,0.3,-1.19,-3.15
21:53:06.855,217809,-1.17,-3.27,0.22,0.4,-1.11,-3.16
21:53:06.911,217865,-1.32,-3.71,0.23,0.4,-1.01,-3.19
21:53:06.969,217923,-1.37,-3.97,0.22,0.4,-0.80,-3.00
21:53:07.025,217979,-1.33,-4.10,0.23,0.4,-0.59,-2.70
21:53:07.083,218037,-1.29,-4.12,0.22,0.4,-0.53,-2.50
21:53:07.141,218095,-1.28,-4.03,0.22,0.3,-0.58,-2.16
21:53:07.197,218151,-1.24,-3.90,0.22,0.4,-0.52,-1.97
21:53:07.255,218209,-1.15,-3.76,0.21,0.4,-0.33,-1.88
21:53:07.312,218266,-1.04,-3.54,0.20,0.5,-0.24,-1.56
21:53:07.369,218323,-0.96,-3.24,0.20,0.4,-0.20,-1.17
21:53:07.426,218380,-0.95,-2.81,0.21,0.4,-0.41,-0.65
21:53:07.483,218437,-0.93,-2.42,0.21,0.5,-0.40,-0.47
21:53:07.540,218494,-0.87,-2.11,0.20,0.4,-0.24,-0.46
21:53:07.598,218552,-0.81,-1.85,0.19,0.4,-0.20,-0.42
21:53:07.655,218609,-0.81,-1.65,0.19,0.5,-0.31,-0.46
21:53:07.712,218666,-0.83,-1.54,0.19,0.5,-0.44,-0.59
21:53:07.770,218724,-0.90,-1.51,0.19,0.5,-0.54,-0.80
21:53:07.826,218780,-1.01,-1.52,0.20,0.3,-0.72,-0.92
21:53:07.884,218838,-1.11,-1.54,0.20,0.4,-0.77,-0.93
21:53:07.941,218895,-1.24,-1.54,0.21,0.3,-0.95,-0.93
21:53:07.998,218952,-1.39,-1.53,0.21,0.3,-1.07,-0.86
21:53:08.056,219010,-1.54,-1.50,0.21,0.4,-1.14,-0.82
21:53:08.113,219067,-1.75,-1.45,0.21,0.4,-1.43,-0.76
21:53:08.170,219124,-1.90,-1.42,0.22,0.4,-1.52,-0.69
21:53:08.227,219181,-2.11,-1.38,0.22,0.5,-1.56,-0.75
21:53:08.284,219238,-2.14,-1.43,0.22,0.4,-1.27,-0.94
21:53:08.341,219295,-2.16,-1.48,0.22,0.4,-1.25,-1.00
21:53:08.399,219353,-2.18,-1.52,0.21,0.4,-1.24,-1.01
21:53:08.456,219410,-2.20,-1.53,0.22,0.4,-1.29,-0.91
21:53:08.513,219467,-2.19,-1.63,0.21,0.4,-1.21,-1.21
21:53:08.571,219525,-2.10,-1.73,0.21,0.4,-0.95,-1.28
21:53:08.627,219581,-2.02,-1.79,0.20,0.5,-0.93,-1.26
21:53:08.684,219638,-1.96,-1.77,0.20,0.4,-0.97,-1.05
21:53:08.741,219695,-1.86,-1.73,0.20,0.4,-0.77,-0.95
21:53:08.798,219752,-1.65,-1.65,0.19,0.4,-0.48,-0.80
21:53:08.856,219810,-1.37,-1.59,0.18,0.4,0.01,-0.82
21:53:08.913,219867,-1.17,-1.50,0.18,0.5,-0.13,-0.71
21:53:08.970,219924,-0.97,-1.40,0.17,0.4,-0.00,-0.64
21:53:09.027,219981,-0.85,-1.28,0.16,0.4,-0.11,-0.52
21:53:09.085,220039,-0.79,-1.12,0.16,0.4,-0.23,-0.32
21:53:09.142,220096,-0.78,-0.94,0.15,0.5,-0.35,-0.19
21:53:09.199,220153,-0.82,-0.77,0.16,0.5,-0.51,-0.07
21:53:09.257,220211,-0.81,-0.70,0.16,0.4,-0.38,-0.22
21:53:09.314,220268,-0.77,-0.68,0.15,0.3,-0.30,-0.37
21:53:09.371,220325,-0.75,-0.71,0.15,0.4,-0.33,-0.54
21:53:09.427,220381,-0.73,-0.72,0.15,0.5,-0.34,-0.51
21:53:09.485,220439,-0.71,-0.68,0.15,0.4,-0.28,-0.35
21:53:09.543,220497,-0.71,-0.62,0.15,0.4,-0.34,-0.22
21:53:09.599,220553,-0.74,-0.79,0.15,0.4,-0.47,-0.74
21:53:09.656,220611,-0.76,-1.36,0.15,0.4,-0.43,-2.05
21:53:09.714,220668,-0.79,-2.22,0.15,0.4,-0.51,-3.48
21:53:09.770,220724,-0.73,-3.40,0.15,0.4,-0.26,-4.85
21:53:09.828,220782,-0.59,-4.41,0.15,0.3,0.06,-5.34
21:53:09.885,220839,-0.39,-5.42,0.13,0.3,0.29,-5.72
21:53:09.942,220896,-0.21,-6.11,0.12,0.4,0.35,-5.51
21:53:09.999,220953,-0.12,-6.48,0.12,0.3,0.25,-4.99
21:53:10.057,221011,-0.11,-6.59,0.12,0.4,0.01,-4.32
21:53:10.114,221068,-0.07,-6.57,0.12,0.4,0.11,-4.04
21:53:10.171,221125,-0.02,-6.49,0.11,0.5,0.16,-3.79
21:53:10.229,221183,0.04,-6.40,0.11,0.3,0.24,-3.71
21:53:10.286,221240,0.11,-6.33,0.11,0.5,0.29,-3.73
21:53:10.342,221296,0.17,-6.28,0.11,0.4,0.29,-3.77
21:53:10.400,221354,0.20,-6.25,0.11,0.4,0.29,-3.82
21:53:10.456,221410,0.22,-6.21,0.10,0.4,0.23,-3.80
21:53:10.515,221469,0.24,-6.14,0.09,0.4,0.26,-3.68
21:53:10.572,221526,0.24,-6.06,0.09,0.4,0.22,-3.57
21:53:10.628,221582,0.28,-5.97,0.08,0.5,0.32,-3.53
21:53:10.686,221640,0.30,-5.89,0.08,0.4,0.32,-3.53
21:53:10.743,221697,0.31,-5.83,0.07,0.5,0.24,-3.50
21:53:10.800,221754,0.34,-5.79,0.07,0.5,0.36,-3.57
21:53:10.859,221813,0.40,-5.77,0.06,0.5,0.43,-3.62
21:53:10.915,221869,0.42,-5.73,0.06,0.4,0.38,-3.55
21:53:10.972,221926,0.41,-5.68,0.06,0.4,0.28,-3.51
21:53:11.029,221983,0.41,-5.65,0.06,0.4,0.31,-3.52
21:53:11.087,222041,0.41,-5.62,0.05,0.3,0.30,-3.51
21:53:11.143,222097,0.44,-5.58,0.05,0.4,0.41,-3.51
21:53:11.200,222154,0.45,-5.55,0.05,0.4,0.36,-3.50
21:53:11.259,222213,0.46,-5.55,0.05,0.4,0.37,-3.58
21:53:11.316,222270,0.46,-5.56,0.04,0.5,0.35,-3.60
21:53:11.373,222327,0.47,-5.62,0.04,0.4,0.35,-3.82
21:53:11.430,222384,0.48,-5.67,0.03,0.4,0.37,-3.79
21:53:11.487,222441,0.50,-5.70,0.03,0.5,0.45,-3.82
21:53:11.544,222498,0.49,-5.71,0.03,0.5,0.34,-3.74
21:53:11.601,222555,0.48,-5.71,0.02,0.5,0.33,-3.74
21:53:11.658,222612,0.49,-5.71,0.02,0.5,0.40,-3.73
21:53:11.715,222669,0.50,-5.69,0.01,0.4,0.40,-3.70
21:53:11.772,222726,0.52,-5.69,0.00,0.5,0.43,-3.74
21:53:11.831,222785,0.52,-5.65,-0.00,0.4,0.41,-3.62
21:53:11.887,222841,0.54,-5.61,-0.00,0.3,0.44,-3.62
21:53:11.944,222898,0.58,-5.58,-0.01,0.4,0.51,-3.62
21:53:12.002,222956,0.59,-5.53,-0.01,0.4,0.47,-3.58
21:53:12.058,223012,0.59,-5.50,-0.02,0.4,0.44,-3.60
21:53:12.115,223069,0.58,-5.48,-0.02,0.5,0.38,-3.60
21:53:12.172,223126,0.59,-5.46,-0.02,0.5,0.44,-3.59
21:53:12.231,223185,0.61,-5.45,-0.03,0.5,0.49,-3.63
21:53:12.288,223242,0.62,-5.46,-0.03,0.5,0.48,-3.72
21:53:12.345,223299,0.63,-5.47,-0.04,0.4,0.52,-3.70
21:53:12.401,223355,0.62,-5.45,-0.04,0.4,0.44,-3.65
21:53:12.459,223413,0.61,-5.45,-0.04,0.4,0.39,-3.68
21:53:12.517,223471,0.59,-5.43,-0.05,0.4,0.39,-3.64
21:53:12.573,223527,0.58,-5.43,-0.05,0.5,0.42,-3.69
21:53:12.631,223585,0.59,-5.47,-0.05,0.5,0.47,-3.84
21:53:12.687,223641,0.60,-5.49,-0.06,0.5,0.47,-3.82
21:53:12.744,223698,0.58,-5.49,-0.06,0.4,0.40,-3.79
21:53:12.802,223756,0.60,-5.51,-0.06,0.4,0.48,-3.79
21:53:12.859,223813,0.61,-5.49,-0.06,0.5,0.47,-3.71
21:53:12.917,223871,0.62,-5.49,-0.05,0.4,0.50,-3.77
21:53:12.974,223928,0.63,-5.49,-0.06,0.4,0.48,-3.78
21:53:13.031,223985,0.63,-5.48,-0.05,0.4,0.49,-3.81
21:53:13.089,224043,0.65,-5.50,-0.06,0.5,0.52,-3.84
21:53:13.145,224099,0.67,-5.52,-0.06,0.4,0.55,-3.88
21:53:13.203,224157,0.68,-5.53,-0.06,0.3,0.52,-3.89
21:53:13.260,224214,0.68,-5.51,-0.05,0.4,0.53,-3.82
21:53:13.316,224270,0.67,-5.48,-0.05,0.4,0.45,-3.78
21:53:13.374,224328,0.68,-5.48,-0.05,0.4,0.50,-3.82
21:53:13.431,224385,0.69,-5.47,-0.05,0.4,0.55,-3.83
21:53:13.488,224442,0.67,-5.47,-0.05,0.5,0.46,-3.84
21:53:13.545,224499,0.68,-5.48,-0.05,0.5,0.54,-3.87
21:53:13.603,224557,0.68,-5.50,-0.06,0.4,0.51,-3.94
21:53:13.660,224614,0.69,-5.51,-0.06,0.4,0.54,-3.92
21:53:13.717,224671,0.71,-5.52,-0.07,0.4,0.57,-3.96
21:53:13.775,224729,0.69,-5.49,-0.06,0.4,0.49,-3.84
21:53:13.832,224786,0.68,-5.45,-0.06,0.5,0.49,-3.78
21:53:13.889,224843,0.67,-5.42,-0.06,0.5,0.50,-3.82
21:53:13.946,224900,0.66,-5.39,-0.06,0.5,0.45,-3.79
21:53:14.004,224958,0.65,-5.34,-0.06,0.4,0.49,-3.73
21:53:14.060,225014,0.65,-5.32,-0.05,0.4,0.49,-3.79
21:53:14.117,225071,0.68,-5.32,-0.05,0.5,0.60,-3.83
21:53:14.175,225129,0.68,-5.30,-0.04,0.4,0.53,-3.80
21:53:14.232,225186,0.68,-5.26,-0.04,0.3,0.54,-3.76
21:53:14.289,225243,0.66,-5.24,-0.04,0.3,0.46,-3.78
21:53:14.346,225300,0.63,-5.23,-0.04,0.4,0.39,-3.79
21:53:14.404,225358,0.62,-5.24,-0.03,0.4,0.46,-3.85
21:53:14.461,225415,0.61,-5.26,-0.04,0.5,0.48,-3.89
21:53:14.518,225472,0.61,-5.27,-0.03,0.5,0.47,-3.87
21:53:14.575,225529,0.61,-5.30,-0.03,0.5,0.48,-3.97
21:53:14.632,225586,0.60,-5.32,-0.03,0.5,0.46,-3.97
21:53:14.689,225643,0.57,-5.32,-0.03,0.4,0.40,-3.95
21:53:14.746,225700,0.53,-5.31,-0.04,0.4,0.32,-3.91
21:53:14.804,225758,0.53,-5.30,-0.04,0.3,0.44,-3.89
21:53:14.860,225814,0.54,-5.28,-0.04,0.4,0.49,-3.87
21:53:14.919,225873,0.55,-5.24,-0.04,0.3,0.46,-3.82
21:53:14.976,225930,0.54,-5.21,-0.03,0.3,0.44,-3.82
21:53:15.033,225987,0.54,-5.19,-0.02,0.3,0.47,-3.83
21:53:15.089,226043,0.55,-5.17,-0.03,0.4,0.47,-3.82
21:53:15.147,226101,0.56,-5.16,-0.04,0.4,0.48,-3.87
21:53:15.204,226158,0.56,-5.16,-0.04,0.4,0.48,-3.89
21:53:15.262,226216,0.58,-5.17,-0.04,0.4,0.51,-3.93
21:53:15.318,226272,0.57,-5.16,-0.04,0.5,0.44,-3.89
21:53:15.375,226329,0.55,-5.14,-0.04,0.4,0.42,-3.85
21:53:15.433,226387,0.53,-5.11,-0.04,0.3,0.38,-3.82
21:53:15.490,226444,0.51,-5.09,-0.04,0.3,0.39,-3.85
21:53:15.548,226502,0.52,-5.09,-0.04,0.4,0.50,-3.93
21:53:15.606,226560,0.53,-5.09,-0.04,0.5,0.47,-3.90
21:53:15.662,226616,0.51,-5.06,-0.04,0.4,0.40,-3.83
21:53:15.719,226673,0.50,-5.05,-0.03,0.3,0.42,-3.88
21:53:23.871,234825,12.66,-18.61,-0.45,0.2,0.34,-3.86
21:53:23.985,234939,12.48,-18.16,0.01,0.1,7.59,-10.97
21:53:24.156,235110,12.50,-18.11,0.01,0.2,7.61,-10.94
21:53:24.214,235168,12.46,-18.12,0.01,0.2,7.54,-11.06
21:53:24.271,235225,12.37,-17.99,0.01,0.3,7.33,-10.73
21:53:24.328,235282,12.11,-18.26,-0.00,0.3,6.74,-11.98
21:53:24.386,235340,11.64,-17.72,-0.03,0.4,6.49,-10.07
21:53:24.443,235397,10.40,-16.39,0.01,0.3,3.38,-6.79
21:53:24.500,235454,8.73,-14.47,0.09,0.3,1.67,-4.67
21:53:24.558,235512,6.66,-12.09,0.14,0.3,-0.48,-2.01
21:53:24.615,235569,4.37,-9.67,0.21,0.3,-2.44,-0.56
21:53:24.672,235626,2.49,-7.54,0.29,0.3,-3.03,0.33
21:53:24.729,235683,1.31,-5.83,0.29,0.2,-2.23,0.74
21:53:24.786,235740,0.36,-4.43,0.33,0.2,-1.94,0.50
21:53:24.843,235797,-0.21,-3.50,0.36,0.2,-1.45,0.04
21:53:24.900,235854,-0.62,-2.78,0.35,0.2,-1.19,-0.28
21:53:24.958,235912,-0.92,-2.31,0.37,0.1,-1.07,-0.51
21:53:25.014,235968,-1.29,-1.93,0.38,0.2,-1.48,-0.55
21:53:25.071,236025,-1.52,-1.59,0.40,0.3,-1.32,-0.53
21:53:25.129,236083,-1.56,-1.40,0.41,0.2,-0.83,-0.71
21:53:25.187,236141,-1.56,-1.31,0.40,0.2,-0.71,-0.90
21:53:25.244,236198,-1.53,-1.28,0.41,0.2,-0.60,-1.04
21:53:25.301,236255,-1.55,-1.26,0.42,0.3,-0.81,-1.07
21:53:25.358,236312,-1.47,-1.32,0.43,0.2,-0.56,-1.32
21:53:25.415,236369,-1.46,-1.37,0.45,0.2,-0.65,-1.34
21:53:25.472,236426,-1.44,-1.36,0.44,0.2,-0.64,-1.17
21:53:25.587,236541,-1.42,-1.18,0.45,0.1,-0.68,-0.91
21:53:25.644,236598,-1.47,-1.15,0.45,0.1,-0.81,-1.00
21:53:25.702,236656,-1.53,-1.15,0.47,0.2,-0.86,-1.15
21:53:25.758,236712,-1.59,-1.06,0.47,0.1,-0.93,-0.81
21:53:25.816,236770,-1.67,-0.93,0.48,0.1,-1.00,-0.63
21:53:25.872,236826,-1.76,-0.76,0.48,0.1,-1.08,-0.46
21:53:25.930,236884,-1.87,-0.58,0.48,0.1,-1.21,-0.29
21:53:25.987,236941,-1.99,-0.38,0.49,0.0,-1.34,-0.10
21:53:26.044,236998,-2.12,-0.13,0.50,0.1,-1.41,0.11
21:53:26.158,237112,-2.35,0.33,0.51,0.1,-1.53,0.40
21:53:26.216,237170,-2.46,0.57,0.52,0.2,-1.58,0.53
21:53:26.273,237227,-2.56,0.77,0.53,0.3,-1.63,0.57
21:53:26.331,237285,-2.55,0.94,0.53,0.2,-1.38,0.63
21:53:26.388,237342,-2.52,1.06,0.54,0.2,-1.28,0.54
21:53:26.444,237398,-2.44,1.16,0.54,0.2,-1.17,0.56
21:53:26.502,237456,-2.35,1.20,0.54,0.1,-1.01,0.47
21:53:26.558,237512,-2.24,1.21,0.54,0.1,-0.96,0.38
21:53:26.616,237571,-2.14,1.17,0.54,0.1,-0.90,0.23
21:53:26.673,237627,-2.04,1.09,0.54,0.2,-0.85,0.10
21:53:26.730,237684,-1.95,0.98,0.54,0.2,-0.83,-0.04
21:53:26.789,237743,-1.88,0.86,0.54,0.2,-0.80,-0.15
21:53:26.845,237799,-1.82,0.73,0.55,0.2,-0.82,-0.25
21:53:26.901,237855,-1.78,0.61,0.56,0.2,-0.83,-0.31
21:53:26.959,237913,-1.75,0.50,0.56,0.3,-0.85,-0.30
21:53:27.016,237970,-1.73,0.42,0.57,0.2,-0.87,-0.34
21:53:27.073,238027,-1.73,0.36,0.58,0.3,-0.91,-0.30
21:53:27.131,238085,-1.75,0.33,0.58,0.4,-0.98,-0.22
21:53:27.188,238142,-1.79,0.34,0.59,0.4,-1.04,-0.17
21:53:27.244,238198,-1.83,0.37,0.60,0.3,-1.08,-0.09
21:53:27.302,238256,-1.87,0.42,0.60,0.2,-1.13,0.03
21:53:27.359,238313,-1.91,0.49,0.61,0.1,-1.15,0.09
21:53:27.417,238371,-1.95,0.57,0.61,0.1,-1.17,0.19
21:53:27.474,238428,-2.00,0.65,0.63,0.2,-1.20,0.23
21:53:27.531,238485,-2.04,0.72,0.58,0.3,-1.25,0.28
21:53:27.588,238542,-1.94,0.74,0.48,0.1,-0.81,0.14
21:53:27.645,238599,-1.92,0.82,0.61,0.2,-1.00,0.26
21:53:27.703,238657,-2.05,0.84,0.67,0.2,-1.45,0.12
21:53:27.760,238714,-2.19,0.85,0.65,0.2,-1.59,0.21
21:53:27.817,238771,-2.27,0.85,0.62,0.1,-1.52,0.20
21:53:27.874,238828,-2.24,0.85,0.66,0.2,-1.22,0.16
21:53:27.932,238886,-2.02,-0.03,0.67,0.0,-0.78,-1.92
21:53:27.988,238942,-1.37,-1.76,0.65,0.3,0.90,-5.59
21:53:28.046,239000,-0.86,-3.66,0.66,0.3,0.85,-7.47
21:53:28.103,239057,-0.37,-5.49,0.66,0.2,1.05,-8.12
21:53:28.160,239114,0.07,-6.71,0.67,0.2,1.19,-7.63
21:53:28.218,239172,0.48,-7.51,0.66,0.3,1.42,-6.99
21:53:28.275,239229,0.74,-7.93,0.65,0.2,1.15,-6.23
21:53:28.332,239286,0.91,-8.23,0.66,0.2,1.06,-6.04
21:53:28.389,239343,0.86,-8.31,0.66,0.2,0.47,-5.68
21:53:28.446,239400,0.78,-8.32,0.67,0.2,0.36,-5.46
21:53:28.503,239457,0.70,-8.36,0.70,0.3,0.25,-5.54
21:53:28.560,239514,0.76,-8.32,0.69,0.3,0.64,-5.40
21:53:28.618,239572,0.86,-8.26,0.69,0.3,0.83,-5.29
21:53:28.674,239628,0.92,-8.24,0.69,0.3,0.81,-5.32
21:53:28.732,239686,0.97,-8.24,0.68,0.2,0.73,-5.48
21:53:28.789,239743,1.03,-8.22,0.68,0.1,0.91,-5.34
21:53:28.846,239800,1.02,-8.21,0.69,0.3,0.67,-5.41
21:53:28.904,239858,0.99,-8.16,0.70,0.3,0.58,-5.35
21:53:28.961,239915,1.06,-8.10,0.69,0.3,0.85,-5.22
21:53:29.017,239971,1.08,-8.05,0.69,0.3,0.80,-5.27
21:53:29.076,240030,1.09,-8.05,0.69,0.3,0.77,-5.37
21:53:29.133,240087,1.11,-8.02,0.70,0.3,0.82,-5.31
21:53:29.190,240144,1.09,-7.99,0.71,0.2,0.70,-5.33
21:53:29.247,240201,1.09,-8.00,0.72,0.1,0.72,-5.39
21:53:29.304,240258,1.16,-8.03,0.73,0.1,0.96,-5.52
21:53:29.361,240315,1.25,-8.06,0.72,0.2,1.07,-5.52
21:53:29.418,240372,1.27,-8.06,0.72,0.3,0.94,-5.46
21:53:29.476,240430,1.23,-8.07,0.73,0.3,0.73,-5.46
21:53:29.533,240487,1.26,-8.07,0.73,0.3,0.94,-5.53
21:53:29.590,240544,1.29,-8.06,0.74,0.2,0.90,-5.47
21:53:29.647,240601,1.34,-8.02,0.74,0.2,1.05,-5.39
21:53:29.705,240659,1.35,-7.94,0.75,0.3,0.95,-5.23
21:53:29.762,240716,1.32,-7.85,0.75,0.3,0.83,-5.18
21:53:29.819,240773,1.30,-7.78,0.76,0.3,0.87,-5.19
21:53:29.877,240831,1.26,-7.74,0.77,0.2,0.77,-5.24
21:53:29.933,240887,1.24,-7.70,0.78,0.2,0.78,-5.24
21:53:29.990,240944,1.31,-7.72,0.79,0.2,1.08,-5.43
21:53:30.048,241002,1.35,-7.77,0.79,0.1,1.03,-5.50
21:53:30.104,241058,1.38,-7.78,0.79,0.1,1.03,-5.55
21:53:30.161,241115,1.37,-7.73,0.80,0.2,0.94,-5.33
21:53:30.219,241173,1.37,-7.69,0.81,0.2,0.90,-5.32
21:53:30.277,241231,1.37,-7.63,0.82,0.3,0.95,-5.22
21:53:30.334,241288,1.41,-7.59,0.81,0.3,1.04,-5.24
21:53:30.391,241345,1.41,-7.58,0.82,0.2,1.01,-5.34
21:53:30.448,241402,1.40,-7.58,0.82,0.3,0.98,-5.36
21:53:30.505,241459,1.42,-7.57,0.83,0.2,1.02,-5.35
21:53:30.562,241516,1.46,-7.57,0.83,0.4,1.11,-5.37
21:53:30.620,241574,1.48,-7.54,0.83,0.3,1.07,-5.34
21:53:30.677,241631,1.53,-7.51,0.83,0.3,1.17,-5.29
21:53:30.734,241688,1.53,-7.53,0.85,0.3,1.08,-5.45
21:53:30.790,241744,1.51,-7.55,0.86,0.3,0.97,-5.44
21:53:30.848,241802,1.55,-7.57,0.86,0.2,1.19,-5.51
21:53:30.905,241859,1.58,-7.59,0.87,0.1,1.13,-5.50
21:53:30.963,241917,1.62,-7.59,0.88,0.2,1.27,-5.48
21:53:31.020,241974,1.63,-7.56,0.89,0.2,1.15,-5.40
21:53:31.078,242032,1.64,-7.55,0.90,0.2,1.15,-5.46
21:53:31.134,242088,1.63,-7.54,0.90,0.2,1.13,-5.45
21:53:31.191,242145,1.65,-7.55,0.90,0.2,1.18,-5.52
21:53:31.248,242202,1.69,-7.59,0.91,0.3,1.26,-5.62
21:53:31.306,242260,1.72,-7.61,0.91,0.3,1.28,-5.62
21:53:31.363,242317,1.73,-7.61,0.91,0.2,1.22,-5.60
21:53:31.420,242374,1.72,-7.61,0.92,0.1,1.19,-5.58
21:53:31.478,242432,1.73,-7.63,0.92,0.1,1.23,-5.61
21:53:31.535,242489,1.72,-7.63,0.92,0.2,1.17,-5.63
21:53:31.591,242545,1.73,-7.66,0.92,0.1,1.26,-5.68
21:53:31.649,242603,1.73,-7.66,0.93,0.3,1.24,-5.68
21:53:31.706,242660,1.73,-7.63,0.93,0.3,1.19,-5.58
21:53:31.763,242717,1.71,-7.57,0.95,0.2,1.19,-5.48
21:53:31.821,242775,1.68,-7.52,0.95,0.2,1.10,-5.50
21:53:31.877,242831,1.65,-7.51,0.95,0.3,1.10,-5.57
21:53:31.935,242889,1.63,-7.51,0.95,0.2,1.14,-5.61
21:53:31.992,242946,1.65,-7.53,0.95,0.2,1.21,-5.68
21:53:32.049,243003,1.65,-7.54,0.96,0.3,1.18,-5.67
21:53:32.107,243061,1.64,-7.55,0.95,0.3,1.16,-5.68
21:53:32.164,243118,1.64,-7.56,0.96,0.3,1.18,-5.72
21:53:32.221,243175,1.63,-7.57,0.97,0.3,1.14,-5.72
21:53:32.278,243232,1.64,-7.56,0.98,0.2,1.24,-5.70
21:53:32.335,243289,1.63,-7.54,0.98,0.2,1.18,-5.63
21:53:32.392,243346,1.61,-7.50,0.99,0.2,1.10,-5.60
21:53:32.450,243404,1.62,-7.44,1.00,0.2,1.23,-5.53
21:53:32.507,243461,1.59,-7.40,1.00,0.3,1.11,-5.54
21:53:32.564,243518,1.56,-7.38,1.01,0.3,1.08,-5.60
21:53:32.621,243575,1.58,-7.39,1.01,0.3,1.19,-5.69
21:53:32.678,243632,1.61,-7.39,1.01,0.3,1.26,-5.71
21:53:32.736,243690,1.62,-7.37,1.02,0.4,1.24,-5.63
21:53:32.793,243747,1.63,-7.34,1.02,0.3,1.21,-5.60
21:53:32.850,243804,1.61,-7.32,1.03,0.3,1.15,-5.62
21:53:32.907,243861,1.61,-7.34,1.04,0.2,1.20,-5.74
21:53:32.965,243919,1.63,-7.36,1.04,0.3,1.24,-5.76
21:53:33.021,243975,1.65,-7.40,1.04,0.3,1.30,-5.83
21:53:33.078,244032,1.67,-7.41,1.04,0.3,1.30,-5.81
21:53:33.136,244090,1.67,-7.38,1.04,0.2,1.24,-5.68
21:53:33.193,244147,1.65,-7.34,1.05,0.3,1.21,-5.63
21:53:33.250,244204,1.64,-7.32,1.05,0.3,1.20,-5.66
21:53:33.308,244262,1.67,-7.33,1.05,0.3,1.31,-5.80
21:53:33.365,244319,1.69,-7.38,1.06,0.2,1.30,-5.93
21:53:33.422,244376,1.71,-7.40,1.07,0.3,1.33,-5.88
21:53:33.479,244433,1.74,-7.41,1.08,0.2,1.38,-5.86
21:53:33.537,244491,1.75,-7.40,1.08,0.3,1.33,-5.85
21:53:33.594,244548,1.81,-7.37,1.08,0.2,1.44,-5.78
21:53:33.650,244604,1.80,-7.08,1.08,0.3,1.30,-5.20
21:53:33.708,244662,1.83,-6.46,1.08,0.2,1.50,-3.94
21:53:33.765,244719,1.72,-5.41,1.08,0.2,1.08,-2.20
21:53:33.822,244776,1.55,-4.19,1.07,0.2,0.76,-0.85
