Timestamp,ElapsedMillis,dt,flight time (s),Yaw,YawServo,Pitch,PitchServo,CapYawServo,CapPitchServo,Yaw,Pitch,Roll,Altitude,YawServo,PitchServo
48:29.9,25868,0,0,8.69,5.24,6.59,3.95,5.24,3.95,8.69,6.59,-0.01,0.2,5.24,3.95
48:30.0,26036,168,0.168,7.84,3.46,6.97,4.78,3.46,4.78,7.84,6.97,-0.02,0.5,3.46,4.78
48:30.1,26093,57,0.225,5.91,-0.34,7.55,5.78,-0.34,5.78,5.91,7.55,0.03,0.7,-0.34,5.78
48:30.2,26150,57,0.282,2.13,-6.88,7.1,4.14,-6.88,4.14,2.13,7.1,0.1,0.8,-6.88,4.14
48:30.2,26208,58,0.34,-2.04,-11.69,4.79,-2.51,-7,-2.51,-2.04,4.79,0.17,0.7,-11.69,-2.51
48:30.3,26265,57,0.397,-5.48,-12.16,0.95,-8.34,-7,-7,-5.48,0.95,0.2,0.7,-12.16,-8.34
48:30.3,26323,58,0.455,-6.87,-8.13,-2.74,-11.02,-7,-7,-6.87,-2.74,0.18,0.7,-8.13,-11.02
48:30.4,26379,56,0.511,-6.42,-3.01,-5.1,-9.09,-3.01,-7,-6.42,-5.1,0.15,0.7,-3.01,-9.09
48:30.4,26436,57,0.568,-4.2,2.03,-5.69,-5.38,2.03,-5.38,-4.2,-5.69,0.11,0.8,2.03,-5.38
48:30.5,26493,57,0.625,-0.91,7.73,-4.48,-0.17,7,-0.17,-0.91,-4.48,-0.01,0.6,7.73,-0.17
48:30.6,26550,57,0.682,2.74,10.45,-1.7,5.11,7,5.11,2.74,-1.7,-0.08,0.6,10.45,5.11
48:30.6,26608,58,0.74,5.04,8.99,2.01,9.76,7,7,5.04,2.01,-0.1,0.6,8.99,9.76
48:30.7,26665,57,0.797,5.32,4.56,4.71,10.17,4.56,7,5.32,4.71,-0.08,0.6,4.56,10.17
48:30.7,26723,58,0.855,3.33,-1.75,5.52,5.95,-1.75,5.95,3.33,5.52,0,0.6,-1.75,5.95
48:30.8,26779,56,0.911,0.54,-6.5,4.87,1.89,-6.5,1.89,0.54,4.87,0.1,0.4,-6.5,1.89
48:30.9,26837,58,0.969,-2.38,-9.11,2.87,-2.97,-7,-2.97,-2.38,2.87,0.13,0.4,-9.11,-2.97
48:30.9,26894,57,1.026,-4.37,-7.5,-0.01,-6.69,-7,-6.69,-4.37,-0.01,0.14,0.4,-7.5,-6.69
48:31.0,26951,57,1.083,-4.8,-4.44,-2.6,-7.81,-4.44,-7,-4.8,-2.6,0.09,0.5,-4.44,-7.81
48:31.0,27008,57,1.14,-3.55,0.2,-3.98,-6.03,0.2,-6.03,-3.55,-3.98,0.07,0.5,0.2,-6.03
48:31.1,27066,58,1.198,-1.3,4.49,-3.73,-2.15,4.49,-2.15,-1.3,-3.73,0,0.5,4.49,-2.15
48:31.1,27123,57,1.255,0.86,6.31,-2.54,1.3,6.31,1.3,0.86,-2.54,-0.09,0.5,6.31,1.3
48:31.2,27180,57,1.312,2.33,5.38,-0.65,4.15,5.38,4.15,2.33,-0.65,-0.06,0.5,5.38,4.15
48:31.3,27237,57,1.369,2.46,2.08,0.93,4.72,2.08,4.72,2.46,0.93,-0.05,0.5,2.08,4.72
48:31.3,27294,57,1.426,1.4,-1.15,1.91,3.82,-1.15,3.82,1.4,1.91,0,0.3,-1.15,3.82
48:31.4,27351,57,1.483,-0.3,-4.27,1.77,1.16,-4.27,1.16,-0.3,1.77,0.04,0.3,-4.27,1.16
48:31.4,27409,58,1.541,-2.18,-5.91,0.65,-2.03,-5.91,-2.03,-2.18,0.65,0.13,0.2,-5.91,-2.03
48:31.5,27466,57,1.598,-3.47,-5.37,-0.88,-3.97,-5.37,-3.97,-3.47,-0.88,0.12,0.3,-5.37,-3.97
48:31.5,27523,57,1.655,-3.48,-2.49,-2.03,-4.17,-2.49,-4.17,-3.48,-2.03,0.11,0.3,-2.49,-4.17
48:31.6,27580,57,1.712,-2.36,1.29,-2.49,-2.65,1.29,-2.65,-2.36,-2.49,0.06,0.3,1.29,-2.65
48:31.7,27638,58,1.77,-0.42,4.22,-2.21,-0.83,4.22,-0.83,-0.42,-2.21,0,0.2,4.22,-0.83
48:31.7,27695,57,1.827,1.45,5.65,-1.3,1.36,5.65,1.36,1.45,-1.3,-0.12,0.1,5.65,1.36
48:31.8,27753,58,1.885,2.63,4.81,-0.13,2.79,4.81,2.79,2.63,-0.13,-0.15,0,4.81,2.79
48:31.8,27809,56,1.941,2.89,2.79,0.92,3.17,2.79,3.17,2.89,0.92,-0.11,0.2,2.79,3.17
48:31.9,27866,57,1.998,1.99,-0.48,1.35,2.05,-0.48,2.05,1.99,1.35,-0.06,0.2,-0.48,2.05
48:31.9,27924,58,2.056,0.53,-3.37,1.06,0.21,-3.37,0.21,0.53,1.06,0.01,0.4,-3.37,0.21
48:32.0,27981,57,2.113,-1.19,-4.9,0.15,-1.88,-4.9,-1.88,-1.19,0.15,0.07,0.5,-4.9,-1.88
48:32.1,28038,57,2.17,-2.36,-4.38,-1.02,-3.27,-4.38,-3.27,-2.36,-1.02,0.12,0.5,-4.38,-3.27
48:32.1,28095,57,2.227,-2.56,-2.22,-1.77,-3.01,-2.22,-3.01,-2.56,-1.77,0.08,0.4,-2.22,-3.01
48:32.2,28152,57,2.284,-1.89,0.15,-2.14,-2.31,0.15,-2.31,-1.89,-2.14,0.05,0.3,0.15,-2.31
48:32.2,28210,58,2.342,-0.66,2.58,-1.85,-0.52,2.58,-0.52,-0.66,-1.85,-0.02,0.3,2.58,-0.52
48:32.3,28266,56,2.398,0.53,3.41,-1.1,1.18,3.41,1.18,0.53,-1.1,-0.08,0.2,3.41,1.18
48:32.3,28323,57,2.455,1.26,2.71,-0.23,1.91,2.71,1.91,1.26,-0.23,-0.12,0.3,2.71,1.91
48:32.4,28381,58,2.513,1.22,0.89,0.37,1.89,0.89,1.89,1.22,0.37,-0.09,0.2,0.89,1.89
48:32.5,28439,58,2.571,0.57,-1.11,0.51,0.89,-1.11,0.89,0.57,0.51,-0.08,0.2,-1.11,0.89
48:32.5,28495,56,2.627,-0.42,-2.53,0.18,-0.48,-2.53,-0.48,-0.42,0.18,0,0.2,-2.53,-0.48
48:32.6,28552,57,2.684,-1.34,-2.91,-0.49,-1.63,-2.91,-1.63,-1.34,-0.49,0.05,0.3,-2.91,-1.63
48:32.6,28610,58,2.742,-1.65,-2.01,-1.06,-2.23,-2.01,-2.23,-1.65,-1.06,0.07,0.4,-2.01,-2.23
48:32.7,28667,57,2.799,-1.54,-0.81,-1.47,-1.93,-0.81,-1.93,-1.54,-1.47,0.05,0.4,-0.81,-1.93
48:32.7,28724,57,2.856,-0.95,0.68,-1.53,-1.13,0.68,-1.13,-0.95,-1.53,0.02,0.3,0.68,-1.13
48:32.8,28782,58,2.914,-0.25,1.71,-1.29,-0.19,1.71,-0.19,-0.25,-1.29,-0.03,0.4,1.71,-0.19
48:32.9,28839,57,2.971,0.42,1.97,-0.89,0.49,1.97,0.49,0.42,-0.89,-0.07,0.3,1.97,0.49
48:32.9,28895,56,3.027,0.82,1.59,-0.57,0.52,1.59,0.52,0.82,-0.57,-0.1,0.2,1.59,0.52
48:33.0,28953,58,3.085,0.76,0.51,-0.47,0.08,0.51,0.08,0.76,-0.47,-0.09,0.3,0.51,0.08
48:33.0,29010,57,3.142,0.14,-0.99,-0.16,0.82,-0.99,0.82,0.14,-0.16,0.05,-12.4,-0.99,0.82
,,-29010,,,,,,,,,,,,,
,,0,,,,,,,,,,,,,
