Timestamp,ElapsedMillis,Yaw,Pitch,Roll,Altitude,YawServo,PitchServo,Pyro1,Pyro2,DeltaTime,State
19:18:32.386,8613,0.94,-0.94,25.19,0.0,83.50,92.50,1,1,0.0010,0
19:18:32.388,8615,0.94,-0.94,25.19,0.0,83.50,92.50,1,1,0.0016,0
19:18:32.390,8617,0.94,-0.94,25.19,0.0,83.50,92.50,1,1,0.0010,0
19:18:32.392,8619,0.94,-0.94,25.19,0.0,83.50,92.50,1,1,0.0029,0
19:18:32.394,8621,0.05,-1.37,24.52,0.0,83.50,92.50,1,1,0.0010,0
19:18:32.591,8818,0.13,-1.33,24.53,0.0,83.50,92.50,1,1,0.0023,0
19:18:32.791,9018,0.11,-1.34,24.53,0.0,83.50,92.50,1,1,0.0036,0
19:18:32.992,9219,0.13,-1.33,24.53,0.0,83.50,92.50,1,1,0.0016,0
19:18:33.191,9418,0.13,-1.33,24.53,0.0,83.50,92.50,1,1,0.0010,0
19:18:33.391,9618,0.13,-1.32,24.52,0.0,83.50,92.50,1,1,0.0036,0
19:18:33.592,9819,0.10,-1.32,24.51,0.0,83.50,92.50,1,1,0.0010,0
19:18:33.791,10018,0.15,-1.30,24.50,0.0,83.50,92.50,1,1,0.0017,0
19:18:33.992,10219,0.15,-1.31,24.49,0.0,83.50,92.50,1,1,0.0010,0
19:18:34.197,10424,0.14,-1.31,24.48,0.0,83.50,92.50,1,1,0.0017,0
19:18:34.396,10623,0.14,-1.31,24.47,0.0,83.50,92.50,1,1,0.0010,0
19:18:34.596,10823,0.15,-1.31,24.45,0.0,83.50,92.50,1,1,0.0017,0
19:18:34.802,11029,0.15,-1.31,24.45,0.0,83.50,92.50,1,1,0.0010,0
19:18:35.002,11229,0.15,-1.31,24.44,0.0,83.50,92.50,1,1,0.0060,0
19:18:35.201,11429,0.14,-1.30,24.45,0.0,83.50,92.50,1,1,0.0048,0
19:18:35.401,11628,0.12,-1.30,24.44,0.0,83.50,92.50,1,1,0.0016,0
19:18:35.603,11830,0.14,-1.30,24.45,0.0,83.50,92.50,1,1,0.0016,0
19:18:35.806,12034,0.15,-1.30,24.44,0.0,83.50,92.50,1,1,0.0024,0
19:18:36.007,12234,0.13,-1.30,24.43,0.0,83.50,92.50,1,1,0.0010,0
19:18:36.207,12434,0.14,-1.30,24.42,0.0,83.50,92.50,1,1,0.0043,0
19:18:36.412,12639,0.14,-1.30,24.42,0.0,83.50,92.50,1,1,0.0010,0
19:18:36.612,12839,0.14,-1.30,24.42,0.0,83.50,92.50,1,1,0.0010,0
19:18:36.811,13039,0.14,-1.30,24.42,0.0,83.50,92.50,1,1,0.0010,0
19:18:37.017,13244,0.14,-1.30,24.42,0.0,83.50,92.50,1,1,0.0017,0
19:18:37.218,13445,0.14,-1.30,24.42,0.0,83.50,92.50,1,1,0.0016,0
19:18:37.422,13649,0.14,-1.30,24.42,0.0,83.50,92.50,1,1,0.0010,0
19:18:37.623,13850,0.14,-1.30,24.42,0.0,83.50,92.50,1,1,0.0047,0
19:18:37.827,14054,0.14,-1.30,24.42,0.0,83.50,92.50,1,1,0.0062,0
19:18:38.027,14254,0.14,-1.30,24.42,0.0,83.50,92.50,1,1,0.0017,0
19:18:38.228,14455,0.14,-1.30,24.42,0.0,83.50,92.50,1,1,0.0010,0
19:18:38.432,14659,0.14,-1.30,24.42,0.0,83.50,92.50,1,1,0.0055,0
19:18:38.632,14859,0.14,-1.30,24.42,0.0,83.50,92.50,1,1,0.0010,0
19:18:38.833,15060,0.14,-1.30,24.42,0.0,83.50,92.50,1,1,0.0055,0
19:18:39.033,15260,0.14,-1.30,24.42,0.0,83.50,92.50,1,1,0.0010,0
19:18:39.233,15460,0.14,-1.30,24.42,0.0,83.50,92.50,1,1,0.0055,0
19:18:39.438,15665,0.14,-1.30,24.42,0.0,83.50,92.50,1,1,0.0047,0
19:18:39.639,15866,0.14,-1.30,24.42,0.0,83.50,92.50,1,1,0.0017,0
19:18:39.843,16071,0.14,-1.30,24.42,0.0,83.50,92.50,1,1,0.0010,0
19:18:40.043,16270,0.14,-1.30,24.42,0.0,83.50,92.50,1,1,0.0010,0
19:18:40.243,16470,0.14,-1.30,24.42,0.0,83.50,92.50,1,1,0.0010,0
19:18:40.443,16671,0.14,-1.30,24.42,0.0,83.50,92.50,1,1,0.0035,0
19:18:40.644,16871,0.14,-1.30,24.42,0.0,83.50,92.50,1,1,0.0010,0
19:18:40.844,17071,0.14,-1.30,24.42,0.0,83.50,92.50,1,1,0.0036,0
19:18:41.049,17276,0.14,-1.30,24.42,0.0,83.50,92.50,1,1,0.0029,0
19:18:41.249,17476,0.14,-1.30,24.42,0.0,83.50,92.50,1,1,0.0035,0
19:18:41.449,17676,0.14,-1.30,24.42,0.0,83.50,92.50,1,1,0.0047,0
19:18:41.649,17876,0.14,-1.30,24.42,0.0,83.50,92.50,1,1,0.0043,0
19:18:41.854,18081,0.14,-1.30,24.42,0.0,83.50,92.50,1,1,0.0023,0
19:18:42.054,18281,0.14,-1.30,24.42,0.0,83.50,92.50,1,1,0.0035,0
19:18:42.254,18481,0.14,-1.30,24.42,0.0,83.50,92.50,1,1,0.0010,0
19:18:42.459,18686,0.14,-1.30,24.42,0.0,83.50,92.50,1,1,0.0029,0
19:18:42.659,18886,0.14,-1.30,24.42,0.0,83.50,92.50,1,1,0.0029,0
19:18:42.859,19086,0.14,-1.30,24.42,0.0,83.50,92.50,1,1,0.0036,0
19:18:43.059,19286,0.14,-1.30,24.42,0.0,83.50,92.50,1,1,0.0048,0
19:18:43.265,19492,0.14,-1.30,24.42,0.0,83.50,92.50,1,1,0.0016,0
19:18:43.469,19696,0.14,-1.30,24.42,0.0,83.50,92.50,1,1,0.0017,0
19:18:43.670,19897,0.14,-1.30,24.42,0.0,83.50,92.50,1,1,0.0029,0
19:18:43.869,20096,0.18,-1.28,24.43,0.0,83.50,92.50,1,1,0.0047,0
19:18:44.075,20302,0.08,-1.32,24.44,0.0,83.50,92.50,1,1,0.0036,0
19:18:44.275,20502,-0.02,-1.36,24.44,0.0,83.50,92.50,1,1,0.0016,0
19:18:44.475,20702,0.00,-1.36,24.43,0.0,83.50,92.50,1,1,0.0010,0
19:18:44.675,20902,-0.02,-1.37,24.44,0.0,83.50,92.50,1,1,0.0018,0
19:18:44.875,21102,-0.04,-1.37,24.43,0.0,83.50,92.50,1,1,0.0010,0
19:18:45.081,21308,0.02,-1.34,25.46,0.0,83.50,92.50,1,1,0.0017,0
19:18:45.281,21508,0.04,-1.32,25.57,0.0,83.50,92.50,1,1,0.0010,0
19:18:45.481,21708,0.03,-1.31,23.97,0.0,83.50,92.50,1,1,0.0029,0
19:18:45.681,21908,0.03,-1.36,25.67,0.0,83.50,92.50,1,1,0.0010,0
19:18:45.887,22114,-0.02,-1.39,24.61,0.0,83.50,92.50,1,1,0.0061,0
19:18:46.086,22313,-0.03,-1.39,24.66,0.0,83.50,92.50,1,1,0.0048,0
19:18:46.287,22514,-0.03,-1.40,24.66,0.0,83.50,92.50,1,1,0.0017,0
19:18:46.491,22718,-0.03,-1.39,24.65,0.0,83.50,92.50,1,1,0.0010,0
19:18:46.691,22918,-0.04,-1.41,24.65,0.0,83.50,92.50,1,1,0.0043,0
19:18:46.897,23124,-0.03,-1.41,24.65,0.0,83.50,92.50,1,1,0.0029,0
19:18:47.096,23323,-0.03,-1.41,24.64,0.0,83.50,92.50,1,1,0.0036,0
19:18:47.297,23524,-0.02,-1.41,24.65,0.0,83.50,92.50,1,1,0.0055,0
19:18:47.497,23724,-0.02,-1.41,24.69,0.0,83.50,92.50,1,1,0.0036,0
19:18:47.702,23929,-0.01,-1.41,25.71,0.0,83.50,92.50,1,1,0.0023,0
19:18:47.901,24128,-0.01,-1.42,24.92,0.0,83.50,92.50,1,1,0.0044,0
19:18:48.107,24334,-0.06,-1.44,21.71,0.0,83.50,92.50,1,1,0.0031,0
19:18:48.306,24533,-0.06,-1.45,21.69,0.0,83.50,92.50,1,1,0.0010,0
19:18:48.506,24733,-0.06,-1.46,21.69,0.0,83.50,92.50,1,1,0.0010,0
19:18:48.706,24933,-0.09,-1.46,21.68,0.0,83.50,92.50,1,1,0.0010,0
19:18:48.908,25135,-0.10,-1.47,21.69,0.0,83.50,92.50,1,1,0.0047,0
19:18:49.113,25340,-0.06,-1.44,21.68,0.0,83.50,92.50,1,1,0.0029,0
19:18:49.317,25544,0.03,-1.37,21.66,0.0,83.50,92.50,1,1,0.0017,0
19:18:49.518,25745,0.11,-1.32,21.65,0.0,83.50,92.50,1,1,0.0010,0
19:18:49.718,25945,0.16,-1.30,21.66,0.0,83.50,92.50,1,1,0.0034,0
19:18:49.918,26145,0.18,-1.29,21.65,0.0,83.50,92.50,1,1,0.0036,0
19:18:50.119,26346,0.19,-1.29,21.64,0.0,83.50,92.50,1,1,0.0036,0
19:18:50.319,26546,0.20,-1.29,21.64,0.0,83.50,92.50,1,1,0.0010,0
19:18:50.524,26751,0.17,-1.31,21.64,0.0,83.50,92.50,1,1,0.0016,0
19:18:50.723,26950,0.16,-1.31,21.65,0.0,83.50,92.50,1,1,0.0010,0
19:18:50.923,27150,0.17,-1.30,21.64,0.0,83.50,92.50,1,1,0.0017,0
19:18:51.124,27351,0.19,-1.30,21.64,0.0,83.50,92.50,1,1,0.0010,0
19:18:51.329,27556,0.19,-1.30,21.65,0.0,83.50,92.50,1,1,0.0029,0
19:18:51.528,27755,0.19,-1.30,21.65,0.0,83.50,92.50,1,1,0.0029,0
19:18:51.733,27960,0.19,-1.30,21.65,0.0,83.50,92.50,1,1,0.0017,0
19:18:51.934,28161,0.19,-1.30,21.65,0.0,83.50,92.50,1,1,0.0010,0
19:18:52.139,28366,0.19,-1.30,21.65,0.0,83.50,92.50,1,1,0.0043,0
19:18:52.340,28567,0.19,-1.30,21.65,0.0,83.50,92.50,1,1,0.0010,0
19:18:52.539,28766,0.19,-1.30,21.65,0.0,83.50,92.50,1,1,0.0043,0
19:18:52.740,28968,0.19,-1.30,21.65,0.0,83.50,92.50,1,1,0.0010,0
19:18:52.940,29167,0.19,-1.30,21.65,0.0,83.50,92.50,1,1,0.0042,0
19:18:53.145,29372,0.19,-1.30,21.65,0.0,83.50,92.50,1,1,0.0036,0
19:18:53.346,29573,0.19,-1.30,21.65,0.0,83.50,92.50,1,1,0.0017,0
19:18:53.550,29777,0.19,-1.30,21.65,0.0,83.50,92.50,1,1,0.0010,0
19:18:53.755,29982,0.19,-1.30,21.65,0.0,83.50,92.50,1,1,0.0010,0
19:18:53.955,30182,0.19,-1.30,21.65,0.0,83.50,92.50,1,1,0.0029,0
19:18:54.155,30382,0.19,-1.30,21.65,0.0,83.50,92.50,1,1,0.0047,0
19:18:54.359,30587,0.19,-1.30,21.65,0.0,83.50,92.50,1,1,0.0016,0
19:18:54.561,30788,0.19,-1.30,21.65,0.0,83.50,92.50,1,1,0.0010,0
19:18:54.761,30988,0.19,-1.30,21.65,0.0,83.50,92.50,1,1,0.0017,0
19:18:54.966,31193,0.19,-1.30,21.65,0.0,83.50,92.50,1,1,0.0029,0
19:18:55.165,31392,0.19,-1.30,21.65,0.0,83.50,92.50,1,1,0.0035,0
19:18:55.366,31593,0.21,-1.29,21.66,0.0,83.50,92.50,1,1,0.0029,0
19:18:55.571,31798,0.21,-1.29,21.66,0.0,83.50,92.50,1,1,0.0024,0
19:18:55.771,31998,0.21,-1.30,21.66,0.0,83.50,92.50,1,1,0.0010,0
19:18:55.970,32197,0.19,-1.31,21.66,0.0,83.50,92.50,1,1,0.0010,0
19:18:56.171,32398,-0.04,-1.42,21.67,0.0,83.50,92.50,1,1,0.0010,0
19:18:56.377,32604,-0.04,-1.43,21.69,0.0,83.50,92.50,1,1,0.0035,0
19:18:56.577,32804,-0.07,-1.46,21.67,0.0,83.50,92.50,1,1,0.0010,0
19:18:56.781,33008,0.12,-1.36,21.67,0.0,83.50,92.50,1,1,0.0017,0
19:18:56.983,33210,0.08,-1.40,21.65,0.0,83.50,92.50,1,1,0.0036,0
19:18:57.182,33409,0.07,-1.41,21.67,0.0,83.50,92.50,1,1,0.0016,0
19:18:57.382,33609,0.21,-1.32,21.66,0.0,83.50,92.50,1,1,0.0024,0
19:18:57.587,33814,0.20,-1.34,21.65,0.0,83.50,92.50,1,1,0.0010,0
19:18:57.788,34015,0.20,-1.33,21.66,0.0,83.50,92.50,1,1,0.0050,0
19:18:57.994,34221,0.19,-1.34,21.66,0.0,83.50,92.50,1,1,0.0010,0
19:18:58.193,34420,0.19,-1.34,21.68,0.0,83.50,92.50,1,1,0.0055,0
19:18:58.392,34619,0.18,-1.34,21.68,0.0,83.50,92.50,1,1,0.0010,0
19:18:58.597,34824,0.19,-1.35,21.67,0.0,83.50,92.50,1,1,0.0010,0
19:18:58.799,35026,0.20,-1.35,21.67,0.0,83.50,92.50,1,1,0.0029,0
19:18:58.998,35225,0.20,-1.36,21.68,0.0,83.50,92.50,1,1,0.0029,0
19:18:59.199,35426,0.20,-1.36,21.68,0.0,83.50,92.50,1,1,0.0010,0
19:18:59.399,35626,0.20,-1.36,21.68,0.0,83.50,92.50,1,1,0.0029,0
19:18:59.605,35832,0.20,-1.37,21.68,0.0,83.50,92.50,1,1,0.0029,0
19:18:59.805,36032,0.21,-1.38,21.67,0.0,83.50,92.50,1,1,0.0017,0
19:19:00.005,36232,0.21,-1.37,21.68,0.0,83.50,92.50,1,1,0.0010,0
19:19:00.210,36437,0.21,-1.37,21.69,0.0,83.50,92.50,1,1,0.0036,0
19:19:00.415,36642,0.21,-1.37,21.68,0.0,83.50,92.50,1,1,0.0010,0
19:19:00.615,36842,0.22,-1.37,21.67,0.0,83.50,92.50,1,1,0.0043,0
19:19:00.815,37042,0.22,-1.37,21.68,0.0,83.50,92.50,1,1,0.0048,0
19:19:01.015,37242,0.23,-1.37,21.69,0.0,83.50,92.50,1,1,0.0036,0
19:19:01.214,37441,0.23,-1.37,21.68,0.0,83.50,92.50,1,1,0.0036,0
19:19:01.415,37642,0.22,-1.37,21.67,0.0,83.50,92.50,1,1,0.0061,0
19:19:01.616,37843,0.22,-1.37,21.67,0.0,83.50,92.50,1,1,0.0024,0
19:19:01.820,38047,0.22,-1.37,21.67,0.0,83.50,92.50,1,1,0.0016,0
19:19:02.021,38248,0.22,-1.37,21.67,0.0,83.50,92.50,1,1,0.0010,0
19:19:02.221,38448,0.22,-1.37,21.67,0.0,83.50,92.50,1,1,0.0017,0
19:19:02.420,38647,0.22,-1.37,21.67,0.0,83.50,92.50,1,1,0.0010,0
19:19:02.621,38848,0.22,-1.37,21.67,0.0,83.50,92.50,1,1,0.0017,0
19:19:02.821,39048,0.22,-1.37,21.67,0.0,83.50,92.50,1,1,0.0010,0
19:19:12.054,48282,0.22,-1.37,21.67,0.0,83.50,92.50,1,1,0.0048,1
19:19:12.261,48488,0.73,-0.13,0.01,0.0,83.50,92.50,1,1,0.0036,1
19:19:12.461,48688,0.73,-0.13,-0.01,0.0,83.50,92.50,1,1,0.0010,1
19:19:12.660,48887,0.73,-0.14,0.00,0.0,83.50,92.50,1,1,0.0016,1
19:19:12.860,49087,0.73,-0.15,0.00,0.0,83.50,92.50,1,1,0.0010,1
19:19:13.065,49292,0.74,-0.14,0.00,0.0,83.50,92.50,1,1,0.0029,1
19:19:13.265,49492,0.74,-0.15,-0.00,0.0,83.50,92.50,1,1,0.0010,1
19:19:13.470,49697,0.73,-0.15,0.01,0.0,83.50,92.50,1,1,0.0024,1
19:19:13.671,49898,0.74,-0.17,-0.00,0.0,83.50,92.50,1,1,0.0023,1
19:19:13.871,50098,0.73,-0.15,-0.00,0.0,83.50,92.50,1,1,0.0036,1
19:19:14.071,50298,0.73,-0.15,-0.00,0.0,83.50,92.50,1,1,0.0017,1
19:19:14.270,50497,0.73,-0.15,-0.00,0.0,83.50,92.50,1,1,0.0016,1
19:19:14.471,50698,0.73,-0.15,-0.00,0.0,83.50,92.50,1,1,0.0010,1
19:19:14.678,50905,0.73,-0.15,-0.00,0.0,83.50,92.50,1,1,0.0033,1
19:19:14.876,51103,0.73,-0.15,-0.00,0.0,83.50,92.50,1,1,0.0010,1
19:19:15.081,51308,0.73,-0.15,-0.00,0.0,83.50,92.50,1,1,0.0010,1
19:19:15.282,51509,0.73,-0.15,-0.00,0.0,83.50,92.50,1,1,0.0047,1
19:19:15.481,51709,0.73,-0.15,-0.00,0.0,83.50,92.50,1,1,0.0035,1
19:19:15.682,51909,0.73,-0.15,-0.00,0.0,83.50,92.50,1,1,0.0055,1
19:19:15.883,52110,0.73,-0.15,-0.00,0.0,83.50,92.50,1,1,0.0023,1
19:19:16.082,52309,0.73,-0.15,-0.00,0.0,83.50,92.50,1,1,0.0023,1
19:19:16.287,52514,0.73,-0.15,-0.00,0.0,83.50,92.50,1,1,0.0024,1
19:19:16.487,52714,0.73,-0.15,-0.00,0.0,83.50,92.50,1,1,0.0010,1
19:19:16.686,52913,0.73,-0.15,-0.00,0.0,83.50,92.50,1,1,0.0035,1
19:19:16.886,53113,0.73,-0.15,-0.00,0.0,83.50,92.50,1,1,0.0010,1
19:19:17.087,53314,0.73,-0.15,-0.00,0.0,83.50,92.50,1,1,0.0035,1
19:19:17.293,53520,0.73,-0.15,-0.00,0.0,83.50,92.50,1,1,0.0010,1
19:19:17.499,53726,0.73,-0.15,-0.00,0.0,83.50,92.50,1,1,0.0017,1
19:19:17.694,53921,0.73,-0.15,-0.00,0.0,83.50,92.50,1,1,0.0029,1
19:19:17.899,54126,0.73,-0.15,-0.00,0.0,83.50,92.50,1,1,0.0017,1
19:19:18.099,54326,0.73,-0.15,-0.00,0.0,83.50,92.50,1,1,0.0016,1
19:19:18.298,54525,0.73,-0.15,-0.00,0.0,83.50,92.50,1,1,0.0024,1
19:19:18.500,54727,0.73,-0.15,-0.00,0.0,83.50,92.50,1,1,0.0024,1
19:19:18.698,54925,0.73,-0.15,-0.00,0.0,83.50,92.50,1,1,0.0024,1
19:19:18.899,55126,0.73,-0.15,-0.00,0.0,83.50,92.50,1,1,0.0010,1
19:19:19.098,55325,0.73,-0.15,-0.00,0.0,83.50,92.50,1,1,0.0010,1
19:19:19.299,55526,0.73,-0.15,-0.00,0.0,83.50,92.50,1,1,0.0010,1
19:19:19.499,55726,0.73,-0.15,-0.00,0.0,83.50,92.50,1,1,0.0017,1
19:19:19.698,55925,0.73,-0.15,-0.00,0.0,83.50,92.50,1,1,0.0010,1
19:19:19.898,56125,0.73,-0.15,-0.00,0.0,83.50,92.50,1,1,0.0016,1
19:19:20.098,56326,0.73,-0.15,-0.00,0.0,83.50,92.50,1,1,0.0010,1
19:19:20.303,56530,0.73,-0.15,-0.00,0.0,83.50,92.50,1,1,0.0030,1
19:19:20.503,56730,0.73,-0.15,-0.00,0.0,83.50,92.50,1,1,0.0010,1
19:19:20.703,56930,0.73,-0.15,-0.00,0.0,83.50,92.50,1,1,0.0036,1
19:19:20.909,57136,0.73,-0.15,-0.00,0.0,83.50,92.50,1,1,0.0010,1
19:19:21.110,57337,0.73,-0.15,-0.00,0.0,83.50,92.50,1,1,0.0017,1
19:19:21.310,57537,0.73,-0.15,-0.00,0.0,83.50,92.50,1,1,0.0016,1
19:19:21.511,57738,0.73,-0.15,-0.00,0.0,83.50,92.50,1,1,0.0024,1
19:19:21.711,57938,0.73,-0.15,-0.00,0.0,83.50,92.50,1,1,0.0010,1
19:19:21.911,58138,0.73,-0.15,-0.00,0.0,83.50,92.50,1,1,0.0016,1
19:19:22.111,58338,0.73,-0.15,-0.00,0.0,83.50,92.50,1,1,0.0016,1
19:19:22.313,58540,0.73,-0.15,-0.00,0.0,83.50,92.50,0,1,0.0017,2
19:19:22.512,58739,0.74,-0.13,-0.00,0.0,83.50,92.50,0,1,0.0010,2
19:19:22.717,58944,0.74,-0.12,-0.00,0.0,83.50,92.50,1,1,0.0014,2
19:19:22.917,59144,0.74,-0.15,0.04,0.0,83.50,92.50,0,1,0.0010,2
19:19:23.117,59344,0.92,0.08,0.05,0.0,83.50,92.50,0,1,0.0035,2
19:19:23.322,59549,0.97,0.12,0.06,0.0,83.50,92.50,0,1,0.0029,2
19:19:23.524,59751,1.01,0.15,0.06,0.0,83.50,92.50,0,1,0.0024,2
19:19:23.723,59950,1.06,0.20,0.08,0.0,83.50,92.50,0,1,0.0055,2
19:19:23.922,60149,1.06,0.18,0.09,0.0,83.50,92.50,0,1,0.0016,2
19:19:24.127,60354,1.06,0.17,0.09,0.0,83.50,92.50,1,1,0.0010,2
19:19:24.327,60554,1.06,0.18,0.10,0.0,83.50,92.50,0,1,0.0035,2
19:19:24.533,60760,1.06,0.18,0.11,0.0,83.50,92.50,0,1,0.0029,2
19:19:24.733,60960,1.08,0.17,0.12,0.0,83.50,92.50,0,1,0.0029,2
19:19:24.934,61161,1.10,0.20,0.13,0.0,83.50,92.50,0,1,0.0036,2
19:19:25.133,61360,1.10,0.20,0.12,0.0,83.50,92.50,0,1,0.0036,2
19:19:25.339,61566,1.10,0.20,0.13,0.0,83.50,92.50,0,1,0.0016,2
19:19:25.544,61771,1.10,0.16,0.13,0.0,83.50,92.50,0,1,0.0010,2
19:19:25.748,61976,1.08,0.15,0.12,0.0,83.50,92.50,0,1,0.0055,2
19:19:25.949,62176,1.09,0.14,0.13,0.0,83.50,92.50,0,1,0.0024,2
19:19:26.148,62375,1.09,0.14,0.13,0.0,83.50,92.50,0,1,0.0055,2
19:19:26.349,62576,1.09,0.14,0.13,0.0,83.50,92.50,0,1,0.0016,2
19:19:26.550,62777,1.09,0.14,0.13,0.0,83.50,92.50,0,1,0.0036,2
19:19:26.754,62981,1.09,0.14,0.13,0.0,83.50,92.50,0,1,0.0010,2
19:19:26.954,63181,1.09,0.14,0.13,0.0,83.50,92.50,0,1,0.0029,2
19:19:27.154,63381,1.09,0.14,0.13,0.0,83.50,92.50,0,1,0.0036,2
19:19:27.355,63582,1.09,0.14,0.13,0.0,83.50,92.50,0,1,0.0023,2
19:19:27.554,63782,1.09,0.14,0.13,0.0,83.50,92.50,0,1,0.0010,2
19:19:27.959,64186,1.09,0.14,0.13,0.0,83.50,92.50,0,1,0.0036,2
19:19:28.159,64386,1.09,0.14,0.13,0.0,83.50,92.50,0,1,0.0055,2
19:19:28.359,64586,1.09,0.14,0.13,0.0,83.50,92.50,0,1,0.0016,2
19:19:28.559,64786,1.09,0.14,0.13,0.0,83.50,92.50,0,1,0.0029,2
19:19:28.760,64987,1.09,0.14,0.13,0.0,83.50,92.50,0,1,0.0010,2
19:19:28.967,65194,1.09,0.14,0.13,0.0,83.50,92.50,0,1,0.0016,2
19:19:29.168,65395,1.09,0.14,0.13,0.0,83.50,92.50,1,1,0.0010,2
19:19:29.368,65595,1.09,0.14,0.13,0.0,83.50,92.50,0,1,0.0017,2
19:19:29.565,65792,1.09,0.14,0.11,0.0,83.50,92.50,0,1,0.0010,2
19:19:29.767,65994,1.10,0.14,0.10,0.0,83.50,92.50,0,1,0.0029,2
19:19:29.970,66197,1.11,0.14,0.11,0.0,83.50,92.50,0,1,0.0010,2
19:19:30.169,66396,1.12,0.14,0.10,0.0,83.50,92.50,0,1,0.0036,2
19:19:30.371,66598,1.12,0.13,0.12,0.0,83.50,92.50,0,1,0.0036,2
19:19:30.576,66803,1.12,0.13,0.12,0.0,83.50,92.50,0,1,0.0036,2
19:19:30.775,67002,1.12,0.13,0.12,0.0,83.50,92.50,1,1,0.0024,2
19:19:30.975,67202,1.36,0.10,-0.83,0.0,83.50,92.50,0,1,0.0036,2
19:19:31.177,67404,1.24,0.20,-2.34,0.0,83.50,92.50,0,1,0.0010,2
19:19:31.377,67604,0.77,1.07,-0.44,0.0,83.50,92.50,0,1,0.0029,3
19:19:31.576,67803,4.74,-0.26,-0.70,0.0,83.50,92.50,0,1,0.0010,3
19:19:31.776,68003,0.84,-0.87,-2.86,0.0,83.50,92.50,0,1,0.0036,3
19:19:31.976,68203,1.04,0.00,-4.04,0.0,83.50,92.50,0,1,0.0043,3
19:19:32.175,68402,-0.52,0.35,-4.47,0.0,83.50,92.50,0,1,0.0024,3
19:19:32.380,68607,-0.54,1.10,-4.43,0.0,83.50,92.50,0,1,0.0010,3
19:19:32.581,68809,0.92,1.48,-5.10,0.0,83.50,92.50,0,1,0.0047,3
19:19:32.781,69008,0.88,1.48,-4.86,0.0,83.50,92.50,0,1,0.0036,3
19:19:32.985,69212,0.90,1.50,-4.86,0.0,83.50,92.50,0,1,0.0016,3
19:19:33.186,69413,0.90,1.49,-4.86,0.0,83.50,92.50,0,1,0.0010,3
19:19:33.385,69612,0.86,1.42,-4.86,0.0,83.50,92.50,0,1,0.0016,3
19:19:33.591,69818,0.88,1.46,-4.86,0.0,83.50,92.50,0,1,0.0010,3
19:19:33.791,70018,0.88,1.48,-4.86,0.0,83.50,92.50,0,1,0.0035,3
19:19:33.996,70223,0.84,1.41,-4.88,0.0,83.50,92.50,0,1,0.0010,3
19:19:34.197,70424,0.84,1.43,-4.88,0.0,83.50,92.50,0,1,0.0017,3
19:19:34.397,70624,0.85,1.44,-4.89,0.0,83.50,92.50,0,1,0.0016,3
19:19:34.597,70824,0.85,1.45,-4.91,0.0,83.50,92.50,0,1,0.0016,3
19:19:34.796,71023,0.86,1.43,-4.89,0.0,83.50,92.50,0,1,0.0010,3
19:19:35.002,71229,0.87,1.44,-4.90,0.0,83.50,92.50,0,1,0.0043,3
19:19:35.203,71430,0.88,1.44,-4.89,0.0,83.50,92.50,0,1,0.0010,3
19:19:35.403,71630,0.88,1.44,-4.90,0.0,83.50,92.50,0,1,0.0043,3
19:19:35.609,71836,0.88,1.44,-4.90,0.0,83.50,92.50,1,1,0.0010,3
19:19:35.808,72035,0.88,1.44,-4.90,0.0,83.50,92.50,0,1,0.0010,3
19:19:36.009,72236,0.88,1.44,-4.90,0.0,83.50,92.50,0,1,0.0023,3
19:19:36.208,72435,0.88,1.46,-4.91,0.0,83.50,92.50,0,1,0.0043,3
19:19:36.409,72636,0.88,1.45,-4.91,0.0,83.50,92.50,0,1,0.0036,3
19:19:36.614,72841,0.89,1.45,-4.88,0.0,83.50,92.50,0,1,0.0016,3
19:19:36.813,73040,0.89,1.45,-4.88,0.0,83.50,92.50,1,1,0.0023,3
19:19:37.012,73239,0.89,1.45,-4.88,0.0,83.50,92.50,0,1,0.0015,3
19:19:37.218,73446,0.90,1.46,-4.88,0.0,83.50,92.50,0,1,0.0010,3
19:19:37.419,73646,1.26,1.50,-3.18,0.0,83.50,92.50,0,1,0.0010,3
19:19:37.619,73846,14.11,-2.20,-11.52,0.0,83.50,92.50,0,1,0.0029,3
19:19:37.820,74047,12.12,6.91,-11.03,0.0,83.50,92.50,0,1,0.0029,3
19:19:38.019,74246,0.87,5.89,-12.28,0.0,83.50,92.50,0,1,0.0029,3
19:19:38.225,74453,-0.69,-0.21,-14.61,0.0,83.50,92.50,0,1,0.0017,3
19:19:38.429,74656,-0.03,0.48,-15.01,0.0,83.50,92.50,0,1,0.0017,3
19:19:38.629,74856,0.70,0.73,-15.13,0.0,83.50,92.50,0,1,0.0029,3
19:19:38.830,75057,-0.94,1.27,-15.58,0.0,83.50,92.50,0,1,0.0029,3
19:19:39.049,75276,-3.16,1.79,-21.47,0.5,83.50,92.50,0,1,0.0223,4
19:19:39.276,75503,-4.87,-1.95,-23.86,0.6,83.50,92.50,0,1,0.0229,4
19:19:39.475,75702,-5.89,-1.48,-24.95,1.0,83.50,92.50,0,1,0.0227,4
19:19:39.676,75903,-8.42,1.16,-27.22,-0.4,83.50,92.50,0,1,0.0222,4
19:19:39.876,76103,-9.96,-1.32,-28.39,0.6,83.50,92.50,0,1,0.0211,4
19:19:40.100,76327,-9.24,-2.45,-28.86,-0.4,83.50,92.50,0,1,0.0216,4
19:19:40.300,76527,-9.27,-2.21,-28.56,0.4,83.50,92.50,0,1,0.0225,4
19:19:40.506,76733,-9.49,-1.59,-27.36,0.4,83.50,92.50,0,1,0.0220,4
19:19:40.726,76953,-8.60,-0.51,-23.47,0.2,83.50,92.50,0,1,0.0220,4
19:19:40.926,77153,-8.00,-0.30,-20.81,0.0,83.50,92.50,0,1,0.0216,4
19:19:41.146,77373,-8.03,-0.49,-19.86,0.3,83.50,92.50,0,1,0.0220,4
19:19:41.351,77578,-8.13,-0.89,-19.86,0.3,83.50,92.50,0,1,0.0237,4
19:19:41.551,77778,-8.26,-1.20,-19.86,-0.6,83.50,92.50,0,1,0.0236,4
19:19:41.751,77978,-8.31,-1.36,-19.87,-0.5,83.50,92.50,0,1,0.0215,4
19:19:41.970,78197,-8.37,-1.49,-19.86,-0.6,83.50,92.50,0,1,0.0222,4
19:19:42.170,78397,-8.43,-1.63,-19.87,-0.3,83.50,92.50,0,1,0.0237,4
19:19:42.376,78603,-8.46,-1.70,-19.93,0.7,83.50,92.50,0,1,0.0228,4
19:19:42.597,78824,-8.42,-1.56,-19.92,0.7,83.50,92.50,0,1,0.0220,4
19:19:42.816,79043,-8.42,-1.56,-19.91,-0.3,83.50,92.50,0,1,0.0213,4
19:19:43.037,79264,-8.41,-1.45,-19.93,0.7,83.50,92.50,0,1,0.0224,4
19:19:43.242,79469,-8.41,-1.40,-19.94,-0.1,83.50,92.50,0,1,0.0231,4
19:19:43.461,79688,-8.44,-1.50,-19.93,0.4,83.50,92.50,0,1,0.0211,4
19:19:43.683,79910,-8.42,-1.42,-19.92,0.3,83.50,92.50,0,1,0.0208,4
19:19:43.882,80109,-8.40,-1.40,-19.91,0.3,83.50,92.50,0,1,0.0226,4
19:19:44.102,80329,-8.42,-1.46,-19.89,0.1,83.50,92.50,0,1,0.0216,4
19:19:44.327,80555,-8.46,-1.56,-19.87,-0.2,83.50,92.50,0,1,0.0216,4
19:19:44.527,80754,-8.48,-1.61,-19.86,0.0,83.50,92.50,0,1,0.0209,4
19:19:44.727,80954,-8.52,-1.81,-19.84,-0.1,83.50,92.50,0,1,0.0224,4
19:19:44.927,81154,-8.51,-1.71,-19.83,-0.5,83.50,92.50,0,1,0.0216,4
19:19:45.147,81374,-8.47,-1.64,-19.83,-0.2,83.50,92.50,0,1,0.0216,4
19:19:45.347,81574,-8.48,-1.69,-19.83,1.0,83.50,92.50,0,1,0.0217,4
19:19:45.548,81775,-8.49,-1.73,-19.79,-0.4,83.50,92.50,0,1,0.0223,4
19:19:45.773,82000,-8.52,-1.79,-19.78,0.2,83.50,92.50,0,1,0.0222,4
19:19:45.974,82201,-8.56,-1.83,-19.79,0.1,83.50,92.50,0,1,0.0228,4
19:19:46.192,82419,-8.58,-1.96,-19.78,0.2,83.50,92.50,0,1,0.0220,4
19:19:46.412,82639,-8.61,-2.00,-19.77,-0.5,83.50,92.50,1,1,0.0234,4
19:19:46.637,82864,-8.64,-2.01,-19.76,0.1,83.50,92.50,0,1,0.0231,4
19:19:46.837,83064,-8.64,-2.00,-19.76,0.1,83.50,92.50,0,1,0.0225,4
19:19:47.059,83286,-8.63,-2.00,-19.77,0.4,83.50,92.50,0,1,0.0225,4
19:19:47.278,83505,-8.66,-2.07,-19.76,0.2,83.50,92.50,0,1,0.0225,4
19:20:29.665,125892,-8.69,-2.14,-19.76,0.0,83.50,92.50,0,1,0.0239,5
19:20:29.940,126167,-5.54,3.47,-15.02,0.0,83.50,92.50,1,0,0.1359,5
19:20:30.210,126437,-5.70,3.81,-15.15,0.0,83.50,92.50,1,0,0.1347,5
19:20:30.480,126707,-5.71,4.13,-15.24,0.0,83.50,92.50,1,1,0.1331,5
19:20:30.750,126977,-5.63,4.23,-15.24,0.0,83.50,92.50,1,0,0.1343,5
19:20:31.021,127248,-5.67,4.18,-15.24,0.0,83.50,92.50,1,0,0.1350,5
19:20:31.286,127513,-5.67,4.17,-15.27,0.0,83.50,92.50,1,0,0.1332,5
19:20:31.555,127782,-5.68,4.19,-15.32,0.0,83.50,92.50,1,0,0.1350,5
19:20:31.826,128053,-5.68,4.19,-15.29,0.0,83.50,92.50,1,0,0.1348,5
19:20:32.095,128322,-5.68,4.20,-15.29,0.0,83.50,92.50,1,0,0.1357,5
19:20:32.365,128592,-5.73,4.16,-15.31,0.0,83.50,92.50,1,0,0.1350,5
19:20:32.641,128868,-5.71,4.20,-15.27,0.0,83.50,92.50,1,0,0.1361,5
19:20:32.910,129138,-5.72,4.16,-15.24,0.0,83.50,92.50,1,0,0.1358,5
19:20:33.181,129408,-5.72,4.16,-15.27,0.0,83.50,92.50,1,0,0.1366,5
19:20:33.457,129684,-5.73,4.17,-15.29,0.0,83.50,92.50,1,0,0.1351,5
19:20:33.726,129953,-5.73,4.14,-15.23,0.0,83.50,92.50,1,0,0.1354,5
19:20:33.996,130223,-5.73,4.14,-15.23,0.0,83.50,92.50,1,0,0.1346,5
19:20:34.266,130493,-5.75,4.11,-15.26,0.0,83.50,92.50,1,0,0.1362,5
19:20:34.537,130764,-5.76,4.09,-15.23,0.0,83.50,92.50,1,0,0.1350,5
19:20:34.812,131039,-5.69,4.20,-15.23,0.0,83.50,92.50,1,0,0.1355,5
19:20:35.081,131308,-5.68,4.20,-15.24,0.0,83.50,92.50,1,0,0.1337,5
19:20:35.352,131579,-5.68,4.25,-15.23,0.0,83.50,92.50,1,0,0.1357,5
19:20:35.623,131850,-5.71,4.24,-15.21,0.0,83.50,92.50,1,0,0.1350,5
19:20:35.893,132120,-5.68,4.27,-15.23,0.0,83.50,92.50,1,0,0.1364,5
19:20:36.162,132389,-5.67,4.27,-15.23,0.0,83.50,92.50,1,0,0.1361,5
19:20:36.437,132664,-5.67,4.27,-15.23,0.0,83.50,92.50,1,0,0.1353,5
19:20:36.707,132934,-5.67,4.27,-15.23,0.0,83.50,92.50,1,0,0.1365,5
19:20:36.977,133204,-5.73,4.16,-15.23,0.0,83.50,92.50,1,0,0.1353,5
19:20:37.248,133475,-5.69,4.20,-15.23,0.0,83.50,92.50,1,0,0.1336,5
19:20:37.517,133744,-5.84,3.91,-15.24,0.0,83.50,92.50,1,0,0.1346,5
19:20:37.788,134015,-5.83,3.76,-15.24,0.0,83.50,92.50,1,0,0.1351,5
19:20:38.065,134292,-5.03,4.04,-20.64,0.0,83.50,92.50,1,0,0.1339,5
19:20:38.333,134560,-5.02,4.06,-19.72,0.0,83.50,92.50,1,0,0.1351,5
19:20:38.600,134827,-5.06,4.12,-19.80,0.0,83.50,92.50,1,0,0.1331,5
19:20:38.874,135101,-5.06,4.12,-20.83,0.0,83.50,92.50,1,0,0.1352,5
19:20:39.140,135367,-5.07,4.24,-21.31,0.0,83.50,92.50,1,0,0.1349,5
19:20:39.414,135641,-4.94,4.32,-16.65,0.0,83.50,92.50,1,0,0.1351,5
19:20:39.681,135908,-4.92,4.48,-13.16,0.0,83.50,92.50,1,0,0.1346,5
19:20:39.954,136181,-4.80,4.59,-6.69,0.0,83.50,92.50,1,0,0.1356,5
19:20:40.225,136452,-4.94,4.46,-1.26,0.0,83.50,92.50,1,0,0.1350,5
19:20:40.495,136722,-4.77,4.59,-1.03,0.0,83.50,92.50,1,0,0.1341,5
19:20:40.766,136993,-4.68,4.71,-0.99,0.0,83.50,92.50,1,0,0.1339,5
19:20:41.031,137258,-4.72,4.69,-1.00,0.0,83.50,92.50,1,0,0.1331,5
19:20:41.305,137532,-4.74,4.71,-1.04,0.0,83.50,92.50,1,0,0.1351,5
19:20:41.575,137802,-4.71,4.77,-1.01,0.0,83.50,92.50,1,0,0.1354,5
19:20:41.845,138072,-4.68,4.77,-0.98,0.0,83.50,92.50,1,0,0.1346,5
19:20:42.115,138342,-4.65,4.77,-0.94,0.0,83.50,92.50,1,0,0.1368,5
19:20:42.391,138618,-4.65,4.77,-0.97,0.0,83.50,92.50,1,0,0.1353,5
19:20:42.662,138889,-4.65,4.75,-0.97,0.0,83.50,92.50,1,0,0.1347,5
19:20:42.931,139158,-4.65,4.72,-0.94,0.0,83.50,92.50,1,0,0.1362,5
19:20:43.201,139428,-4.63,4.72,-0.94,0.0,83.50,92.50,1,0,0.1354,5
19:20:43.471,139698,-4.60,4.72,-0.97,0.0,83.50,92.50,1,0,0.1342,5
19:20:43.742,139969,-4.60,4.72,-0.97,0.0,83.50,92.50,1,0,0.1357,5
19:20:44.011,140238,-4.60,4.72,-0.97,0.0,83.50,92.50,1,0,0.1365,5
19:20:44.288,140515,-4.60,4.72,-0.97,0.0,83.50,92.50,1,0,0.1363,5
19:20:44.557,140784,-4.59,4.79,-0.94,0.0,83.50,92.50,1,0,0.1354,5
19:20:44.828,141055,-4.56,4.91,-0.88,0.0,83.50,92.50,1,0,0.1373,5
19:20:45.102,141329,-4.32,5.06,-0.92,0.0,83.50,92.50,1,0,0.1360,5
19:20:45.372,141599,-4.22,4.94,-0.70,0.0,83.50,92.50,1,0,0.1338,5
19:20:45.643,141870,-4.34,4.76,-0.89,0.0,83.50,92.50,1,0,0.1340,5
19:20:45.914,142141,-4.46,4.58,-1.08,0.0,83.50,92.50,1,0,0.1331,5
19:22:34.938,251165,0.76,0.17,-0.00,0.0,83.50,92.50,0,0,11.0322,0
19:22:35.137,251364,0.76,0.16,0.01,0.0,83.50,92.50,0,0,0.0036,0
19:22:35.342,251569,0.76,0.16,0.02,0.0,83.50,92.50,0,0,0.0016,0
19:22:35.543,251770,0.76,0.16,0.03,0.0,83.50,92.50,0,0,0.0010,0
19:22:35.748,251975,0.75,0.15,0.03,0.0,83.50,92.50,0,0,0.0030,0
19:22:35.949,252176,0.75,0.15,0.04,0.0,83.50,92.50,0,0,0.0029,0
19:22:36.152,252379,0.75,0.14,0.04,0.0,83.50,92.50,0,0,0.0017,0
19:22:36.353,252580,0.74,0.14,0.03,0.0,83.50,92.50,0,0,0.0010,0
19:22:36.557,252784,0.74,0.14,0.02,0.0,83.50,92.50,0,0,0.0035,0
19:22:36.757,252984,0.74,0.14,0.02,0.0,83.50,92.50,0,0,0.0029,0
19:22:36.962,253189,0.74,0.14,0.02,0.0,83.50,92.50,0,0,0.0010,0
19:22:37.163,253390,0.74,0.14,0.02,0.0,83.50,92.50,0,0,0.0054,0
19:22:37.365,253592,0.74,0.14,0.02,0.0,83.50,92.50,0,0,0.0016,0
19:22:37.764,253991,0.74,0.14,0.02,0.0,83.50,92.50,1,0,0.0017,0
19:22:37.964,254191,0.74,0.14,0.02,0.0,83.50,92.50,0,0,0.0010,0
19:22:38.168,254395,0.74,0.14,0.02,0.0,83.50,92.50,0,0,0.0035,0
19:22:38.368,254595,0.74,0.14,0.02,0.0,83.50,92.50,0,0,0.0010,0
19:22:38.569,254797,0.74,0.14,0.02,0.0,83.50,92.50,0,0,0.0035,0
19:22:38.769,254996,0.74,0.14,0.02,0.0,83.50,92.50,0,0,0.0010,0
19:22:38.969,255196,0.74,0.14,0.02,0.0,83.50,92.50,0,0,0.0035,0
19:22:39.174,255401,0.74,0.14,0.02,0.0,83.50,92.50,0,0,0.0029,0
19:22:39.374,255601,0.74,0.14,0.02,0.0,83.50,92.50,0,0,0.0024,0
19:22:39.574,255801,0.74,0.14,0.02,0.0,83.50,92.50,0,0,0.0055,0
19:22:39.773,256000,0.74,0.14,0.02,0.0,83.50,92.50,0,0,0.0023,0
19:22:39.974,256201,0.74,0.14,0.02,0.0,83.50,92.50,0,0,0.0024,0
19:22:40.179,256406,0.70,0.15,-0.02,0.0,83.50,92.50,0,0,0.0036,0
19:22:40.379,256606,0.76,0.19,0.03,0.0,83.50,92.50,0,0,0.0010,0
19:22:40.580,256807,0.91,0.30,0.06,0.0,83.50,92.50,0,0,0.0017,0
19:22:40.780,257007,0.73,0.35,13.88,0.0,83.50,92.50,0,0,0.0010,0
19:22:40.979,257206,0.84,0.36,27.65,0.0,83.50,92.50,0,0,0.0036,0
19:22:41.180,257407,0.90,0.31,30.88,0.0,83.50,92.50,0,0,0.0010,0
19:22:41.384,257611,0.98,0.31,30.87,0.0,83.50,92.50,0,1,0.0036,0
19:22:41.585,257812,0.99,0.31,30.84,0.0,83.50,92.50,0,0,0.0010,0
19:22:41.785,258012,1.03,0.32,30.34,0.0,83.50,92.50,0,0,0.0029,0
19:22:41.985,258212,0.95,0.31,29.70,0.0,83.50,92.50,0,0,0.0029,0
19:22:42.185,258412,1.06,0.32,29.67,0.0,83.50,92.50,0,0,0.0036,0
19:22:42.386,258613,1.09,0.33,29.77,0.0,83.50,92.50,0,0,0.0010,0
19:22:42.585,258812,0.94,0.34,20.04,0.0,83.50,92.50,0,0,0.0036,0
19:22:42.790,259017,0.64,-0.02,-39.79,0.0,83.50,92.50,0,0,0.0055,0
19:22:42.990,259217,0.61,-0.29,-62.85,0.0,83.50,92.50,0,0,0.0029,0
19:22:43.190,259417,0.26,-0.90,-79.62,0.0,83.50,92.50,0,0,0.0010,0
19:22:43.390,259617,-2.87,-2.83,-154.86,0.0,83.50,92.50,0,0,0.0017,0
19:22:43.595,259822,-2.60,-4.29,-168.68,0.0,83.50,92.50,0,0,0.0010,0
19:22:43.796,260023,-2.52,-4.22,-167.98,0.0,83.50,92.50,0,0,0.0035,0
19:22:44.000,260227,-2.54,-4.22,-162.26,0.0,83.50,92.50,0,0,0.0029,0
19:22:44.201,260428,-2.55,-4.19,-158.96,0.0,83.50,92.50,0,0,0.0016,0
19:22:44.401,260628,-2.54,-4.18,-158.28,0.0,83.50,92.50,0,0,0.0010,0
19:22:44.606,260833,-2.55,-4.18,-156.75,0.0,83.50,92.50,0,0,0.0042,0
19:22:44.811,261038,-2.57,-4.15,-156.79,0.0,83.50,92.50,0,0,0.0010,0
19:22:45.011,261238,-2.66,-4.16,-156.30,0.0,83.50,92.50,0,0,0.0043,0
19:22:45.215,261442,-2.68,-4.21,-155.79,0.0,83.50,92.50,0,0,0.0024,0
19:22:45.420,261647,-2.73,-4.24,-155.78,0.0,83.50,92.50,0,0,0.0010,0
19:22:45.621,261848,-2.83,-4.18,-156.23,0.0,83.50,92.50,0,0,0.0055,0
