Timestamp,ElapsedMillis,Yaw,Pitch,Roll,Altitude,YawServo,PitchServo,Pyro1,Pyro2,DeltaTime,State
19:35:19.424,15318,0.36,-0.75,0.02,0.0,83.50,92.50,0,0,0.0016,0
19:35:19.425,15319,0.37,-0.76,0.03,0.0,83.50,92.50,0,0,0.0023,0
19:35:19.427,15321,0.38,-0.75,0.03,0.0,83.50,92.50,0,1,0.0011,0
19:35:19.429,15323,0.38,-0.76,0.04,0.0,83.50,92.50,0,0,0.0029,0
19:35:19.431,15325,0.39,-0.74,0.03,0.0,83.50,92.50,0,0,0.0035,0
19:35:19.623,15517,0.39,-0.74,0.03,0.0,83.50,92.50,0,0,0.0010,0
19:35:19.824,15718,0.39,-0.74,0.03,0.0,83.50,92.50,0,0,0.0042,0
19:35:20.023,15917,0.39,-0.74,0.03,0.0,83.50,92.50,0,0,0.0010,0
19:35:20.223,16117,0.39,-0.74,0.03,0.0,83.50,92.50,0,0,0.0035,0
19:35:20.424,16318,0.38,-0.74,0.03,0.0,83.50,92.50,0,0,0.0010,0
19:35:20.629,16523,0.37,-0.74,0.02,0.0,83.50,92.50,0,0,0.0042,0
19:35:20.830,16724,0.37,-0.75,0.02,0.0,83.50,92.50,0,1,0.0010,0
19:35:21.033,16928,0.37,-0.75,0.02,0.0,83.50,92.50,0,0,0.0010,0
19:35:21.238,17132,0.38,-0.75,0.02,0.0,83.50,92.50,0,0,0.0016,0
19:35:21.444,17338,0.38,-0.75,0.02,0.0,83.50,92.50,0,0,0.0036,0
19:35:21.644,17538,0.38,-0.75,0.02,0.0,83.50,92.50,0,0,0.0055,0
19:35:21.844,17738,0.38,-0.75,0.02,0.0,83.50,92.50,0,1,0.0010,0
19:35:22.045,17939,0.38,-0.75,0.02,0.0,83.50,92.50,0,0,0.0036,0
19:35:22.249,18143,0.38,-0.75,0.02,0.0,83.50,92.50,0,0,0.0010,0
19:35:22.450,18344,0.38,-0.75,0.02,0.0,83.50,92.50,0,0,0.0035,0
19:35:22.650,18544,0.38,-0.75,0.02,0.0,83.50,92.50,0,0,0.0029,0
19:35:22.851,18745,0.38,-0.75,0.02,0.0,83.50,92.50,0,1,0.0029,0
19:35:23.052,18946,0.38,-0.75,0.02,0.0,83.50,92.50,0,0,0.0010,0
19:35:23.255,19149,0.38,-0.75,0.02,0.0,83.50,92.50,0,0,0.0029,0
19:35:23.456,19350,0.38,-0.75,0.02,0.0,83.50,92.50,0,0,0.0029,0
19:35:23.656,19550,0.38,-0.75,0.02,0.0,83.50,92.50,0,0,0.0029,0
19:35:23.856,19750,0.38,-0.75,0.02,0.0,83.50,92.50,0,0,0.0029,0
19:35:24.056,19950,0.38,-0.75,0.02,0.0,83.50,92.50,0,0,0.0029,0
19:35:24.257,20151,0.38,-0.75,0.02,0.0,83.50,92.50,0,0,0.0036,0
19:35:24.461,20355,0.38,-0.75,0.02,0.0,83.50,92.50,0,1,0.0036,0
19:35:24.667,20561,0.38,-0.75,0.02,0.0,83.50,92.50,0,0,0.0010,0
19:35:24.866,20760,0.38,-0.75,0.02,0.0,83.50,92.50,0,0,0.0029,0
19:35:25.066,20960,0.38,-0.75,0.02,0.0,83.50,92.50,0,0,0.0032,0
19:35:25.266,21160,0.38,-0.75,0.02,0.0,83.50,92.50,0,0,0.0047,0
19:35:25.466,21360,0.38,-0.75,0.02,0.0,83.50,92.50,0,0,0.0036,0
19:35:25.667,21561,0.38,-0.75,0.02,0.0,83.50,92.50,0,1,0.0029,0
19:35:25.866,21760,0.52,-0.72,19.13,0.0,83.50,92.50,0,0,0.0044,0
19:35:26.071,21965,0.37,-0.81,19.97,0.0,83.50,92.50,0,0,0.0024,0
19:35:26.271,22165,0.37,-0.81,19.75,0.0,83.50,92.50,0,0,0.0010,0
19:35:26.476,22371,0.36,-0.81,19.74,0.0,83.50,92.50,0,0,0.0029,0
19:35:26.677,22571,0.37,-0.80,19.74,0.0,83.50,92.50,0,0,0.0010,0
19:35:26.882,22776,0.36,-0.80,19.74,0.0,83.50,92.50,0,0,0.0024,0
19:35:27.081,22975,0.36,-0.81,19.74,0.0,83.50,92.50,0,0,0.0010,0
19:35:27.281,23175,0.37,-0.82,19.73,0.0,83.50,92.50,0,0,0.0035,0
19:35:27.487,23381,0.37,-0.82,19.74,0.0,83.50,92.50,0,0,0.0010,0
19:35:27.687,23581,0.37,-0.83,19.73,0.0,83.50,92.50,1,0,0.0036,0
19:35:27.887,23781,0.37,-0.83,19.73,0.0,83.50,92.50,0,0,0.0010,0
19:35:28.095,23989,0.37,-0.83,19.75,0.0,83.50,92.50,0,0,0.0024,0
19:35:29.095,24989,0.37,-0.82,19.74,0.0,83.50,92.50,0,0,0.0010,0
19:35:29.296,25191,0.36,-0.82,19.72,0.0,83.50,92.50,0,0,0.0035,0
19:35:29.494,25388,0.37,-0.84,19.72,0.0,83.50,92.50,0,1,0.0010,0
19:35:29.695,25589,0.37,-0.84,19.71,0.0,83.50,92.50,0,0,0.0017,0
19:35:29.899,25793,0.37,-0.84,19.71,0.0,83.50,92.50,0,0,0.0010,0
19:35:30.099,25993,0.37,-0.84,19.71,0.0,83.50,92.50,0,0,0.0035,0
19:35:30.300,26194,0.37,-0.84,19.71,0.0,83.50,92.50,0,0,0.0010,0
19:35:30.500,26394,0.37,-0.84,19.71,0.0,83.50,92.50,0,0,0.0036,0
19:35:30.706,26600,0.37,-0.84,19.71,0.0,83.50,92.50,0,0,0.0029,0
19:35:30.905,26800,0.37,-0.84,19.71,0.0,83.50,92.50,0,0,0.0036,0
19:35:31.105,26999,0.37,-0.84,19.71,0.0,83.50,92.50,0,0,0.0036,0
19:35:31.306,27200,0.37,-0.84,19.71,0.0,83.50,92.50,0,0,0.0017,0
19:35:31.506,27401,0.37,-0.84,19.71,0.0,83.50,92.50,0,0,0.0016,0
19:35:41.222,37116,0.37,-0.84,19.71,0.0,83.50,92.50,0,0,0.0029,1
19:35:41.421,37316,0.55,-0.54,-0.00,0.0,83.50,92.50,0,0,0.0036,1
19:35:41.622,37516,0.56,-0.55,0.01,0.0,83.50,92.50,0,0,0.0010,1
19:35:41.822,37716,0.56,-0.56,0.02,0.0,83.50,92.50,1,0,0.0036,1
19:35:42.027,37921,0.55,-0.57,0.03,0.0,83.50,92.50,1,0,0.0029,1
19:35:42.232,38126,0.56,-0.57,0.04,0.0,83.50,92.50,0,0,0.0017,1
19:35:42.431,38325,0.57,-0.58,0.05,0.0,83.50,92.50,0,0,0.0010,1
19:35:42.631,38525,0.57,-0.58,0.05,0.0,83.50,92.50,0,0,0.0016,1
19:35:42.833,38727,0.57,-0.59,0.03,0.0,83.50,92.50,0,1,0.0010,1
19:35:43.032,38926,0.57,-0.60,0.04,0.0,83.50,92.50,0,1,0.0035,1
19:35:43.231,39125,0.58,-0.59,0.06,0.0,83.50,92.50,0,0,0.0010,1
19:35:43.432,39326,0.58,-0.59,0.06,0.0,83.50,92.50,0,0,0.0013,1
19:35:43.633,39527,0.58,-0.59,0.06,0.0,83.50,92.50,0,1,0.0010,1
19:35:43.832,39726,0.58,-0.59,0.06,0.0,83.50,92.50,0,0,0.0029,1
19:35:44.038,39932,0.60,-0.56,0.05,0.0,83.50,92.50,0,0,0.0010,1
19:35:44.245,40139,0.61,-0.56,0.04,0.0,83.50,92.50,0,0,0.0024,1
19:35:44.444,40338,0.61,-0.57,0.02,0.0,83.50,92.50,0,0,0.0017,1
19:35:44.644,40538,0.61,-0.57,0.01,0.0,83.50,92.50,0,1,0.0016,1
19:35:44.843,40737,0.61,-0.57,0.01,0.0,83.50,92.50,0,0,0.0010,1
19:35:45.049,40943,0.61,-0.57,0.01,0.0,83.50,92.50,0,0,0.0035,1
19:35:45.250,41144,0.61,-0.57,0.01,0.0,83.50,92.50,0,0,0.0010,2
19:35:45.450,41344,0.61,-0.57,0.01,0.0,83.50,92.50,0,0,0.0017,2
19:35:45.652,41546,0.61,-0.57,0.01,0.0,83.50,92.50,0,0,0.0036,2
19:35:45.851,41745,0.61,-0.57,0.01,0.0,83.50,92.50,0,0,0.0029,2
19:35:46.052,41946,0.61,-0.57,0.01,0.0,83.50,92.50,0,0,0.0036,2
19:35:46.457,42351,0.61,-0.57,0.01,0.0,83.50,92.50,0,0,0.0010,2
19:35:46.657,42551,0.61,-0.57,0.01,0.0,83.50,92.50,0,0,0.0035,2
19:35:46.862,42756,0.61,-0.57,0.01,0.0,83.50,92.50,0,0,0.0029,2
19:35:47.068,42962,0.61,-0.57,0.01,0.0,83.50,92.50,0,0,0.0017,2
19:35:47.272,43166,0.61,-0.57,0.01,0.0,83.50,92.50,0,0,0.0017,2
19:35:48.078,43972,0.72,-0.56,-3.09,0.0,83.50,92.50,0,1,0.0043,2
19:35:48.282,44176,0.73,-0.55,-3.08,0.0,83.50,92.50,0,0,0.0010,2
19:35:48.484,44378,0.73,-0.55,-3.09,0.0,83.50,92.50,0,0,0.0010,2
19:35:48.684,44578,0.73,-0.55,-3.09,0.0,83.50,92.50,0,0,0.0010,2
19:35:48.884,44778,0.74,-0.56,-3.07,0.0,83.50,92.50,0,0,0.0010,2
19:35:49.083,44977,0.75,-0.57,-3.05,0.0,83.50,92.50,0,0,0.0035,2
19:35:49.289,45183,0.74,-0.57,-3.03,0.0,83.50,92.50,0,0,0.0055,2
19:35:49.489,45383,-0.84,-1.64,0.27,0.0,83.50,92.50,0,1,0.0010,3
19:35:49.694,45588,-2.75,15.54,7.00,0.0,83.50,92.50,0,0,0.0017,3
19:35:49.894,45788,-3.44,2.56,6.16,0.0,83.50,92.50,0,0,0.0029,3
19:35:50.100,45994,-4.99,3.55,7.28,0.0,83.50,92.50,0,1,0.0016,3
19:35:50.299,46193,-3.68,2.15,6.36,0.0,83.50,92.50,0,0,0.0016,3
19:35:50.505,46399,-3.37,2.13,5.38,0.0,83.50,92.50,0,0,0.0036,3
19:35:50.704,46598,-2.75,1.78,4.60,0.0,83.50,92.50,0,0,0.0010,3
19:35:50.909,46803,-2.67,1.58,4.23,0.0,83.50,92.50,0,0,0.0016,3
19:35:51.109,47003,-1.43,0.34,3.11,0.0,83.50,92.50,0,0,0.0029,3
19:35:51.310,47204,0.33,-0.94,2.41,0.0,83.50,92.50,0,0,0.0024,3
19:35:51.510,47404,0.35,-0.90,1.42,0.0,83.50,92.50,0,0,0.0016,3
19:35:51.709,47603,0.37,-0.90,1.42,0.0,83.50,92.50,0,0,0.0023,3
19:35:51.910,47804,0.61,-0.72,0.86,0.0,83.50,92.50,0,0,0.0023,3
19:35:52.110,48005,0.88,0.33,0.35,0.0,83.50,92.50,0,0,0.0016,3
19:35:52.310,48204,0.24,1.59,2.18,0.0,83.50,92.50,0,0,0.0017,3
19:35:52.511,48405,0.45,1.85,3.37,0.0,83.50,92.50,0,0,0.0023,3
19:35:52.711,48605,-0.32,1.63,4.06,0.0,83.50,92.50,0,0,0.0010,3
19:35:52.917,48811,-0.61,1.24,4.78,0.0,83.50,92.50,0,0,0.0016,3
19:35:53.121,49015,-1.16,0.27,5.77,0.0,83.50,92.50,0,0,0.0029,3
19:35:53.321,49215,-1.49,-0.29,7.34,0.0,83.50,92.50,0,0,0.0016,3
19:35:53.522,49416,-1.38,-0.71,7.84,0.0,83.50,92.50,0,0,0.0010,3
19:35:53.722,49616,-3.56,0.81,9.07,0.0,83.50,92.50,1,1,0.0016,3
19:35:53.927,49821,-3.76,1.66,8.59,0.0,83.50,92.50,0,0,0.0010,3
19:35:54.128,50022,-2.99,2.17,8.93,0.0,83.50,92.50,1,0,0.0038,3
19:35:54.333,50227,-3.62,1.86,8.02,0.0,83.50,92.50,0,0,0.0010,3
19:35:54.533,50427,-5.10,-0.00,8.01,0.0,83.50,92.50,0,1,0.0017,3
19:35:54.733,50627,-5.58,-0.18,8.13,0.0,83.50,92.50,0,0,0.0036,3
19:35:54.939,50833,-5.37,-0.33,7.73,0.0,83.50,92.50,0,0,0.0016,3
19:35:55.138,51032,-5.10,-0.20,7.38,0.0,83.50,92.50,0,0,0.0024,3
19:35:55.338,51232,-5.39,0.16,6.82,-0.1,83.50,92.50,0,0,0.0140,4
19:35:55.557,51452,-7.60,11.45,11.53,-0.2,83.50,92.50,0,0,0.0230,4
19:35:55.758,51652,-7.40,10.17,14.97,-0.5,83.50,92.50,0,0,0.0209,4
19:35:55.978,51872,-5.49,10.66,14.50,0.4,83.50,92.50,0,0,0.0222,4
19:35:56.178,52072,-3.89,10.26,14.53,0.2,83.50,92.50,0,0,0.0222,4
19:35:56.379,52273,-4.26,9.03,13.74,-0.4,83.50,92.50,0,1,0.0219,4
19:35:56.579,52473,-4.87,6.78,14.89,0.0,83.50,92.50,0,0,0.0230,4
19:35:56.779,52673,-3.87,5.85,10.86,-0.4,83.50,92.50,0,0,0.0218,4
19:35:56.984,52878,-2.20,6.27,8.56,-0.9,83.50,92.50,0,1,0.0223,4
19:35:57.184,53078,0.32,5.66,5.27,-0.1,83.50,92.50,0,0,0.0223,4
19:35:57.384,53278,0.18,5.87,4.33,0.2,83.50,92.50,0,0,0.0228,4
19:35:57.585,53479,0.44,5.60,3.54,-0.8,83.50,92.50,0,0,0.0216,4
19:35:57.785,53679,-0.12,5.89,3.71,0.0,83.50,92.50,0,0,0.0228,4
19:35:57.985,53879,-0.44,6.14,4.03,0.1,83.50,92.50,0,0,0.0220,4
19:35:58.206,54100,-0.64,6.63,4.11,0.3,83.50,92.50,0,0,0.0220,4
19:35:58.426,54320,-0.04,6.19,3.75,-0.1,83.50,92.50,0,0,0.0220,4
19:35:58.625,54519,0.11,6.38,3.72,-0.1,83.50,92.50,0,0,0.0221,4
19:35:58.826,54720,0.12,6.40,3.71,0.6,83.50,92.50,0,1,0.0227,4
19:35:59.052,54946,0.12,6.39,3.70,0.0,83.50,92.50,0,0,0.0210,4
19:35:59.266,55160,0.13,6.41,3.73,-0.3,83.50,92.50,0,0,0.0223,4
19:35:59.487,55381,0.13,6.42,3.74,-0.4,83.50,92.50,0,1,0.0213,4
19:35:59.711,55605,0.13,6.43,3.73,-0.4,83.50,92.50,0,1,0.0227,4
19:35:59.912,55806,0.14,6.44,3.72,-0.6,83.50,92.50,0,0,0.0224,4
19:36:00.112,56006,0.14,6.43,3.71,-0.3,83.50,92.50,0,0,0.0218,4
19:36:00.338,56232,0.15,6.42,3.71,0.2,83.50,92.50,0,0,0.0207,4
19:36:00.538,56432,0.14,6.42,3.72,-0.2,83.50,92.50,0,0,0.0240,4
19:36:00.756,56650,0.14,6.44,3.70,-0.1,83.50,92.50,0,0,0.0216,4
19:36:00.976,56870,0.14,6.43,3.70,0.6,83.50,92.50,0,0,0.0223,4
19:36:01.198,57092,0.13,6.43,3.70,-0.0,83.50,92.50,1,0,0.0220,4
19:36:01.418,57312,0.13,6.43,3.70,-0.2,83.50,92.50,0,0,0.0227,4
19:36:01.643,57537,0.13,6.43,3.70,-0.0,83.50,92.50,0,1,0.0220,4
19:36:01.843,57737,0.13,6.43,3.70,0.3,83.50,92.50,0,0,0.0223,4
19:36:02.043,57937,0.13,6.43,3.70,0.8,83.50,92.50,0,0,0.0230,4
19:36:02.248,58142,0.13,6.43,3.70,-0.4,83.50,92.50,0,0,0.0244,4
19:36:02.468,58362,0.13,6.43,3.70,-0.3,83.50,92.50,0,1,0.0223,4
19:36:02.694,58588,0.13,6.43,3.70,0.4,83.50,92.50,0,0,0.0230,4
19:36:02.914,58808,0.13,6.43,3.70,0.3,83.50,92.50,0,0,0.0220,4
19:36:03.134,59028,0.13,6.43,3.70,-0.4,83.50,92.50,0,1,0.0220,4
19:36:03.354,59248,0.13,6.43,3.70,-0.0,83.50,92.50,0,0,0.0227,4
19:36:03.574,59468,0.13,6.43,3.70,0.4,83.50,92.50,0,1,0.0221,4
19:36:03.794,59688,0.13,6.43,3.70,-0.1,83.50,92.50,0,1,0.0211,4
19:36:03.998,59892,0.13,6.43,3.70,0.0,83.50,92.50,0,0,0.0234,4
19:36:04.199,60093,0.13,6.43,3.70,-0.7,83.50,92.50,0,0,0.0229,4
19:36:04.419,60313,0.13,6.43,3.70,0.1,83.50,92.50,0,0,0.0219,4
19:36:04.619,60513,0.13,6.43,3.70,0.2,83.50,92.50,0,0,0.0231,4
19:36:04.840,60734,0.13,6.43,3.70,0.0,83.50,92.50,0,0,0.0203,4
19:36:05.045,60939,0.13,6.43,3.70,-0.6,83.50,92.50,0,1,0.0237,4
19:36:05.245,61139,0.13,6.43,3.70,-0.1,83.50,92.50,0,0,0.0230,4
19:36:05.464,61358,0.13,6.43,3.70,-0.2,83.50,92.50,0,0,0.0230,4
19:36:05.669,61564,0.13,6.43,3.70,-0.6,83.50,92.50,0,0,0.0235,4
19:36:05.891,61785,0.13,6.43,3.70,-2.5,83.50,92.50,0,0,0.0222,4
19:36:06.110,62004,0.13,6.43,3.70,-2.4,83.50,92.50,0,0,0.0209,4
19:36:06.330,62224,0.13,6.43,3.70,-0.9,83.50,92.50,0,0,0.0229,4
19:36:48.659,104553,0.13,6.43,3.70,0.5,83.50,92.50,0,1,0.0214,5
19:36:48.933,104827,0.13,6.43,3.70,0.5,83.50,92.50,0,0,42.2377,5
19:36:49.203,105097,4.91,5.79,6.91,0.5,83.50,92.50,0,0,0.1364,5
19:36:49.472,105366,11.55,3.83,10.52,0.5,83.50,92.50,0,0,0.1357,5
19:36:49.743,105637,14.72,2.37,10.47,0.5,83.50,92.50,0,1,0.1350,5
19:36:50.013,105907,14.78,2.52,9.81,0.5,83.50,92.50,0,0,0.1351,5
19:36:50.285,106179,14.78,2.52,9.69,0.5,83.50,92.50,0,0,0.1378,5
19:36:50.558,106452,14.78,2.52,9.61,0.5,83.50,92.50,0,0,0.1355,5
19:36:50.830,106724,14.79,2.50,12.20,0.5,83.50,92.50,0,0,0.1367,5
19:36:51.103,106997,14.84,2.55,14.03,0.5,83.50,92.50,1,0,0.1345,5
19:36:51.374,107268,14.95,2.65,11.59,0.5,83.50,92.50,0,0,0.1366,5
19:36:51.644,107538,14.94,2.65,11.58,0.5,83.50,92.50,0,0,0.1362,5
19:36:51.914,107808,14.94,2.65,11.55,0.5,83.50,92.50,0,0,0.1355,5
19:36:52.184,108078,14.99,2.58,11.59,0.5,83.50,92.50,0,0,0.1367,5
19:36:52.454,108348,14.97,2.57,11.57,0.5,83.50,92.50,0,0,0.1357,5
19:36:52.725,108619,15.01,2.62,11.54,0.5,83.50,92.50,0,0,0.1351,5
19:36:52.994,108888,15.04,2.62,11.54,0.5,83.50,92.50,0,0,0.1356,5
19:36:53.265,109159,15.06,2.61,11.57,0.5,83.50,92.50,0,0,0.1351,5
19:36:53.539,109433,15.06,2.61,11.51,0.5,83.50,92.50,0,0,0.1363,5
19:36:53.810,109704,15.06,2.58,11.54,0.5,83.50,92.50,0,0,0.1362,5
19:36:54.081,109975,15.07,2.55,11.56,0.5,83.50,92.50,1,0,0.1367,5
19:36:54.355,110249,15.07,2.53,11.55,0.5,83.50,92.50,0,0,0.1361,5
19:36:54.625,110519,15.06,2.50,11.48,0.5,83.50,92.50,0,0,0.1362,5
19:36:54.901,110795,15.06,2.47,11.51,0.5,83.50,92.50,0,0,0.1359,5
19:36:55.170,111064,15.04,2.48,11.54,0.5,83.50,92.50,0,0,0.1352,5
19:36:55.440,111334,15.05,2.51,11.57,0.5,83.50,92.50,0,0,0.1351,5
19:36:55.710,111604,15.06,2.49,11.59,0.5,83.50,92.50,1,0,0.1363,5
19:36:55.980,111874,15.09,2.48,11.56,0.5,83.50,92.50,0,0,0.1362,5
19:36:56.255,112149,15.09,2.48,11.56,0.5,83.50,92.50,0,0,0.1355,5
19:36:56.525,112419,15.09,2.48,11.56,0.5,83.50,92.50,0,0,0.1373,5
19:36:56.795,112689,15.09,2.48,11.56,0.5,83.50,92.50,0,0,0.1349,5
19:36:57.066,112960,15.09,2.48,11.56,0.5,83.50,92.50,0,0,0.1343,5
19:36:57.336,113230,15.09,2.48,11.56,0.5,83.50,92.50,0,0,0.1339,5
19:36:57.606,113500,15.09,2.48,11.56,0.5,83.50,92.50,0,0,0.1340,5
19:36:57.881,113775,15.09,2.48,11.56,0.5,83.50,92.50,0,0,0.1347,5
19:36:58.151,114045,15.09,2.48,11.56,0.5,83.50,92.50,0,0,0.1377,5
19:36:58.421,114315,15.09,2.48,11.56,0.5,83.50,92.50,0,0,0.1360,5
19:36:58.692,114586,15.09,2.48,11.56,0.5,83.50,92.50,0,0,0.1360,5
19:36:58.961,114855,15.09,2.48,11.56,0.5,83.50,92.50,0,1,0.1354,5
19:36:59.236,115130,15.09,2.48,11.56,0.5,83.50,92.50,0,0,0.1359,5
19:36:59.507,115401,15.09,2.48,11.56,0.5,83.50,92.50,0,0,0.1365,5
19:36:59.777,115671,15.09,2.48,11.56,0.5,83.50,92.50,0,0,0.1350,5
19:37:00.046,115941,15.09,2.48,11.56,0.5,83.50,92.50,0,0,0.1363,5
19:37:00.317,116211,15.09,2.48,11.56,0.5,83.50,92.50,0,0,0.1344,5
19:37:00.592,116486,15.09,2.48,11.56,0.5,83.50,92.50,0,0,0.1355,5
19:37:00.857,116751,15.09,2.48,11.56,0.5,83.50,92.50,0,0,0.1361,5
19:37:01.131,117026,15.09,2.48,11.56,0.5,83.50,92.50,0,0,0.1340,5
19:37:01.397,117291,15.09,2.48,11.56,0.5,83.50,92.50,0,0,0.1363,5
19:37:01.668,117562,15.09,2.48,11.56,0.5,83.50,92.50,0,0,0.1355,5
19:37:01.942,117837,15.09,2.48,11.56,0.5,83.50,92.50,0,0,0.1363,5
19:37:02.214,118108,15.09,2.48,11.56,0.5,83.50,92.50,0,0,0.1353,5
19:37:02.484,118378,15.09,2.48,11.56,0.5,83.50,92.50,0,0,0.1369,5
19:37:02.754,118648,15.09,2.48,11.56,0.5,83.50,92.50,0,0,0.1347,5
19:37:03.023,118917,15.09,2.48,11.56,0.5,83.50,92.50,0,0,0.1348,5
19:37:03.294,119188,15.09,2.48,11.56,0.5,83.50,92.50,0,0,0.1347,5
19:37:03.569,119463,15.09,2.48,11.56,0.5,83.50,92.50,0,0,0.1352,5
19:37:03.844,119738,15.12,2.48,11.56,0.5,83.50,92.50,1,0,0.1366,5
19:37:04.113,120007,15.16,2.50,11.62,0.5,83.50,92.50,0,0,0.1377,5
19:37:04.384,120278,15.12,2.49,11.64,0.5,83.50,92.50,0,0,0.1359,5
19:37:04.654,120548,15.09,2.48,11.64,0.5,83.50,92.50,0,0,0.1367,5
19:37:04.924,120818,15.09,2.48,11.67,0.5,83.50,92.50,0,0,0.1356,5
19:37:05.199,121093,15.10,2.46,11.70,0.5,83.50,92.50,0,0,0.1353,5
19:37:05.469,121363,15.10,2.43,11.67,0.5,83.50,92.50,0,0,0.1363,5
19:37:05.741,121635,15.10,2.43,11.64,0.5,83.50,92.50,0,0,0.1358,5
19:37:06.015,121909,15.10,2.43,11.64,0.5,83.50,92.50,0,0,0.1358,5
19:37:06.285,122179,15.10,2.43,11.64,0.5,83.50,92.50,0,0,0.1373,5
19:37:06.554,122448,15.10,2.43,11.64,0.5,83.50,92.50,0,0,0.1370,5
19:37:06.826,122720,15.10,2.43,11.64,0.5,83.50,92.50,0,0,0.1370,5
19:37:07.095,122989,15.10,2.43,11.64,0.5,83.50,92.50,0,0,0.1354,5
19:37:07.366,123260,15.10,2.43,11.64,0.5,83.50,92.50,0,0,0.1351,5
19:37:07.636,123530,15.10,2.43,11.64,0.5,83.50,92.50,0,0,0.1377,5
19:37:07.905,123799,15.10,2.43,11.64,0.5,83.50,92.50,0,0,0.1356,5
19:37:08.181,124075,15.10,2.43,11.64,0.5,83.50,92.50,0,0,0.1356,5
19:37:08.451,124345,15.10,2.43,11.64,0.5,83.50,92.50,0,0,0.1355,5
19:37:08.722,124616,15.10,2.43,11.64,0.5,83.50,92.50,0,0,0.1353,5
19:37:08.991,124885,15.10,2.43,11.64,0.5,83.50,92.50,0,0,0.1357,5
19:37:09.261,125155,15.10,2.43,11.64,0.5,83.50,92.50,0,0,0.1346,5
19:37:09.531,125425,15.10,2.43,11.64,0.5,83.50,92.50,0,0,0.1360,5
19:37:09.801,125695,15.10,2.43,11.64,0.5,83.50,92.50,0,0,0.1349,5
19:37:10.070,125964,15.10,2.43,11.64,0.5,83.50,92.50,0,0,0.1340,5
19:37:10.341,126235,15.10,2.43,11.64,0.5,83.50,92.50,0,0,0.1347,5
19:37:10.611,126505,15.10,2.43,11.64,0.5,83.50,92.50,0,0,0.1352,5
19:37:10.882,126776,15.10,2.43,11.64,0.5,83.50,92.50,0,0,0.1366,5
19:37:11.157,127051,15.10,2.43,11.64,0.5,83.50,92.50,0,0,0.1348,5
19:37:11.426,127320,15.10,2.43,11.64,0.5,83.50,92.50,0,0,0.1348,5
19:37:11.697,127591,15.10,2.43,11.64,0.5,83.50,92.50,0,0,0.1356,5
19:37:11.967,127861,15.10,2.43,11.64,0.5,83.50,92.50,1,0,0.1351,5
19:37:12.241,128136,15.10,2.43,11.64,0.5,83.50,92.50,0,0,0.1368,5
19:37:12.507,128401,15.10,2.43,11.64,0.5,83.50,92.50,0,0,0.1358,5
19:37:12.781,128675,15.10,2.43,11.64,0.5,83.50,92.50,0,0,0.1343,5
19:37:13.052,128946,15.10,2.43,11.64,0.5,83.50,92.50,0,0,0.1358,5
19:37:13.321,129215,15.17,2.47,11.62,0.5,83.50,92.50,0,0,0.1352,5
19:37:13.593,129487,15.17,2.47,11.59,0.5,83.50,92.50,0,0,0.1356,5
19:37:13.868,129763,15.17,2.48,11.58,0.5,83.50,92.50,0,0,0.1366,5
19:37:14.138,130032,15.17,2.51,11.55,0.5,83.50,92.50,0,0,0.1384,5
19:37:14.412,130306,15.22,2.52,11.58,0.5,83.50,92.50,0,0,0.1355,5
19:37:14.683,130577,15.32,2.56,11.65,0.5,83.50,92.50,0,0,0.1365,5
19:37:14.957,130851,15.32,2.56,11.65,0.5,83.50,92.50,0,0,0.1378,5
19:37:15.228,131122,15.34,2.55,11.66,0.5,83.50,92.50,0,0,0.1370,5
19:37:15.499,131393,15.34,2.55,11.62,0.5,83.50,92.50,0,0,0.1355,5
19:37:15.768,131662,15.36,2.57,11.57,0.5,83.50,92.50,0,0,0.1363,5
19:37:16.038,131932,15.39,2.59,11.54,0.5,83.50,92.50,0,0,0.1375,5
19:37:16.309,132203,15.39,2.59,11.54,0.5,83.50,92.50,0,0,0.1362,5
19:37:16.585,132479,15.39,2.59,11.53,0.5,83.50,92.50,0,0,0.1355,5
19:37:16.853,132747,15.40,2.61,11.51,0.5,83.50,92.50,0,0,0.1355,5
19:37:17.124,133018,15.43,2.63,11.55,0.5,83.50,92.50,0,0,0.1346,5
19:37:17.394,133288,15.43,2.63,11.52,0.5,83.50,92.50,0,0,0.1352,5
19:37:17.663,133557,15.43,2.63,11.58,0.5,83.50,92.50,0,0,0.1362,5
19:37:17.939,133833,15.43,2.63,11.58,0.5,83.50,92.50,0,0,0.1351,5
19:37:18.204,134098,15.43,2.63,11.58,0.5,83.50,92.50,0,0,0.1358,5
19:37:18.479,134373,15.43,2.63,11.58,0.5,83.50,92.50,0,0,0.1343,5
19:37:18.748,134642,15.43,2.63,11.58,0.5,83.50,92.50,0,0,0.1350,5
19:37:19.020,134914,15.43,2.63,11.58,0.5,83.50,92.50,0,0,0.1355,5
19:37:19.294,135188,15.43,2.63,11.58,0.5,83.50,92.50,0,0,0.1363,5
19:37:19.565,135459,15.46,2.67,11.56,0.5,83.50,92.50,0,0,0.1383,5
19:37:19.834,135728,15.48,2.70,11.58,0.5,83.50,92.50,0,0,0.1347,5
19:37:20.106,136000,15.47,2.65,11.56,0.5,83.50,92.50,0,0,0.1358,5
19:37:20.377,136271,15.47,2.65,11.55,0.5,83.50,92.50,0,0,0.1348,5
19:37:20.645,136539,15.45,2.66,11.53,0.5,83.50,92.50,0,0,0.1347,5
19:37:20.915,136809,15.49,2.67,11.52,0.5,83.50,92.50,0,0,0.1366,5
19:37:21.186,137080,15.52,2.69,11.52,0.5,83.50,92.50,0,0,0.1363,5
19:37:21.456,137350,15.52,2.67,11.55,0.5,83.50,92.50,0,0,0.1345,5
19:37:21.731,137625,15.54,2.64,11.55,0.5,83.50,92.50,0,0,0.1353,5
19:37:22.002,137896,15.54,2.64,11.55,0.5,83.50,92.50,0,0,0.1346,5
19:37:22.272,138166,15.54,2.64,11.55,0.5,83.50,92.50,0,0,0.1355,5
19:37:22.541,138435,15.56,2.64,11.61,0.5,83.50,92.50,0,0,0.1366,5
19:37:22.813,138707,15.56,2.67,11.58,0.5,83.50,92.50,0,0,0.1340,5
19:37:23.087,138981,15.60,2.67,11.57,0.5,83.50,92.50,0,0,0.1358,5
19:37:23.357,139251,15.59,2.64,11.57,0.5,83.50,92.50,1,0,0.1364,5
19:37:23.627,139521,15.59,2.64,11.57,0.5,83.50,92.50,0,0,0.1348,5
19:37:23.896,139790,15.61,2.64,11.54,0.5,83.50,92.50,0,0,0.1357,5
19:37:24.167,140061,15.62,2.62,11.52,0.5,83.50,92.50,0,0,0.1362,5
19:37:24.442,140336,15.61,2.61,11.54,0.5,83.50,92.50,0,0,0.1356,5
19:37:24.712,140606,15.61,2.61,11.54,0.5,83.50,92.50,0,0,0.1367,5
19:37:24.981,140875,15.61,2.61,11.54,0.5,83.50,92.50,0,0,0.1346,5
19:37:25.252,141146,15.61,2.61,11.54,0.5,83.50,92.50,0,0,0.1354,5
19:37:25.528,141422,15.61,2.58,11.54,0.5,83.50,92.50,0,0,0.1346,5
19:37:25.797,141691,15.60,2.56,11.52,0.5,83.50,92.50,0,1,0.1353,5
19:37:26.069,141963,15.65,2.62,11.53,0.5,83.50,92.50,0,0,0.1358,5
19:37:26.343,142237,15.65,2.62,11.53,0.5,83.50,92.50,0,0,0.1355,5
19:37:26.612,142506,15.65,2.62,11.53,0.5,83.50,92.50,0,0,0.1379,5
19:37:26.883,142777,15.65,2.62,11.53,0.5,83.50,92.50,0,0,0.1353,5
19:37:27.152,143046,15.65,2.62,11.53,0.5,83.50,92.50,0,0,0.1363,5
19:37:27.428,143322,15.65,2.62,11.53,0.5,83.50,92.50,0,0,0.1374,5
19:37:27.698,143592,15.65,2.62,11.53,0.5,83.50,92.50,0,0,0.1363,5
19:37:27.968,143862,15.65,2.62,11.53,0.5,83.50,92.50,0,0,0.1349,5
19:37:28.237,144131,15.65,2.62,11.53,0.5,83.50,92.50,0,0,0.1352,5
19:37:28.508,144402,15.65,2.62,11.53,0.5,83.50,92.50,0,0,0.1348,5
19:37:28.779,144673,15.65,2.62,11.53,0.5,83.50,92.50,0,0,0.1358,5
19:37:29.053,144947,15.65,2.62,11.53,0.5,83.50,92.50,0,0,0.1358,5
19:37:29.321,145215,15.65,2.62,11.53,0.5,83.50,92.50,0,0,0.1363,5
19:37:29.593,145487,15.65,2.62,11.53,0.5,83.50,92.50,0,0,0.1343,5
19:37:29.864,145758,15.65,2.62,11.53,0.5,83.50,92.50,0,0,0.1359,5
19:37:30.133,146027,15.65,2.62,11.53,0.5,83.50,92.50,0,0,0.1351,5
19:37:30.399,146293,15.65,2.62,11.53,0.5,83.50,92.50,0,0,0.1336,5
19:37:30.673,146567,15.65,2.62,11.53,0.5,83.50,92.50,0,0,0.1349,5
19:37:30.943,146837,15.65,2.62,11.53,0.5,83.50,92.50,1,0,0.1355,5
19:37:31.214,147108,15.65,2.62,11.53,0.5,83.50,92.50,0,0,0.1354,5
19:37:31.483,147377,15.65,2.62,11.53,0.5,83.50,92.50,0,0,0.1361,5
19:37:31.754,147649,15.65,2.62,11.53,0.5,83.50,92.50,0,0,0.1351,5
19:37:32.020,147914,15.65,2.62,11.53,0.5,83.50,92.50,0,0,0.1354,5
19:37:32.294,148188,15.65,2.62,11.53,0.5,83.50,92.50,0,0,0.1352,5
19:37:32.565,148459,15.65,2.62,11.53,0.5,83.50,92.50,0,0,0.1354,5
19:37:32.839,148733,15.65,2.62,11.53,0.5,83.50,92.50,0,0,0.1364,5
19:37:33.109,149003,15.65,2.62,11.53,0.5,83.50,92.50,0,0,0.1385,5
19:37:33.380,149274,15.65,2.62,11.53,0.5,83.50,92.50,0,0,0.1367,5
19:37:33.655,149549,15.65,2.62,11.53,0.5,83.50,92.50,0,0,0.1368,5
19:37:33.926,149820,15.65,2.62,11.53,0.5,83.50,92.50,0,0,0.1354,5
19:37:34.195,150089,15.65,2.62,11.53,0.5,83.50,92.50,0,0,0.1369,5
19:37:34.471,150365,15.65,2.62,11.53,0.5,83.50,92.50,0,0,0.1351,5
19:37:34.740,150634,15.65,2.62,11.53,0.5,83.50,92.50,0,0,0.1372,5
19:37:35.010,150904,15.65,2.62,11.53,0.5,83.50,92.50,0,0,0.1363,5
19:37:35.280,151174,15.65,2.62,11.53,0.5,83.50,92.50,0,0,0.1359,5
19:37:35.545,151439,15.65,2.62,11.53,0.5,83.50,92.50,0,0,0.1349,5
19:37:35.815,151709,15.65,2.62,11.53,0.5,83.50,92.50,0,0,0.1343,5
19:37:36.091,151985,15.65,2.62,11.53,0.5,83.50,92.50,0,0,0.1345,5
19:37:36.360,152254,15.65,2.62,11.53,0.5,83.50,92.50,0,0,0.1358,5
19:37:36.631,152525,15.65,2.62,11.53,0.5,83.50,92.50,0,0,0.1372,5
19:37:36.901,152795,15.65,2.62,11.53,0.5,83.50,92.50,0,0,0.1372,5
19:37:37.171,153065,15.65,2.62,11.53,0.5,83.50,92.50,0,0,0.1345,5
19:37:37.446,153340,15.65,2.62,11.53,0.5,83.50,92.50,0,0,0.1351,5
19:37:37.715,153609,15.47,2.59,11.53,0.5,83.50,92.50,0,0,0.1370,5
19:37:37.986,153880,15.33,2.59,11.54,0.5,83.50,92.50,0,0,0.1363,5
19:37:38.256,154150,15.36,2.60,11.56,0.5,83.50,92.50,0,0,0.1369,5
19:37:38.527,154421,15.35,2.59,11.57,0.5,83.50,92.50,0,0,0.1362,5
19:37:38.802,154696,15.36,2.58,11.57,0.5,83.50,92.50,0,0,0.1351,5
19:37:39.072,154967,15.40,2.61,11.51,0.5,83.50,92.50,0,0,0.1366,5
19:37:39.348,155242,15.38,2.55,11.51,0.5,83.50,92.50,0,1,0.1358,5
19:37:39.618,155512,15.38,2.55,11.51,0.5,83.50,92.50,0,0,0.1364,5
19:37:39.888,155782,15.38,2.55,11.51,0.5,83.50,92.50,0,0,0.1363,5
19:37:40.158,156052,15.38,2.55,11.51,0.5,83.50,92.50,0,0,0.1359,5
19:37:40.428,156322,15.38,2.55,11.51,0.5,83.50,92.50,0,0,0.1357,5
19:37:40.694,156588,15.38,2.55,11.51,0.5,83.50,92.50,1,0,0.1355,5
19:37:40.964,156858,15.38,2.55,11.51,0.5,83.50,92.50,0,0,0.1358,5
19:37:41.234,157128,15.38,2.55,11.51,0.5,83.50,92.50,0,0,0.1344,5
19:37:41.504,157398,15.38,2.55,11.51,0.5,83.50,92.50,0,0,0.1350,5
19:37:41.773,157667,15.37,2.49,11.54,0.5,83.50,92.50,0,0,0.1344,5
19:37:42.043,157938,15.38,2.55,11.45,0.5,83.50,92.50,0,0,0.1340,5
19:37:42.314,158208,15.35,2.52,11.42,0.5,83.50,92.50,0,0,0.1355,5
19:37:42.584,158478,15.31,2.50,11.42,0.5,83.50,92.50,0,0,0.1356,5
19:37:42.854,158748,15.31,2.50,11.42,0.5,83.50,92.50,0,0,0.1338,5
19:37:43.129,159023,15.31,2.50,11.42,0.5,83.50,92.50,0,0,0.1355,5
19:37:43.394,159288,15.31,2.50,11.42,0.5,83.50,92.50,0,0,0.1363,5
19:37:43.670,159564,15.31,2.50,11.42,0.5,83.50,92.50,0,0,0.1349,5
19:37:43.940,159834,15.30,2.50,11.42,0.5,83.50,92.50,0,0,0.1351,5
19:37:44.210,160104,15.26,2.48,11.39,0.5,83.50,92.50,0,0,0.1356,5
19:37:44.479,160373,15.26,2.48,11.39,0.5,83.50,92.50,0,0,0.1359,5
19:37:44.749,160643,15.26,2.45,11.42,0.5,83.50,92.50,0,0,0.1343,5
19:37:45.020,160914,15.26,2.45,11.42,0.5,83.50,92.50,0,0,0.1354,5
19:37:45.290,161184,15.26,2.45,11.42,0.5,83.50,92.50,0,0,0.1361,5
19:37:45.560,161454,15.26,2.45,11.42,0.5,83.50,92.50,0,0,0.1355,5
19:37:45.831,161725,15.26,2.45,11.42,0.5,83.50,92.50,0,0,0.1366,5
19:37:46.100,161994,15.26,2.45,11.42,0.5,83.50,92.50,0,0,0.1356,5
19:37:46.371,162265,15.26,2.45,11.42,0.5,83.50,92.50,0,0,0.1366,5
19:37:46.646,162540,15.26,2.45,11.42,0.5,83.50,92.50,0,0,0.1351,5
19:37:46.916,162810,15.26,2.45,11.42,0.5,83.50,92.50,0,0,0.1362,5
19:37:47.187,163081,15.26,2.45,11.42,0.5,83.50,92.50,0,0,0.1341,5
19:37:47.456,163350,15.26,2.45,11.42,0.5,83.50,92.50,0,0,0.1362,5
19:37:47.721,163615,15.26,2.45,11.42,0.5,83.50,92.50,0,0,0.1355,5
19:37:47.992,163886,15.26,2.45,11.42,0.5,83.50,92.50,1,0,0.1343,5
19:37:48.533,164427,15.26,2.45,11.42,0.5,83.50,92.50,0,0,0.1344,5
19:37:48.803,164697,15.26,2.45,11.42,0.5,83.50,92.50,0,0,0.1344,5
19:37:49.077,164971,15.26,2.45,11.42,0.5,83.50,92.50,0,0,0.1345,5
19:37:49.347,165241,15.36,2.49,11.44,0.5,83.50,92.50,0,0,0.1356,5
19:37:49.618,165512,15.35,2.46,11.47,0.5,83.50,92.50,0,0,0.1370,5
19:37:49.889,165783,15.33,2.43,11.47,0.5,83.50,92.50,0,0,0.1358,5
19:37:50.159,166053,15.30,2.41,11.43,0.5,83.50,92.50,0,0,0.1356,5
19:37:50.435,166329,15.27,2.38,11.45,0.5,83.50,92.50,0,0,0.1348,5
19:37:50.704,166598,15.27,2.35,11.49,0.5,83.50,92.50,0,0,0.1368,5
19:37:50.974,166868,15.25,2.33,11.48,0.5,83.50,92.50,0,0,0.1358,5
19:37:51.249,167143,15.22,2.32,11.46,0.5,83.50,92.50,0,0,0.1350,5
19:37:51.519,167413,15.19,2.32,11.43,0.5,83.50,92.50,0,0,0.1358,5
19:37:51.790,167684,15.18,2.30,11.41,0.5,83.50,92.50,0,0,0.1356,5
19:37:52.060,167954,15.18,2.30,11.41,0.5,83.50,92.50,0,0,0.1367,5
19:37:52.330,168224,15.18,2.30,11.41,0.5,83.50,92.50,0,0,0.1356,5
19:37:52.601,168495,15.18,2.30,11.41,0.5,83.50,92.50,0,0,0.1353,5
19:37:52.871,168765,15.18,2.30,11.41,0.5,83.50,92.50,0,0,0.1362,5
19:37:53.145,169039,15.18,2.30,11.41,0.5,83.50,92.50,0,0,0.1358,5
19:37:53.411,169305,15.18,2.30,11.41,0.5,83.50,92.50,0,0,0.1363,5
19:37:53.680,169574,15.18,2.30,11.41,0.5,83.50,92.50,0,0,0.1358,5
19:37:53.951,169845,15.18,2.30,11.41,0.5,83.50,92.50,0,0,0.1351,5
19:37:54.216,170110,15.18,2.30,11.41,0.5,83.50,92.50,0,0,0.1343,5
19:37:54.487,170381,15.18,2.30,11.41,0.5,83.50,92.50,0,0,0.1353,5
19:37:54.756,170650,15.18,2.30,11.41,0.5,83.50,92.50,0,0,0.1358,5
19:37:55.031,170925,15.18,2.30,11.41,0.5,83.50,92.50,0,0,0.1351,5
19:37:55.302,171196,15.18,2.30,11.41,0.5,83.50,92.50,0,0,0.1361,5
19:37:55.567,171461,15.18,2.30,11.41,0.5,83.50,92.50,0,0,0.1339,5
19:37:55.843,171737,15.18,2.30,11.41,0.5,83.50,92.50,0,0,0.1348,5
19:37:56.107,172001,15.18,2.30,11.41,0.5,83.50,92.50,0,0,0.1361,5
19:37:56.377,172271,15.18,2.30,11.41,0.5,83.50,92.50,0,0,0.1362,5
19:37:56.652,172546,15.18,2.30,11.41,0.5,83.50,92.50,0,0,0.1352,5
19:37:56.922,172816,15.18,2.30,11.41,0.5,83.50,92.50,0,0,0.1358,5
19:37:57.192,173086,15.18,2.30,11.41,0.5,83.50,92.50,0,0,0.1348,5
19:37:57.463,173357,15.18,2.30,11.41,0.5,83.50,92.50,0,0,0.1363,5
19:37:57.733,173627,15.18,2.30,11.41,0.5,83.50,92.50,0,0,0.1354,5
19:37:58.004,173898,15.18,2.30,11.41,0.5,83.50,92.50,0,0,0.1353,5
19:37:58.278,174172,15.18,2.30,11.41,0.5,83.50,92.50,0,0,0.1345,5
19:37:58.548,174442,15.18,2.30,11.41,0.5,83.50,92.50,0,1,0.1361,5
19:37:58.819,174713,15.18,2.30,11.41,0.5,83.50,92.50,0,0,0.1359,5
19:37:59.088,174982,15.18,2.30,11.41,0.5,83.50,92.50,0,0,0.1361,5
19:37:59.360,175254,15.18,2.30,11.41,0.5,83.50,92.50,0,0,0.1342,5
19:37:59.634,175528,15.18,2.30,11.41,0.5,83.50,92.50,0,0,0.1363,5
19:37:59.903,175797,15.18,2.30,11.41,0.5,83.50,92.50,0,0,0.1362,5
19:38:00.444,176338,15.18,2.30,11.41,0.5,83.50,92.50,0,0,0.1361,5
19:38:00.714,176608,15.18,2.30,11.41,0.5,83.50,92.50,0,0,0.1355,5
19:38:00.984,176878,15.18,2.30,11.41,0.5,83.50,92.50,0,0,0.1352,5
19:38:01.255,177149,15.18,2.30,11.41,0.5,83.50,92.50,0,0,0.1361,5
19:38:01.525,177419,15.18,2.30,11.41,0.5,83.50,92.50,0,0,0.1356,5
19:38:01.795,177689,15.18,2.30,11.41,0.5,83.50,92.50,0,0,0.1363,5
19:38:02.070,177964,15.18,2.30,11.41,0.5,83.50,92.50,0,0,0.1365,5
19:38:02.341,178235,15.18,2.30,11.41,0.5,83.50,92.50,0,0,0.1338,5
19:38:02.611,178505,15.18,2.30,11.41,0.5,83.50,92.50,0,0,0.1345,5
19:38:02.876,178770,15.18,2.30,11.41,0.5,83.50,92.50,0,0,0.1348,5
19:38:03.145,179039,15.18,2.30,11.41,0.5,83.50,92.50,0,0,0.1340,5
19:38:03.415,179309,15.18,2.30,11.41,0.5,83.50,92.50,0,0,0.1342,5
19:38:03.685,179579,15.18,2.30,11.41,0.5,83.50,92.50,0,0,0.1352,5
19:38:03.956,179850,15.18,2.30,11.41,0.5,83.50,92.50,0,0,0.1356,5
19:38:04.227,180121,15.18,2.30,11.41,0.5,83.50,92.50,0,0,0.1342,5
19:38:04.496,180390,15.18,2.30,11.41,0.5,83.50,92.50,0,0,0.1350,5
19:38:04.766,180660,15.18,2.30,11.41,0.5,83.50,92.50,0,0,0.1354,5
19:38:05.041,180935,15.18,2.30,11.41,0.5,83.50,92.50,0,1,0.1358,5
19:38:05.312,181206,15.18,2.30,11.41,0.5,83.50,92.50,0,0,0.1363,5
19:38:05.582,181476,15.18,2.30,11.41,0.5,83.50,92.50,0,0,0.1348,5
19:38:05.852,181746,15.18,2.30,11.41,0.5,83.50,92.50,0,0,0.1364,5
19:38:06.122,182016,15.18,2.30,11.41,0.5,83.50,92.50,0,0,0.1353,5
19:38:06.398,182292,15.18,2.30,11.41,0.5,83.50,92.50,0,0,0.1355,5
19:38:06.667,182561,15.18,2.30,11.41,0.5,83.50,92.50,1,0,0.1355,5
19:38:06.937,182831,15.18,2.30,11.41,0.5,83.50,92.50,0,0,0.1329,5
19:38:07.207,183101,15.18,2.30,11.41,0.5,83.50,92.50,0,0,0.1359,5
19:38:07.477,183371,15.18,2.30,11.41,0.5,83.50,92.50,0,0,0.1345,5
19:38:08.018,183912,15.18,2.30,11.41,0.5,83.50,92.50,0,0,0.1353,5
19:38:08.288,184182,15.18,2.30,11.41,0.5,83.50,92.50,0,0,0.1351,5
19:38:08.563,184457,15.18,2.30,11.41,0.5,83.50,92.50,0,0,0.1346,5
19:38:08.833,184727,15.18,2.30,11.41,0.5,83.50,92.50,0,0,0.1369,5
19:38:09.102,184996,15.18,2.30,11.41,0.5,83.50,92.50,0,0,0.1356,5
19:38:09.374,185268,15.18,2.30,11.41,0.5,83.50,92.50,0,0,0.1366,5
19:38:09.642,185536,15.18,2.30,11.41,0.5,83.50,92.50,0,0,0.1344,5
19:38:09.914,185808,15.18,2.30,11.41,0.5,83.50,92.50,0,0,0.1359,5
19:38:10.182,186076,15.18,2.30,11.41,0.5,83.50,92.50,0,0,0.1359,5
19:38:10.453,186347,15.18,2.30,11.41,0.5,83.50,92.50,0,0,0.1362,5
19:38:10.728,186622,15.18,2.30,11.41,0.5,83.50,92.50,0,0,0.1351,5
19:38:10.993,186887,15.18,2.30,11.41,0.5,83.50,92.50,0,0,0.1357,5
19:38:11.263,187157,15.18,2.30,11.41,0.5,83.50,92.50,0,0,0.1361,5
19:38:11.533,187427,15.18,2.30,11.41,0.5,83.50,92.50,0,0,0.1355,5
19:38:11.804,187698,15.18,2.30,11.41,0.5,83.50,92.50,0,0,0.1329,5
19:38:12.074,187968,15.18,2.30,11.41,0.5,83.50,92.50,0,0,0.1358,5
19:38:12.344,188238,15.18,2.30,11.41,0.5,83.50,92.50,0,0,0.1351,5
19:38:12.614,188508,15.18,2.30,11.41,0.5,83.50,92.50,0,0,0.1348,5
19:38:12.885,188779,15.18,2.30,11.41,0.5,83.50,92.50,0,0,0.1351,5
19:38:13.159,189053,15.18,2.30,11.41,0.5,83.50,92.50,0,0,0.1351,5
19:38:13.699,189593,15.18,2.30,11.41,0.5,83.50,92.50,0,0,0.1366,5
19:38:13.969,189864,15.18,2.30,11.41,0.5,83.50,92.50,0,0,0.1362,5
19:38:14.240,190134,15.18,2.30,11.41,0.5,83.50,92.50,0,0,0.1348,5
19:38:14.511,190405,15.18,2.30,11.41,0.5,83.50,92.50,0,0,0.1351,5
19:38:14.780,190674,15.17,2.34,11.35,0.5,83.50,92.50,0,0,0.1357,5
19:38:15.050,190944,15.16,2.35,11.35,0.5,83.50,92.50,0,0,0.1351,5
19:38:15.319,191213,15.19,2.34,11.32,0.5,83.50,92.50,0,1,0.1372,5
19:38:15.595,191489,15.19,2.32,11.31,0.5,83.50,92.50,0,0,0.1354,5
19:38:15.864,191758,15.19,2.32,11.31,0.5,83.50,92.50,0,0,0.1370,5
19:38:16.135,192029,15.16,2.28,11.32,0.5,83.50,92.50,0,0,0.1369,5
19:38:16.675,192569,15.19,2.25,11.32,0.5,83.50,92.50,0,0,0.1340,5
19:38:16.947,192841,15.18,2.22,11.31,0.5,83.50,92.50,0,0,0.1356,5
19:38:17.216,193110,15.18,2.23,11.29,0.5,83.50,92.50,0,0,0.1347,5
19:38:17.492,193386,15.22,2.26,11.26,0.5,83.50,92.50,0,0,0.1345,5
19:38:17.761,193655,15.23,2.32,11.20,0.5,83.50,92.50,0,0,0.1357,5
19:38:18.031,193925,15.23,2.32,11.20,0.5,83.50,92.50,0,0,0.1356,5
19:38:18.302,194196,15.24,2.30,11.20,0.5,83.50,92.50,0,0,0.1344,5
19:38:18.577,194471,15.25,2.36,11.17,0.5,83.50,92.50,0,0,0.1348,5
19:38:18.842,194736,15.26,2.39,11.16,0.5,83.50,92.50,0,0,0.1355,5
19:38:19.112,195006,15.29,2.38,11.16,0.5,83.50,92.50,0,0,0.1344,5
19:38:19.387,195281,15.29,2.38,11.16,0.5,83.50,92.50,0,0,0.1351,5
19:38:19.659,195553,15.29,2.38,11.16,0.5,83.50,92.50,0,0,0.1352,5
19:38:19.927,195821,15.29,2.38,11.16,0.5,83.50,92.50,0,0,0.1373,5
19:38:20.197,196091,15.29,2.38,11.16,0.5,83.50,92.50,0,0,0.1352,5
19:38:20.468,196362,15.29,2.38,11.16,0.5,83.50,92.50,0,0,0.1370,5
19:38:20.743,196637,15.29,2.38,11.16,0.5,83.50,92.50,0,0,0.1355,5
19:38:21.013,196907,15.29,2.38,11.16,0.5,83.50,92.50,1,0,0.1370,5
19:38:21.279,197173,15.29,2.38,11.16,0.5,83.50,92.50,0,0,0.1353,5
19:38:21.548,197442,15.29,2.38,11.16,0.5,83.50,92.50,0,0,0.1358,5
19:38:21.824,197718,15.29,2.38,11.16,0.5,83.50,92.50,0,0,0.1355,5
19:38:22.094,197988,15.29,2.38,11.16,0.5,83.50,92.50,0,0,0.1355,5
19:38:22.364,198258,15.29,2.38,11.16,0.5,83.50,92.50,0,0,0.1353,5
19:38:22.635,198529,15.29,2.38,11.16,0.5,83.50,92.50,0,0,0.1357,5
19:38:22.904,198798,15.29,2.38,11.16,0.5,83.50,92.50,0,0,0.1356,5
19:38:23.174,199068,15.29,2.38,11.16,0.5,83.50,92.50,0,0,0.1355,5
19:38:23.444,199338,15.29,2.38,11.16,0.5,83.50,92.50,0,0,0.1352,5
19:38:23.714,199608,15.29,2.38,11.16,0.5,83.50,92.50,0,0,0.1355,5
19:38:23.984,199878,15.29,2.38,11.16,0.5,83.50,92.50,0,0,0.1348,5
19:38:24.254,200148,15.29,2.38,11.16,0.5,83.50,92.50,0,0,0.1358,5
19:38:24.525,200419,15.29,2.38,11.16,0.5,83.50,92.50,0,0,0.1348,5
19:38:24.795,200689,15.29,2.38,11.16,0.5,83.50,92.50,0,0,0.1356,5
19:38:25.065,200959,15.29,2.38,11.16,0.5,83.50,92.50,0,0,0.1341,5
19:38:25.335,201229,15.29,2.38,11.16,0.5,83.50,92.50,0,0,0.1349,5
19:38:25.605,201499,15.29,2.38,11.16,0.5,83.50,92.50,0,0,0.1362,5
19:38:25.875,201769,15.29,2.38,11.16,0.5,83.50,92.50,0,0,0.1363,5
19:38:26.146,202040,15.29,2.38,11.16,0.5,83.50,92.50,0,0,0.1356,5
19:38:26.415,202309,15.29,2.38,11.16,0.5,83.50,92.50,1,0,0.1355,5
19:38:26.685,202579,15.29,2.38,11.16,0.5,83.50,92.50,0,0,0.1355,5
19:38:26.961,202855,15.29,2.38,11.16,0.5,83.50,92.50,0,0,0.1355,5
19:38:27.225,203119,15.29,2.38,11.16,0.5,83.50,92.50,0,0,0.1355,5
19:38:27.496,203390,15.29,2.38,11.16,0.5,83.50,92.50,0,0,0.1355,5
19:38:27.765,203659,15.29,2.38,11.16,0.5,83.50,92.50,0,0,0.1358,5
19:38:28.040,203934,15.29,2.38,11.16,0.5,83.50,92.50,0,0,0.1362,5
19:38:28.310,204204,15.29,2.38,11.16,0.5,83.50,92.50,0,0,0.1370,5
19:38:28.580,204474,15.29,2.38,11.16,0.5,83.50,92.50,0,0,0.1357,5
19:38:28.850,204744,15.29,2.38,11.16,0.5,83.50,92.50,0,0,0.1383,5
19:38:29.120,205014,15.29,2.38,11.16,0.5,83.50,92.50,0,0,0.1348,5
19:38:29.386,205280,15.29,2.38,11.16,0.5,83.50,92.50,0,0,0.1356,5
19:38:29.656,205550,15.29,2.38,11.16,0.5,83.50,92.50,0,0,0.1351,5
19:38:29.927,205821,15.29,2.38,11.16,0.5,83.50,92.50,0,0,0.1336,5
19:38:30.201,206095,15.29,2.38,11.16,0.5,83.50,92.50,0,0,0.1360,5
19:38:30.472,206366,15.29,2.38,11.16,0.5,83.50,92.50,1,0,0.1351,5
19:38:30.741,206635,15.29,2.38,11.16,0.5,83.50,92.50,0,0,0.1364,5
19:38:31.011,206905,15.29,2.38,11.16,0.5,83.50,92.50,0,0,0.1351,5
19:38:31.281,207175,15.29,2.40,11.18,0.5,83.50,92.50,0,0,0.1357,5
19:38:31.551,207445,15.29,2.40,11.21,0.5,83.50,92.50,0,0,0.1344,5
19:38:31.822,207716,15.31,2.42,11.18,0.5,83.50,92.50,0,0,0.1355,5
19:38:32.092,207986,15.28,2.43,11.24,0.5,83.50,92.50,0,0,0.1358,5
19:38:32.362,208256,15.29,2.41,11.21,0.5,83.50,92.50,0,0,0.1360,5
19:38:32.632,208526,15.31,2.39,11.22,0.5,83.50,92.50,0,0,0.1344,5
19:38:32.907,208801,15.31,2.39,11.22,0.5,83.50,92.50,0,0,0.1359,5
19:38:33.176,209070,15.31,2.39,11.22,0.5,83.50,92.50,0,0,0.1373,5
19:38:33.442,209336,15.31,2.39,11.22,0.5,83.50,92.50,0,0,0.1363,5
19:38:33.717,209611,15.31,2.39,11.22,0.5,83.50,92.50,0,0,0.1348,5
19:38:33.988,209882,15.31,2.39,11.22,0.5,83.50,92.50,0,0,0.1355,5
19:38:34.257,210151,15.31,2.39,11.22,0.5,83.50,92.50,0,0,0.1348,5
19:38:34.523,210417,15.34,2.40,11.22,0.5,83.50,92.50,0,0,0.1352,5
19:38:34.797,210691,15.31,2.41,11.13,0.5,83.50,92.50,0,0,0.1344,5
19:38:35.063,210957,15.31,2.41,11.16,0.5,83.50,92.50,0,0,0.1371,5
19:38:35.338,211232,15.31,2.39,11.16,0.5,83.50,92.50,0,0,0.1351,5
19:38:35.608,211502,15.31,2.39,11.13,0.5,83.50,92.50,0,0,0.1371,5
19:38:35.878,211772,15.31,2.39,11.13,0.5,83.50,92.50,0,0,0.1359,5
19:38:36.149,212043,15.31,2.39,11.13,0.5,83.50,92.50,0,0,0.1355,5
19:38:36.419,212313,15.31,2.39,11.13,0.5,83.50,92.50,0,0,0.1366,5
19:38:36.688,212582,15.31,2.39,11.13,0.5,83.50,92.50,0,0,0.1358,5
19:38:36.958,212852,15.31,2.39,11.13,0.5,83.50,92.50,0,0,0.1358,5
19:38:37.230,213124,15.31,2.39,11.13,0.5,83.50,92.50,0,0,0.1356,5
19:38:37.499,213393,15.33,2.42,11.10,0.5,83.50,92.50,0,0,0.1343,5
19:38:37.773,213667,15.30,2.43,11.07,0.5,83.50,92.50,0,0,0.1371,5
19:38:38.045,213939,15.29,2.41,11.05,0.5,83.50,92.50,0,0,0.1366,5
19:38:38.314,214208,15.29,2.41,11.05,0.5,83.50,92.50,0,0,0.1363,5
19:38:38.584,214478,15.28,2.41,11.07,0.5,83.50,92.50,0,0,0.1348,5
19:38:38.854,214748,15.28,2.41,11.07,0.5,83.50,92.50,0,0,0.1348,5
19:38:39.124,215018,15.28,2.41,11.04,0.5,83.50,92.50,1,0,0.1368,5
19:38:39.393,215287,15.28,2.41,11.01,0.5,83.50,92.50,0,0,0.1356,5
19:38:39.664,215558,15.28,2.41,11.01,0.5,83.50,92.50,0,0,0.1355,5
19:38:39.934,215828,15.27,2.37,11.04,0.5,83.50,92.50,0,0,0.1356,5
19:38:40.204,216098,15.28,2.34,11.04,0.5,83.50,92.50,0,0,0.1369,5
19:38:40.474,216368,15.28,2.34,11.04,0.5,83.50,92.50,0,0,0.1362,5
19:38:40.744,216638,15.28,2.34,11.04,0.5,83.50,92.50,0,0,0.1348,5
19:38:41.015,216909,15.28,2.34,11.04,0.5,83.50,92.50,0,0,0.1355,5
19:38:41.285,217179,15.28,2.34,11.04,0.5,83.50,92.50,0,0,0.1348,5
19:38:41.554,217448,15.28,2.34,11.04,0.5,83.50,92.50,0,0,0.1362,5
19:38:41.825,217719,15.28,2.34,11.04,0.5,83.50,92.50,0,0,0.1362,5
19:38:42.097,217991,15.28,2.34,11.04,0.5,83.50,92.50,0,0,0.1353,5
19:38:42.364,218258,15.28,2.34,11.04,0.5,83.50,92.50,0,0,0.1350,5
19:38:42.636,218530,15.28,2.34,11.04,0.5,83.50,92.50,0,0,0.1367,5
19:38:42.905,218799,15.28,2.34,11.04,0.5,83.50,92.50,0,0,0.1344,5
19:38:43.170,219064,15.28,2.34,11.04,0.5,83.50,92.50,0,0,0.1354,5
19:38:43.447,219341,15.28,2.34,11.04,0.5,83.50,92.50,0,0,0.1351,5
19:38:43.715,219609,15.28,2.34,11.04,0.5,83.50,92.50,0,0,0.1355,5
19:38:43.986,219880,15.28,2.34,11.04,0.5,83.50,92.50,0,0,0.1344,5
19:38:44.256,220150,15.28,2.34,11.04,0.5,83.50,92.50,0,0,0.1344,5
19:38:44.526,220420,15.29,2.37,11.01,0.5,83.50,92.50,0,0,0.1362,5
19:38:44.796,220690,15.24,2.31,11.01,0.5,83.50,92.50,0,0,0.1358,5
19:38:45.071,220965,15.21,2.32,11.01,0.5,83.50,92.50,0,0,0.1351,5
19:38:45.336,221230,15.24,2.28,11.01,0.5,83.50,92.50,0,0,0.1358,5
19:38:45.611,221505,15.24,2.27,11.01,0.5,83.50,92.50,0,0,0.1337,5
19:38:45.882,221776,15.27,2.26,11.04,0.5,83.50,92.50,0,0,0.1370,5
19:38:46.156,222050,15.28,2.24,11.07,0.5,83.50,92.50,0,0,0.1362,5
19:38:46.426,222320,15.27,2.23,11.04,0.5,83.50,92.50,0,0,0.1368,5
19:38:46.696,222590,15.29,2.21,11.05,0.5,83.50,92.50,0,0,0.1356,5
19:38:46.966,222860,15.28,2.20,11.07,0.5,83.50,92.50,0,0,0.1346,5
19:38:47.237,223131,15.28,2.20,11.07,0.5,83.50,92.50,0,0,0.1345,5
19:38:47.506,223400,15.28,2.20,11.07,0.5,83.50,92.50,0,0,0.1347,5
19:38:47.778,223672,15.28,2.20,11.07,0.5,83.50,92.50,0,0,0.1354,5
19:38:48.047,223941,15.28,2.20,11.07,0.5,83.50,92.50,0,0,0.1364,5
19:38:48.317,224211,15.28,2.20,11.07,0.5,83.50,92.50,0,0,0.1362,5
19:38:48.592,224486,15.28,2.20,11.07,0.5,83.50,92.50,0,0,0.1336,5
19:38:48.862,224756,15.28,2.20,11.07,0.5,83.50,92.50,0,0,0.1349,5
19:38:49.127,225021,15.28,2.20,11.07,0.5,83.50,92.50,0,0,0.1349,5
19:38:49.398,225292,15.28,2.20,11.07,0.5,83.50,92.50,0,0,0.1344,5
19:38:49.673,225567,15.28,2.20,11.07,0.5,83.50,92.50,0,0,0.1363,5
19:38:49.942,225836,15.28,2.20,11.07,0.5,83.50,92.50,0,1,0.1358,5
19:38:50.214,226108,15.28,2.20,11.07,0.5,83.50,92.50,0,0,0.1370,5
19:38:50.483,226377,15.28,2.20,11.07,0.5,83.50,92.50,0,0,0.1344,5
19:38:50.753,226647,15.28,2.20,11.07,0.5,83.50,92.50,0,0,0.1337,5
19:38:51.023,226917,15.28,2.20,11.07,0.5,83.50,92.50,0,0,0.1355,5
19:38:51.293,227187,15.28,2.20,11.07,0.5,83.50,92.50,0,0,0.1352,5
19:38:51.564,227458,15.28,2.20,11.07,0.5,83.50,92.50,0,0,0.1337,5
19:38:51.835,227729,15.29,2.23,11.08,0.5,83.50,92.50,0,0,0.1341,5
19:38:52.104,227998,15.31,2.24,11.08,0.5,83.50,92.50,0,0,0.1357,5
19:38:52.374,228268,15.30,2.22,11.05,0.5,83.50,92.50,0,0,0.1359,5
19:38:52.644,228538,15.30,2.19,11.04,0.5,83.50,92.50,0,0,0.1340,5
19:38:52.914,228808,15.29,2.16,11.08,0.5,83.50,92.50,0,0,0.1369,5
19:38:53.184,229078,15.27,2.14,11.10,0.5,83.50,92.50,1,0,0.1347,5
19:38:53.455,229349,15.27,2.14,11.07,0.5,83.50,92.50,0,0,0.1343,5
19:38:53.725,229619,15.27,2.14,11.07,0.5,83.50,92.50,0,0,0.1348,5
19:38:53.999,229893,15.31,2.16,11.07,0.5,83.50,92.50,0,0,0.1353,5
19:38:54.264,230158,15.37,2.15,11.04,0.5,83.50,92.50,0,0,0.1363,5
19:38:54.536,230430,15.41,2.14,11.04,0.5,83.50,92.50,0,0,0.1347,5
19:38:54.806,230700,15.39,2.11,11.00,0.5,83.50,92.50,0,0,0.1337,5
19:38:55.075,230969,15.37,2.10,10.98,0.5,83.50,92.50,0,0,0.1341,5
19:38:55.345,231239,15.37,2.09,10.92,0.5,83.50,92.50,0,0,0.1362,5
19:38:55.621,231515,15.37,2.09,10.89,0.5,83.50,92.50,0,0,0.1361,5
19:38:55.890,231784,15.37,2.09,10.89,0.5,83.50,92.50,0,0,0.1351,5
19:38:56.159,232053,15.37,2.09,10.91,0.5,83.50,92.50,0,0,0.1355,5
19:38:56.431,232325,15.37,2.09,10.88,0.5,83.50,92.50,0,0,0.1336,5
19:38:56.700,232594,15.37,2.09,10.85,0.5,83.50,92.50,0,0,0.1355,5
19:38:56.970,232864,15.35,2.08,10.88,0.5,83.50,92.50,0,0,0.1347,5
19:38:57.241,233135,15.36,2.06,10.83,0.5,83.50,92.50,0,0,0.1340,5
19:38:57.510,233404,15.36,2.04,10.82,0.5,83.50,92.50,0,0,0.1355,5
19:38:57.782,233676,15.36,2.04,10.82,0.5,83.50,92.50,0,0,0.1354,5
19:38:58.052,233946,15.36,2.04,10.82,0.5,83.50,92.50,0,0,0.1349,5
19:38:58.316,234210,15.36,2.04,10.82,0.5,83.50,92.50,0,0,0.1357,5
