Timestamp,ElapsedMillis,Yaw,Pitch,Roll,Altitude,YawServo,PitchServo
21:50:29.949,7556,0.23,1.35,2.32,0.0,-3.04,-5.19
21:50:29.950,7557,0.23,1.35,2.32,0.0,-3.04,-5.19
21:50:29.951,7558,0.23,1.35,2.32,0.0,-3.04,-5.19
21:50:29.951,7558,0.23,1.35,2.32,0.0,-3.04,-5.19
21:50:29.952,7559,0.29,1.39,2.36,0.0,-3.14,-5.28
21:50:30.009,7616,0.29,1.39,2.36,0.0,-3.14,-5.28
21:50:30.064,7671,0.29,1.39,2.36,0.0,-3.14,-5.28
21:50:30.124,7731,0.29,1.39,2.36,0.0,-3.14,-5.28
21:50:30.239,7846,0.29,1.40,2.31,0.0,-3.26,-4.92
21:50:30.349,7956,0.28,1.42,2.34,0.0,-3.20,-5.03
21:50:30.409,8016,0.28,1.43,2.34,0.0,-3.39,-5.24
21:50:30.464,8071,0.29,1.43,2.34,0.0,-3.23,-5.24
21:50:30.524,8131,0.28,1.43,2.34,0.0,-3.28,-5.24
21:50:30.634,8241,0.28,1.43,2.33,0.0,-3.23,-5.07
21:50:30.695,8302,0.28,1.43,2.33,0.0,-3.29,-5.22
21:50:30.751,8358,0.28,1.43,2.33,0.0,-3.12,-5.21
21:50:30.809,8416,0.28,1.43,2.32,0.0,-3.28,-5.26
21:50:30.925,8532,0.29,1.43,2.33,0.0,-3.22,-5.16
21:50:31.035,8642,0.28,1.43,2.33,0.0,-3.22,-5.28
21:50:31.095,8702,0.29,1.43,2.34,0.0,-3.22,-5.23
21:50:31.149,8756,0.29,1.43,2.33,0.0,-3.22,-5.18
21:50:31.209,8817,0.29,1.43,2.33,0.0,-3.22,-5.23
21:50:31.320,8927,0.29,1.43,2.34,0.0,-3.22,-5.19
21:50:31.380,8988,0.28,1.43,2.33,0.0,-3.17,-5.23
21:50:31.435,9042,0.28,1.44,2.34,0.0,-3.29,-5.30
21:50:31.495,9102,0.28,1.44,2.34,0.0,-3.24,-5.31
21:50:31.610,9217,0.28,1.43,2.35,0.0,-3.23,-5.26
21:50:31.720,9327,0.28,1.42,2.34,0.0,-3.16,-5.30
21:50:31.780,9387,0.28,1.42,2.35,0.0,-3.20,-5.26
21:50:31.836,9443,0.28,1.42,2.35,0.0,-3.15,-5.31
21:50:31.896,9503,0.29,1.41,2.35,0.0,-3.24,-5.27
21:50:32.006,9613,0.28,1.42,2.35,0.0,-3.19,-5.28
21:50:32.065,9672,0.28,1.42,2.35,0.0,-3.20,-5.27
21:50:32.121,9728,0.28,1.42,2.35,0.0,-3.19,-5.27
21:50:32.181,9788,0.28,1.42,2.35,0.0,-3.19,-5.27
21:50:32.295,9902,0.28,1.42,2.35,0.0,-3.19,-5.27
21:50:32.405,10012,0.28,1.42,2.35,0.0,-3.19,-5.27
21:50:32.466,10073,0.28,1.42,2.35,0.0,-3.19,-5.27
21:50:32.521,10128,0.28,1.42,2.35,0.0,-3.19,-5.27
21:50:32.581,10188,0.28,1.41,2.38,0.0,-3.13,-5.60
21:50:32.692,10299,0.29,1.36,2.37,0.0,-2.80,-5.27
21:50:32.751,10358,0.29,1.33,2.37,0.0,-2.79,-5.14
21:50:32.807,10414,0.29,1.33,2.37,0.0,-3.22,-5.41
21:50:32.867,10474,0.30,1.34,2.38,0.0,-2.96,-5.23
21:50:32.982,10589,0.30,1.33,2.38,0.0,-3.00,-5.38
21:50:33.092,10699,0.31,1.31,2.37,0.0,-2.91,-5.37
21:50:33.152,10759,0.30,1.31,2.37,0.0,-2.91,-5.32
21:50:33.207,10814,0.29,1.54,2.51,0.0,-4.42,-5.77
21:50:33.266,10873,0.94,1.30,2.42,0.0,-6.48,-6.10
21:50:33.377,10984,1.43,3.42,2.26,0.0,-24.34,-1.88
21:50:33.437,11045,2.18,6.86,2.32,0.0,-26.40,-5.75
21:50:33.492,11099,2.86,11.68,2.61,0.0,-26.40,-5.60
21:50:33.552,11159,2.98,17.79,2.80,0.0,-26.40,-4.23
21:50:33.667,11274,2.72,29.47,2.91,0.0,-26.40,0.93
21:50:33.777,11384,1.50,35.43,1.96,0.0,-26.40,-1.54
21:50:33.838,11445,1.13,37.12,2.02,0.0,-26.40,-4.50
21:50:33.893,11500,1.11,38.41,2.09,0.0,-26.40,-3.41
21:50:33.952,11559,0.86,39.31,2.04,0.0,-26.40,-3.19
21:50:34.063,11670,0.50,37.51,1.86,0.0,-26.40,-3.34
21:50:34.123,11730,0.19,36.44,1.93,0.0,-26.40,-4.56
21:50:34.178,11785,-0.68,32.48,1.26,0.0,-13.75,5.24
21:50:34.238,11845,-1.85,24.85,0.34,0.0,0.22,3.37
21:50:34.354,11961,-3.53,14.86,0.11,0.0,3.86,-1.11
21:50:34.464,12071,-4.99,5.82,0.63,0.0,22.91,-1.14
21:50:34.523,12130,-5.63,1.47,0.93,0.0,26.40,-1.41
21:50:34.578,12185,-5.93,-0.92,1.27,0.0,15.97,-3.59
21:50:34.638,12245,-6.47,-2.30,1.50,0.0,14.72,-3.54
21:50:34.749,12356,-6.62,-3.03,1.67,0.0,4.58,-3.83
21:50:34.809,12416,-6.78,-3.06,1.69,0.0,9.13,-3.06
21:50:34.864,12471,-6.97,-3.33,1.68,0.0,9.74,-2.99
21:50:34.924,12531,-7.25,-3.29,1.98,0.0,8.33,-6.93
21:50:35.039,12646,-9.67,-3.27,7.68,0.0,9.58,-26.40
21:50:35.149,12756,-13.24,-2.80,18.10,0.0,17.15,-26.40
21:50:35.209,12816,-15.16,-1.67,23.40,0.0,8.61,-26.40
21:50:35.264,12871,-16.49,-0.61,26.40,0.0,8.49,-26.40
21:50:35.324,12931,-17.62,-0.82,28.36,0.0,16.53,-26.40
21:50:35.434,13041,-18.86,-1.01,29.58,0.0,13.50,-26.40
21:50:35.495,13102,-19.00,-0.97,29.82,0.0,13.68,-26.40
21:50:35.549,13156,-18.66,-1.23,28.72,0.0,11.13,-26.40
21:50:35.610,13217,-17.90,-1.90,26.81,0.0,12.63,-26.40
21:50:35.724,13332,-16.20,-2.72,17.27,0.0,-3.81,11.21
21:50:35.835,13442,-12.85,-0.35,4.40,0.0,-26.06,26.40
21:50:35.894,13501,-12.16,2.25,-0.64,0.0,-26.40,26.40
21:50:35.950,13557,-10.90,3.82,-2.86,0.0,-20.95,9.54
21:50:36.010,13617,-10.97,3.51,-2.11,0.0,6.41,-3.89
21:50:36.120,13727,-11.36,0.35,0.84,0.0,12.90,-6.91
21:50:36.180,13787,-10.79,-0.79,1.74,0.0,12.66,-7.73
21:50:36.235,13842,-9.50,-1.93,2.70,0.0,14.51,-14.32
21:50:36.295,13902,-8.33,-3.09,3.91,0.0,22.05,-13.83
21:50:36.410,14018,-4.26,-5.02,4.76,0.0,10.16,-9.30
21:50:36.520,14127,0.10,-4.28,4.49,0.0,8.28,-9.56
21:50:36.581,14188,1.82,-4.41,4.01,0.0,12.97,-1.82
21:50:36.636,14243,3.81,-4.90,2.66,0.0,18.33,12.07
21:50:36.696,14303,6.34,-3.31,1.37,0.0,-23.58,1.94
21:50:36.805,14412,10.48,-0.60,0.50,0.0,2.87,10.98
21:50:36.867,14474,11.13,-1.48,-1.05,0.0,16.28,13.99
21:50:36.921,14528,11.32,-2.23,-2.97,0.0,14.82,16.11
21:50:36.981,14588,9.92,-4.62,-3.18,0.0,26.40,-1.54
21:50:37.096,14703,6.65,-10.03,-2.52,0.0,26.40,0.20
21:50:37.206,14813,-0.36,-14.41,-1.82,0.0,26.40,1.95
21:50:37.267,14874,-2.46,-16.71,-1.65,0.0,26.40,3.52
21:50:37.321,14929,-4.82,-18.17,-1.35,0.0,26.40,3.49
21:50:37.437,15044,-11.36,-25.31,0.60,0.0,26.40,0.32
21:50:37.492,15099,-13.88,-30.55,3.65,0.0,26.40,-21.05
21:50:37.552,15159,-14.56,-34.50,7.88,0.0,26.40,-24.27
21:50:37.606,15213,-15.73,-37.71,11.16,0.0,26.40,-19.24
21:50:37.667,15274,-13.67,-40.13,13.48,0.0,26.40,-26.40
21:50:37.783,15390,-8.90,-45.50,17.26,0.0,26.40,-26.23
21:50:37.892,15499,-9.65,-49.05,18.15,0.0,26.40,-26.40
21:50:37.952,15559,-11.80,-51.10,20.41,0.0,26.40,-26.40
21:50:38.007,15614,-15.17,-53.85,24.34,0.0,26.40,-26.40
21:50:38.067,15674,-17.84,-56.69,27.70,0.0,26.40,-26.40
21:50:38.177,15784,-19.56,-59.96,28.44,0.0,26.40,-26.40
21:50:38.238,15845,-25.51,-59.84,33.51,0.0,26.40,-26.40
21:50:38.293,15900,-35.09,-56.17,42.55,0.0,26.40,-26.40
21:50:38.353,15960,-44.22,-49.42,52.07,0.0,26.40,-26.40
21:50:38.468,16075,-57.52,-31.47,66.14,0.0,26.40,-26.40
21:50:38.578,16185,-64.51,-20.60,74.06,0.0,26.40,-26.40
21:50:38.638,16245,-65.00,-19.60,74.44,0.0,26.40,-26.40
21:50:38.693,16300,-64.99,-19.91,73.87,0.0,26.40,-26.40
21:50:38.753,16360,-65.04,-20.31,73.14,0.0,26.40,-26.40
21:50:38.863,16470,-64.11,-19.61,72.78,0.0,26.40,-26.40
21:50:38.923,16530,-61.67,-21.12,71.67,0.0,26.40,-26.40
21:50:38.978,16585,-56.01,-24.60,69.17,0.0,26.40,-26.40
21:50:39.038,16645,-48.84,-30.38,65.67,0.0,26.40,-26.40
21:50:39.153,16760,-25.20,-42.34,51.99,0.0,26.40,-16.46
21:50:39.263,16870,7.43,-52.73,27.68,0.0,26.40,2.14
21:50:39.324,16931,25.58,-54.42,13.85,0.0,26.40,-2.01
21:50:39.378,16985,42.40,-54.29,2.00,0.0,26.40,5.65
21:50:39.438,17045,54.93,-51.38,-8.25,0.0,26.40,19.09
21:50:39.549,17156,71.59,-39.12,-23.61,0.0,26.40,26.40
21:50:39.609,17216,73.30,-32.08,-29.41,0.0,26.40,26.40
21:50:39.665,17272,69.24,-24.69,-31.52,0.0,26.40,26.40
21:50:39.724,17331,62.28,-18.72,-31.29,0.0,26.40,26.40
21:50:39.839,17446,43.39,-11.99,-27.11,0.0,20.13,26.40
21:50:39.949,17556,22.60,-14.07,-18.67,0.0,26.40,-7.70
21:50:40.010,17617,14.01,-14.79,-13.15,0.0,26.40,-21.44
21:50:40.064,17671,5.64,-14.58,-7.33,0.0,25.33,-22.57
21:50:40.124,17731,-2.40,-13.90,-2.92,0.0,26.40,-22.04
21:50:40.235,17842,-12.98,-13.10,4.18,0.0,26.40,-26.40
21:50:40.295,17902,-13.44,-10.91,7.08,0.0,4.90,-26.40
21:50:40.350,17957,-10.46,-7.53,9.85,0.0,-3.68,-26.40
21:50:40.410,18017,-6.80,-4.47,12.59,0.0,-10.83,-26.40
21:50:40.525,18132,1.56,3.80,16.02,0.0,-26.40,-26.40
21:50:40.635,18242,4.53,8.35,15.87,0.0,-26.40,-26.12
21:50:40.695,18302,3.65,7.83,14.21,0.0,3.90,-11.35
21:50:40.750,18357,1.24,3.83,11.33,0.0,26.40,-0.45
21:50:40.810,18417,-1.11,-1.20,8.31,0.0,26.40,11.59
21:50:40.921,18528,-5.55,-13.01,1.74,0.0,26.40,20.50
21:50:40.981,18588,-6.67,-18.32,-0.86,0.0,26.40,26.40
21:50:41.036,18643,-6.42,-22.60,-2.42,0.0,26.40,19.67
21:50:41.096,18703,-6.34,-25.77,-3.49,0.0,26.40,22.06
21:50:41.211,18818,-6.17,-31.11,-4.41,0.0,26.40,17.77
21:50:41.321,18928,-5.01,-36.97,-3.99,0.0,26.40,14.14
21:50:41.381,18988,-4.27,-40.75,-3.48,0.0,26.40,11.70
21:50:41.436,19043,-3.43,-45.05,-3.76,0.0,26.40,16.11
21:50:41.496,19103,-2.16,-49.68,-4.47,0.0,26.40,17.78
21:50:41.606,19213,1.39,-56.67,-7.25,0.0,26.40,17.63
21:50:41.667,19274,2.55,-58.25,-8.06,0.0,26.40,14.75
21:50:41.722,19329,3.71,-58.48,-8.16,0.0,26.40,9.80
21:50:41.782,19389,5.69,-56.33,-6.75,0.0,26.40,-5.74
21:50:41.896,19503,5.25,-38.32,1.63,0.0,-2.20,-26.40
21:50:42.006,19613,7.67,-18.33,8.57,0.0,-26.40,-26.40
21:50:42.067,19674,8.22,-9.70,10.69,0.0,-26.40,-26.37
21:50:42.122,19729,8.35,-2.29,11.85,0.0,-26.40,-25.75
21:50:42.182,19789,8.71,1.45,12.10,0.0,-26.40,-23.95
21:50:42.292,19899,7.97,5.08,11.91,0.0,-4.79,-20.69
21:50:42.352,19959,5.87,3.02,11.01,0.0,23.03,-16.18
21:50:42.407,20014,3.18,-1.76,8.72,0.0,26.40,-0.46
21:50:42.468,20075,1.03,-8.25,5.75,0.0,26.40,13.01
21:50:42.582,20189,1.38,-25.29,-1.07,0.0,26.40,25.80
21:50:42.692,20299,6.72,-43.33,-8.20,0.0,26.40,26.40
21:50:42.752,20359,8.31,-47.35,-10.92,0.0,26.40,26.13
21:50:42.808,20415,9.44,-49.35,-12.38,0.0,26.40,16.02
21:50:42.868,20475,9.34,-47.67,-11.50,0.0,26.40,9.92
21:50:42.978,20585,6.69,-31.20,-4.84,0.0,-18.56,-9.92
21:50:43.038,20645,6.39,-20.74,-1.28,0.0,-26.40,-16.09
21:50:43.093,20700,6.68,-9.61,1.50,0.0,-26.40,-12.29
21:50:43.153,20760,6.88,0.31,3.35,0.0,-26.40,-12.04
21:50:43.268,20875,7.53,13.80,6.18,0.0,-26.40,-15.61
21:50:43.378,20985,7.66,15.17,7.42,0.0,-25.95,-17.99
21:50:43.438,21045,7.60,13.83,9.17,0.0,-23.83,-26.40
21:50:43.493,21100,7.69,11.45,15.20,0.0,-14.84,-26.40
21:50:43.554,21161,8.53,7.58,26.65,0.0,6.19,-26.40
21:50:43.664,21271,7.71,-0.96,47.65,0.0,17.12,-26.40
21:50:43.723,21330,6.32,-4.21,53.26,0.0,13.67,-26.40
21:50:43.779,21386,5.92,-5.46,53.54,0.0,15.58,-26.40
21:50:43.839,21446,6.32,-6.18,48.99,0.0,15.43,-26.40
21:50:43.954,21561,8.72,-4.55,28.99,0.0,3.80,26.40
21:50:44.064,21671,10.92,0.02,5.75,0.0,-2.28,26.40
21:50:44.124,21731,11.86,1.63,-3.26,0.0,-2.47,26.40
21:50:44.179,21786,12.24,3.05,-9.87,0.0,-4.47,26.40
21:50:44.239,21846,12.31,3.87,-12.95,0.0,-10.75,23.53
21:50:44.349,21956,10.18,4.81,-4.74,0.0,-16.49,-26.40
21:50:44.409,22016,8.89,4.28,2.01,0.0,-15.08,-26.40
21:50:44.465,22072,8.11,2.54,11.00,0.0,-3.36,-26.40
21:50:44.525,22132,7.46,0.25,19.55,0.0,5.93,-26.40
21:50:44.639,22246,6.26,-3.12,36.08,0.0,0.82,-26.40
21:50:44.750,22357,5.13,-2.95,48.32,0.0,-9.78,-26.40
21:50:44.809,22416,4.84,-2.14,51.79,0.0,-2.85,-26.40
21:50:44.865,22472,4.98,-2.42,54.70,0.0,-0.73,-26.40
21:50:44.925,22532,5.07,-2.58,56.44,0.0,3.24,-26.40
21:50:45.035,22642,4.91,-4.01,57.94,0.0,9.80,-26.40
21:50:45.095,22702,4.68,-4.75,57.17,0.0,11.45,-26.40
21:50:45.150,22757,4.31,-5.60,56.02,0.0,14.97,-26.40
21:50:45.210,22817,4.35,-6.56,55.03,0.0,16.98,-26.40
21:50:45.325,22933,4.70,-6.91,52.37,0.0,9.58,-26.40
21:50:45.435,23042,6.92,-6.00,38.14,0.0,10.44,-15.74
21:50:45.496,23103,8.83,-4.68,27.56,0.0,2.92,26.40
21:50:45.551,23158,10.39,-2.48,15.98,0.0,2.94,26.40
21:50:45.611,23218,11.66,-0.75,4.81,0.0,6.32,26.40
21:50:45.722,23329,13.03,2.09,-14.12,0.0,3.96,26.40
21:50:45.781,23388,13.16,3.51,-22.87,0.0,1.23,26.40
21:50:45.835,23442,13.19,5.00,-29.74,0.0,-3.25,26.40
21:50:45.896,23503,13.04,5.88,-34.52,0.0,-2.66,26.40
21:50:46.012,23619,12.18,7.18,-39.93,0.0,-8.33,26.40
21:50:46.121,23728,12.25,5.91,-32.86,0.0,-3.41,0.47
21:50:46.182,23789,11.77,3.74,-23.64,0.0,0.50,-26.40
21:50:46.236,23843,11.10,0.95,-11.19,0.0,1.85,-26.40
21:50:46.297,23904,10.21,-2.29,2.83,0.0,10.94,-26.40
21:50:46.407,24014,8.03,-4.55,23.75,0.0,-4.65,-26.40
21:50:46.467,24074,7.62,-2.98,28.28,0.0,-23.51,-26.40
21:50:46.521,24129,7.38,-0.17,29.25,0.0,-25.52,-26.40
21:50:46.582,24189,6.96,0.71,28.16,0.0,9.67,-26.40
21:50:46.696,24303,5.10,-10.76,16.75,0.0,26.40,16.36
21:50:46.807,24414,6.88,-38.33,3.16,0.0,26.40,15.54
21:50:46.867,24474,13.29,-51.76,-2.68,0.0,26.40,0.02
21:50:46.922,24529,19.00,-60.59,-7.65,0.0,26.40,-6.39
21:50:46.982,24589,26.69,-67.22,-14.96,0.0,26.40,0.45
21:50:47.092,24699,31.51,-66.34,-18.99,0.0,26.40,9.77
21:50:47.152,24759,28.20,-60.60,-15.72,0.0,26.40,11.40
21:50:47.208,24815,23.67,-51.02,-9.34,0.0,26.40,3.56
21:50:47.268,24875,20.73,-40.12,-4.42,0.0,-17.61,0.51
21:50:47.382,24990,17.15,-15.99,4.24,0.0,-26.40,-15.17
21:50:47.492,25099,16.13,-1.71,8.80,0.0,-26.40,-18.66
21:50:47.552,25159,15.75,2.29,9.53,0.0,-26.40,-18.04
21:50:47.608,25215,14.56,4.02,9.64,0.0,-20.08,-16.71
21:50:47.668,25275,13.03,3.43,8.24,0.0,11.77,-2.15
21:50:47.779,25386,9.98,-4.06,1.47,0.0,26.40,20.80
21:50:47.838,25445,9.44,-10.97,-2.09,0.0,26.40,12.86
21:50:47.893,25500,9.34,-18.68,-4.12,0.0,26.40,3.42
21:50:47.953,25560,9.93,-25.57,-4.87,0.0,26.40,-0.32
21:50:48.123,25730,10.44,-21.50,1.25,0.0,-26.40,-26.40
21:50:48.179,25786,10.35,-12.25,5.68,0.0,-26.40,-26.40
21:50:48.238,25845,11.18,-2.63,9.05,0.0,-26.40,-25.62
21:50:48.294,25901,12.36,4.95,11.12,0.0,-26.40,-26.20
21:50:48.354,25961,13.25,9.52,12.43,0.0,-26.40,-25.96
21:50:48.464,26071,12.96,11.60,12.18,0.0,-26.40,-12.15
21:50:48.524,26131,12.26,11.43,10.72,0.0,-18.65,-12.47
21:50:48.579,26186,11.98,10.63,9.59,0.0,-18.11,-11.53
21:50:48.640,26247,11.02,9.65,8.55,0.0,-9.81,-15.48
21:50:48.754,26361,9.40,5.39,8.65,0.0,6.78,-25.86
21:50:48.865,26472,8.04,1.35,9.85,0.0,7.57,-26.40
21:50:48.924,26531,7.94,0.75,11.36,0.0,-6.18,-26.40
21:50:48.980,26587,7.90,1.40,13.45,0.0,-11.19,-26.40
21:50:49.040,26647,7.70,1.69,14.83,0.0,-10.04,-26.40
21:50:49.150,26757,5.52,2.74,13.75,0.0,-8.52,-22.29
21:50:49.210,26817,4.66,2.84,12.95,0.0,-7.93,-22.72
21:50:49.264,26871,4.10,2.94,13.61,0.0,-6.64,-26.40
21:50:49.325,26932,3.70,2.77,13.66,0.0,-5.96,-26.40
21:50:49.439,27046,3.40,1.73,11.96,0.0,3.77,-16.55
21:50:49.550,27157,3.35,-0.22,9.95,0.0,4.53,-17.47
21:50:49.610,27217,3.34,0.17,9.73,0.0,-12.66,-24.22
21:50:49.665,27272,3.37,1.70,10.42,0.0,-19.51,-26.40
21:50:49.725,27332,3.56,3.47,10.98,0.0,-23.54,-26.40
21:50:49.836,27443,4.20,6.74,11.19,0.0,-26.40,-24.47
21:50:49.895,27502,4.54,8.41,11.32,0.0,-26.40,-24.54
21:50:49.951,27558,4.87,8.54,11.29,0.0,-21.91,-24.39
21:50:50.011,27618,5.42,8.88,11.27,0.0,-23.93,-23.69
21:50:50.126,27733,6.24,9.64,11.16,0.0,-26.37,-23.61
21:50:50.236,27843,8.28,13.54,16.41,0.0,-26.40,-26.40
21:50:50.296,27903,9.72,16.86,19.96,0.0,-26.40,-26.40
21:50:50.350,27957,10.83,21.63,21.21,0.0,-26.40,-26.40
21:50:50.411,28018,11.90,25.93,21.98,0.0,-26.40,-26.40
21:50:50.521,28128,12.75,28.50,21.86,0.0,-26.40,-26.40
21:50:50.581,28188,11.87,23.85,19.34,0.0,-9.74,-25.93
21:50:50.636,28243,11.34,16.04,16.25,0.0,26.40,-23.31
21:50:50.697,28304,11.62,5.81,13.30,0.0,26.40,-22.86
21:50:50.812,28419,13.16,-10.98,10.01,0.0,26.40,-26.40
21:50:50.922,28529,13.31,-12.04,10.25,0.0,-8.20,-23.07
21:50:50.982,28589,12.55,-7.07,10.84,0.0,-26.40,-20.46
21:50:51.037,28644,11.48,0.12,12.03,0.0,-26.40,-26.32
21:50:51.097,28704,10.68,7.00,13.46,0.0,-26.40,-26.40
21:50:51.207,28814,9.89,19.20,15.71,0.0,-26.40,-26.40
21:50:51.267,28874,10.12,22.42,16.47,0.0,-26.40,-26.40
21:50:51.322,28929,10.19,20.00,15.72,0.0,-12.85,-26.40
21:50:51.382,28989,10.55,13.36,14.35,0.0,26.40,-26.40
21:50:51.498,29105,11.49,-1.96,11.61,0.0,26.40,-26.40
21:50:51.608,29215,11.86,-5.83,11.29,0.0,-2.21,-26.40
21:50:51.667,29274,11.80,-4.11,11.70,0.0,-10.44,-26.40
21:50:51.723,29330,11.89,-2.18,12.10,0.0,-11.83,-26.40
21:50:51.783,29390,11.89,-1.09,12.23,0.0,-7.68,-25.97
21:50:51.893,29500,11.61,-1.21,12.01,0.0,3.49,-24.84
21:50:51.952,29559,10.92,-1.53,11.81,0.0,4.14,-26.40
21:50:52.007,29614,10.48,-1.81,11.82,0.0,1.39,-25.95
21:50:52.068,29675,10.52,-1.54,11.51,0.0,-0.94,-22.74
21:50:52.183,29790,12.27,2.32,10.38,0.0,-26.40,-2.60
21:50:52.293,29900,12.43,11.22,7.14,0.0,-26.40,2.52
21:50:52.353,29960,11.91,13.77,5.95,0.0,-26.40,4.14
21:50:52.408,30015,11.47,15.31,5.53,0.0,-26.40,-6.30
21:50:52.468,30075,10.98,15.96,6.26,0.0,-26.40,-16.85
21:50:52.578,30185,11.07,14.62,7.19,0.0,-23.20,-15.77
21:50:52.639,30246,11.38,13.26,7.25,0.0,-19.92,-15.72
21:50:52.694,30301,11.31,12.54,7.41,0.0,-25.30,-19.37
21:50:52.754,30361,11.30,12.13,8.16,0.0,-26.40,-23.20
21:50:52.868,30475,10.22,11.54,10.44,0.0,-26.40,-23.79
21:50:52.979,30586,6.22,6.37,5.97,0.0,12.11,12.28
21:50:53.039,30646,5.94,6.23,5.91,0.0,-14.62,-12.34
21:50:53.094,30701,6.30,6.25,5.92,0.0,-14.76,-12.38
21:50:53.154,30761,7.50,6.32,5.98,0.0,-15.38,-12.54
21:50:53.264,30871,7.63,6.29,5.95,0.0,-14.06,-12.09
21:50:53.324,30931,7.64,6.35,6.00,0.0,-14.04,-11.89
21:50:53.379,30986,7.64,6.36,6.00,0.0,-15.22,-12.47
21:50:53.439,31046,7.63,6.36,5.99,0.0,-15.37,-12.66
21:50:53.554,31161,7.64,6.35,5.97,0.0,-15.24,-12.36
21:50:53.665,31272,7.63,6.36,5.97,0.0,-15.01,-12.45
21:50:53.724,31332,7.64,6.36,5.97,0.0,-15.22,-12.45
21:50:53.780,31387,7.64,6.37,5.98,0.0,-15.12,-12.46
21:50:53.840,31447,7.64,6.37,5.97,0.0,-15.13,-12.35
21:50:53.950,31557,7.65,6.36,5.97,0.0,-15.06,-12.35
21:50:54.010,31617,7.66,6.36,5.98,0.0,-15.07,-12.47
21:50:54.065,31672,7.64,6.37,5.98,0.0,-15.34,-12.48
21:50:54.125,31732,7.63,6.37,5.99,0.0,-15.07,-12.49
21:50:54.240,31847,7.63,6.37,5.99,0.0,-15.13,-12.38
21:50:54.350,31957,7.64,6.37,5.99,0.0,-15.13,-12.38
21:50:54.410,32017,7.67,6.36,5.99,0.0,-14.86,-12.86
21:50:54.465,32072,9.81,6.34,6.20,0.0,-15.02,-12.73
21:50:54.526,32133,11.91,6.36,6.13,0.0,-14.23,-11.86
21:50:54.635,32242,12.90,6.30,6.10,0.0,-15.50,-12.00
21:50:54.696,32303,12.86,6.30,6.11,0.0,-15.83,-12.12
21:50:54.750,32357,12.69,6.33,6.13,0.0,-15.88,-12.18
21:50:54.811,32418,12.67,6.33,6.13,0.0,-15.67,-12.13
21:50:54.926,32533,12.66,6.33,6.13,0.0,-15.66,-12.09
21:50:55.036,32643,12.67,6.33,6.13,0.0,-15.61,-12.08
21:50:55.096,32703,12.66,6.33,6.13,0.0,-15.56,-12.08
21:50:55.152,32759,12.65,6.33,6.13,0.0,-15.66,-12.08
21:50:55.212,32819,12.65,6.33,6.13,0.0,-15.66,-12.08
21:50:55.321,32928,12.65,6.34,6.13,0.0,-15.67,-12.02
21:50:55.382,32989,12.66,6.33,6.13,0.0,-15.61,-12.08
21:50:55.437,33044,12.66,6.33,6.13,0.0,-15.62,-12.14
21:50:55.497,33104,12.66,6.33,6.13,0.0,-15.62,-12.15
21:50:55.612,33219,12.67,6.33,6.14,0.0,-15.56,-12.15
21:50:55.721,33328,12.67,6.33,6.14,0.0,-15.61,-12.16
21:50:55.783,33390,12.66,6.33,6.14,0.0,-15.62,-12.17
21:50:55.837,33444,12.65,6.33,6.14,0.0,-15.56,-12.11
21:50:55.897,33504,12.65,6.33,6.14,0.0,-15.61,-12.10
21:50:56.008,33615,12.65,6.33,6.13,0.0,-15.62,-12.05
21:50:56.067,33674,12.64,6.33,6.14,0.0,-15.62,-12.10
21:50:56.123,33730,12.65,6.33,6.14,0.0,-15.62,-12.11
21:50:56.182,33789,12.65,6.33,6.14,0.0,-15.62,-12.17
21:50:56.297,33905,12.66,6.34,6.14,0.0,-15.63,-12.06
21:50:56.408,34015,12.66,6.33,6.14,0.0,-15.62,-12.16
21:50:56.468,34075,12.66,6.33,6.14,0.0,-15.62,-12.05
21:50:56.523,34130,12.66,6.34,6.14,0.0,-15.68,-12.10
21:50:56.582,34190,12.66,6.34,6.14,0.0,-15.68,-12.22
21:50:56.693,34301,12.66,6.34,6.15,0.0,-15.59,-12.17
21:50:56.753,34360,12.68,6.34,6.15,0.0,-15.58,-12.12
21:50:56.808,34415,12.68,6.33,6.15,0.0,-15.57,-12.18
21:50:56.868,34475,12.69,6.33,6.16,0.0,-15.57,-12.19
21:50:56.983,34590,12.70,6.32,6.16,0.0,-15.66,-12.21
21:50:57.093,34700,12.71,6.32,6.19,0.0,-15.66,-12.32
21:50:57.154,34761,12.71,6.31,6.20,0.0,-15.59,-12.39
21:50:57.209,34816,12.71,6.32,6.21,0.0,-15.71,-12.41
21:50:57.268,34875,12.72,6.32,6.22,0.0,-15.61,-12.34
21:50:57.378,34985,12.72,6.31,6.24,0.0,-15.61,-12.33
21:50:57.439,35046,12.72,6.31,6.24,0.0,-15.61,-12.33
21:50:57.494,35101,12.72,6.31,6.24,0.0,-15.66,-12.33
21:50:57.554,35161,12.73,6.31,6.24,0.0,-15.72,-12.39
21:50:57.669,35276,12.72,6.30,6.25,0.0,-15.59,-12.36
21:50:57.779,35386,12.74,6.30,6.26,0.0,-15.59,-12.36
21:50:57.839,35446,12.74,6.30,6.26,0.0,-15.59,-12.37
21:50:57.894,35501,12.74,6.30,6.26,0.0,-15.53,-12.37
21:50:57.954,35561,12.73,6.29,6.26,0.0,-15.51,-12.43
21:50:58.064,35671,12.74,6.29,6.27,0.0,-15.52,-12.39
21:50:58.125,35732,12.74,6.29,6.27,0.0,-15.57,-12.39
21:50:58.180,35787,12.73,6.29,6.27,0.0,-15.51,-12.45
21:50:58.240,35847,12.74,6.29,6.27,0.0,-15.57,-12.40
21:50:58.354,35961,12.73,6.29,6.27,0.0,-15.56,-12.45
21:50:58.464,36071,12.74,6.29,6.28,0.0,-15.51,-12.42
21:50:58.525,36132,12.73,6.29,6.27,0.0,-15.50,-12.40
21:50:58.580,36187,12.74,6.28,6.28,0.0,-15.60,-12.42
21:50:58.640,36247,12.74,6.28,6.28,0.0,-15.60,-12.36
21:50:58.810,36417,12.75,6.28,6.28,0.0,-15.61,-12.36
21:50:58.865,36472,12.75,6.29,6.27,0.0,-15.56,-12.46
21:50:58.925,36532,12.76,6.29,6.27,0.0,-15.56,-12.46
21:50:58.980,36587,12.77,6.29,6.28,0.0,-15.56,-12.41
21:50:59.040,36647,12.77,6.29,6.28,0.0,-15.56,-12.41
21:50:59.150,36757,12.77,6.29,6.29,0.0,-15.58,-12.43
21:50:59.210,36817,12.77,6.29,6.29,0.0,-15.52,-12.49
21:50:59.265,36872,12.77,6.28,6.29,0.0,-15.51,-12.45
21:50:59.326,36933,12.76,6.29,6.29,0.0,-15.62,-12.50
21:50:59.441,37048,12.75,6.29,6.30,0.0,-15.62,-12.51
21:50:59.551,37158,12.76,6.29,6.31,0.0,-15.52,-12.53
21:50:59.611,37218,12.77,6.28,6.31,0.0,-15.50,-12.54
21:50:59.665,37272,12.76,6.28,6.31,0.0,-15.60,-12.48
21:50:59.725,37332,12.76,6.28,6.31,0.0,-15.55,-12.48
21:50:59.836,37443,12.76,6.29,6.31,0.0,-15.62,-12.54
21:50:59.896,37503,12.76,6.28,6.31,0.0,-15.51,-12.49
21:50:59.951,37558,12.76,6.28,6.31,0.0,-15.56,-12.49
21:51:00.012,37619,12.76,6.28,6.31,0.0,-15.56,-12.49
21:51:00.126,37733,12.76,6.28,6.31,0.0,-15.56,-12.49
21:51:00.236,37843,12.76,6.28,6.31,0.0,-15.56,-12.49
21:51:00.296,37903,12.76,6.28,6.31,0.0,-15.56,-12.49
21:51:00.352,37959,12.76,6.28,6.31,0.0,-15.56,-12.49
21:51:00.411,38018,12.76,6.28,6.31,0.0,-15.56,-12.49
21:51:00.521,38128,12.76,6.28,6.31,0.0,-15.56,-12.49
21:51:00.581,38188,12.76,6.28,6.31,0.0,-15.56,-12.49
21:51:00.637,38244,12.76,6.28,6.31,0.0,-15.56,-12.49
21:51:00.697,38304,12.76,6.28,6.31,0.0,-15.56,-12.49
21:51:00.812,38419,12.76,6.28,6.31,0.0,-15.56,-12.49
21:51:00.922,38529,12.76,6.28,6.31,0.0,-15.56,-12.49
21:51:00.982,38589,12.76,6.28,6.31,0.0,-15.56,-12.49
21:51:01.038,38645,12.76,6.28,6.31,0.0,-15.56,-12.49
21:51:01.097,38704,12.76,6.28,6.31,0.0,-15.56,-12.49
21:51:01.207,38814,12.76,6.28,6.31,0.0,-15.56,-12.49
21:51:01.268,38875,12.76,6.28,6.31,0.0,-15.56,-12.49
21:51:01.322,38929,12.76,6.28,6.31,0.0,-15.56,-12.49
21:51:01.383,38990,12.76,6.28,6.31,0.0,-15.56,-12.49
21:51:01.498,39105,12.76,6.28,6.31,0.0,-15.56,-12.49
21:51:01.608,39215,12.76,6.28,6.31,0.0,-15.56,-12.49
21:51:01.668,39275,12.76,6.28,6.31,0.0,-15.56,-12.49
21:51:01.723,39330,12.76,6.28,6.31,0.0,-15.56,-12.49
21:51:01.783,39390,12.76,6.28,6.31,0.0,-15.56,-12.49
21:51:01.893,39500,12.76,6.28,6.31,0.0,-15.56,-12.49
21:51:01.953,39560,12.76,6.28,6.31,0.0,-15.56,-12.49
21:51:02.008,39615,12.76,6.28,6.31,0.0,-15.56,-12.49
21:51:02.068,39675,12.76,6.28,6.31,0.0,-15.56,-12.49
21:51:02.184,39791,12.76,6.28,6.31,0.0,-15.56,-12.49
21:51:02.294,39901,12.76,6.28,6.31,0.0,-15.56,-12.49
21:51:02.353,39960,12.76,6.28,6.31,0.0,-15.56,-12.49
21:51:02.409,40016,12.76,6.28,6.31,0.0,-15.56,-12.49
21:51:02.469,40076,12.76,6.28,6.31,0.0,-15.56,-12.49
21:51:02.579,40186,12.76,6.28,6.31,0.0,-15.56,-12.49
21:51:02.640,40247,12.76,6.28,6.31,0.0,-15.56,-12.49
21:51:02.694,40301,12.76,6.28,6.31,0.0,-15.56,-12.49
21:51:02.755,40362,12.76,6.28,6.31,0.0,-15.56,-12.49
21:51:02.869,40476,12.76,6.28,6.31,0.0,-15.56,-12.49
21:51:02.980,40587,12.76,6.28,6.31,0.0,-15.56,-12.49
21:51:03.039,40646,12.76,6.28,6.31,0.0,-15.56,-12.49
21:51:03.094,40701,12.76,6.28,6.31,0.0,-15.56,-12.49
21:51:03.154,40761,12.76,6.28,6.31,0.0,-15.56,-12.49
21:51:03.265,40872,12.76,6.28,6.31,0.0,-15.56,-12.49
21:51:03.325,40932,12.76,6.28,6.31,0.0,-15.56,-12.49
21:51:03.440,41047,12.76,6.28,6.31,0.0,-15.56,-12.49
21:51:03.555,41162,12.76,6.28,6.31,0.0,-15.56,-12.49
21:51:03.665,41272,12.76,6.28,6.31,0.0,-15.56,-12.49
21:51:03.725,41332,12.76,6.28,6.31,0.0,-15.56,-12.49
21:51:03.780,41387,12.76,6.28,6.31,0.0,-15.56,-12.49
21:51:03.841,41448,12.76,6.28,6.31,0.0,-15.56,-12.49
21:51:03.950,41557,12.76,6.28,6.31,0.0,-15.56,-12.49
21:51:04.011,41618,12.76,6.28,6.31,0.0,-15.56,-12.49
21:51:04.065,41672,12.76,6.28,6.31,0.0,-15.56,-12.49
21:51:04.125,41732,12.76,6.28,6.31,0.0,-15.56,-12.49
21:51:04.241,41848,12.76,6.28,6.31,0.0,-15.56,-12.49
21:51:04.351,41958,12.76,6.28,6.31,0.0,-15.56,-12.49
21:51:04.411,42018,12.76,6.28,6.31,0.0,-15.56,-12.49
21:51:04.466,42073,12.76,6.28,6.31,0.0,-15.56,-12.49
21:51:04.526,42133,12.76,6.28,6.31,0.0,-15.56,-12.49
21:51:04.636,42243,12.76,6.28,6.31,0.0,-15.56,-12.49
21:51:04.697,42304,12.76,6.28,6.31,0.0,-15.56,-12.49
21:51:04.752,42359,12.76,6.28,6.31,0.0,-15.56,-12.49
21:51:04.811,42418,12.76,6.28,6.31,0.0,-15.56,-12.49
21:51:04.927,42534,12.76,6.28,6.31,0.0,-15.56,-12.49
21:51:05.036,42644,12.76,6.28,6.31,0.0,-15.56,-12.49
21:51:05.097,42704,12.76,6.28,6.31,0.0,-15.56,-12.49
21:51:05.151,42758,12.76,6.28,6.31,0.0,-15.56,-12.49
21:51:05.212,42819,12.76,6.28,6.31,0.0,-15.56,-12.49
21:51:05.322,42929,12.76,6.28,6.31,0.0,-15.56,-12.49
21:51:05.382,42989,12.76,6.28,6.31,0.0,-15.56,-12.49
21:51:05.437,43044,12.76,6.28,6.31,0.0,-15.56,-12.49
21:51:05.498,43105,12.76,6.28,6.31,0.0,-15.56,-12.49
21:51:05.612,43219,12.76,6.29,6.30,0.0,-15.63,-12.36
21:51:05.723,43330,12.76,6.31,6.29,0.0,-15.83,-12.44
21:51:05.782,43390,12.75,6.32,6.28,0.0,-15.69,-12.31
21:51:05.838,43445,12.76,6.32,6.27,0.0,-15.70,-12.34
21:51:05.897,43504,12.75,6.33,6.27,0.0,-15.71,-12.39
21:51:06.008,43615,12.74,6.33,6.26,0.0,-15.65,-12.26
21:51:06.068,43675,12.74,6.33,6.26,0.0,-15.65,-12.41
21:51:06.123,43730,12.74,6.33,6.26,0.0,-15.64,-12.30
21:51:06.183,43790,12.75,6.33,6.25,0.0,-15.59,-12.35
21:51:06.298,43905,12.76,6.32,6.25,0.0,-15.64,-12.23
21:51:06.408,44015,12.76,6.33,6.22,0.0,-15.65,-12.28
21:51:06.469,44076,12.75,6.33,6.23,0.0,-15.65,-12.29
21:51:06.524,44131,12.75,6.34,6.22,0.0,-15.71,-12.28
21:51:06.584,44191,12.75,6.34,6.22,0.0,-15.61,-12.28
21:51:06.694,44301,12.75,6.33,6.23,0.0,-15.64,-12.30
21:51:06.754,44361,12.76,6.33,6.23,0.0,-15.63,-12.36
21:51:06.808,44415,12.75,6.33,6.23,0.0,-15.64,-12.25
21:51:06.869,44476,12.75,6.33,6.23,0.0,-15.59,-12.30
21:51:06.984,44591,12.75,6.33,6.25,0.0,-15.64,-12.39
21:51:07.093,44700,12.75,6.33,6.24,0.0,-15.76,-12.33
21:51:07.154,44761,12.74,6.33,6.24,0.0,-15.59,-12.33
21:51:07.209,44816,12.75,6.33,6.24,0.0,-15.70,-12.38
21:51:07.269,44876,12.74,6.33,6.25,0.0,-15.59,-12.38
21:51:07.380,44987,12.75,6.33,6.24,0.0,-15.64,-12.38
21:51:07.440,45047,12.75,6.33,6.25,0.0,-15.70,-12.33
21:51:07.555,45162,12.76,6.33,6.26,0.0,-15.65,-12.40
21:51:07.669,45276,12.77,6.33,6.26,0.0,-15.65,-12.42
21:51:07.780,45387,12.76,6.33,6.26,0.0,-15.65,-12.36
21:51:07.840,45447,12.76,6.33,6.26,0.0,-15.65,-12.36
21:51:07.895,45502,12.76,6.33,6.26,0.0,-15.65,-12.36
21:51:07.955,45562,12.76,6.33,6.26,0.0,-15.65,-12.36
21:51:08.066,45673,12.76,6.33,6.26,0.0,-15.65,-12.36
21:51:08.125,45732,12.76,6.33,6.26,0.0,-15.65,-12.36
21:51:08.180,45787,12.76,6.33,6.26,0.0,-15.65,-12.36
21:51:08.240,45847,12.76,6.33,6.26,0.0,-15.65,-12.36
21:51:08.356,45963,12.76,6.33,6.26,0.0,-15.65,-12.36
21:51:08.466,46073,12.76,6.33,6.26,0.0,-15.65,-12.36
21:51:08.525,46132,12.76,6.33,6.26,0.0,-15.65,-12.36
21:51:08.581,46188,12.76,6.33,6.26,0.0,-15.65,-12.36
21:51:08.640,46247,12.76,6.33,6.26,0.0,-15.65,-12.36
21:51:08.751,46358,12.76,6.33,6.26,0.0,-15.65,-12.36
21:51:08.811,46418,12.76,6.33,6.26,0.0,-15.65,-12.36
21:51:08.866,46473,12.76,6.33,6.26,0.0,-15.65,-12.36
21:51:08.927,46534,12.76,6.33,6.26,0.0,-15.65,-12.36
21:51:09.041,46648,12.76,6.33,6.26,0.0,-15.65,-12.36
21:51:09.151,46758,12.76,6.33,6.26,0.0,-15.65,-12.36
21:51:09.211,46818,12.76,6.33,6.26,0.0,-15.65,-12.36
21:51:09.266,46873,12.76,6.33,6.26,0.0,-15.65,-12.36
21:51:09.326,46933,12.76,6.33,6.26,0.0,-15.65,-12.36
21:51:09.437,47044,12.76,6.33,6.26,0.0,-15.65,-12.36
21:51:09.497,47104,12.76,6.33,6.26,0.0,-15.65,-12.36
21:51:09.552,47159,12.76,6.33,6.26,0.0,-15.65,-12.36
21:51:09.611,47218,12.76,6.33,6.26,0.0,-15.65,-12.36
21:51:09.727,47334,12.76,6.33,6.26,0.0,-15.65,-12.36
21:51:09.836,47443,12.76,6.33,6.26,0.0,-15.65,-12.36
21:51:09.897,47504,12.76,6.33,6.26,0.0,-15.65,-12.36
21:51:09.952,47559,12.76,6.33,6.26,0.0,-15.65,-12.36
21:51:10.012,47619,12.76,6.33,6.26,0.0,-15.65,-12.36
21:51:10.123,47730,12.76,6.33,6.26,0.0,-15.65,-12.36
21:51:10.182,47789,12.76,6.33,6.26,0.0,-15.65,-12.36
21:51:10.238,47845,12.76,6.33,6.26,0.0,-15.65,-12.36
21:51:10.298,47905,12.76,6.33,6.26,0.0,-15.65,-12.36
21:51:10.413,48020,12.76,6.33,6.26,0.0,-15.65,-12.36
21:51:10.523,48130,12.76,6.33,6.26,0.0,-15.65,-12.36
21:51:10.583,48190,12.76,6.33,6.26,0.0,-15.65,-12.36
21:51:10.638,48245,12.76,6.33,6.26,0.0,-15.65,-12.36
21:51:10.698,48305,12.76,6.33,6.26,0.0,-15.65,-12.36
21:51:10.808,48415,12.76,6.33,6.26,0.0,-15.65,-12.36
21:51:10.868,48475,12.76,6.33,6.26,0.0,-15.65,-12.36
21:51:10.923,48530,12.76,6.33,6.26,0.0,-15.65,-12.36
21:51:10.984,48591,12.76,6.33,6.26,0.0,-15.65,-12.36
21:51:11.098,48705,12.76,6.33,6.26,0.0,-15.65,-12.36
21:51:11.208,48815,12.76,6.33,6.26,0.0,-15.65,-12.36
21:51:11.269,48876,12.76,6.33,6.26,0.0,-15.65,-12.36
21:51:11.324,48931,12.76,6.33,6.26,0.0,-15.65,-12.36
21:51:11.384,48991,12.76,6.33,6.26,0.0,-15.65,-12.36
21:51:11.494,49101,12.76,6.33,6.26,0.0,-15.65,-12.36
21:51:11.554,49161,12.76,6.33,6.26,0.0,-15.65,-12.36
21:51:11.609,49216,12.76,6.33,6.26,0.0,-15.65,-12.36
21:51:11.669,49276,12.76,6.33,6.26,0.0,-15.65,-12.36
21:51:11.784,49391,12.76,6.33,6.26,0.0,-15.65,-12.36
21:51:11.894,49501,12.76,6.33,6.26,0.0,-15.65,-12.36
21:51:11.954,49561,12.76,6.33,6.26,0.0,-15.65,-12.36
21:51:12.010,49617,12.76,6.33,6.26,0.0,-15.65,-12.36
21:51:12.070,49677,12.76,6.33,6.26,0.0,-15.65,-12.36
21:51:12.180,49787,12.76,6.33,6.26,0.0,-15.65,-12.36
21:51:12.240,49847,12.76,6.33,6.26,0.0,-15.65,-12.36
21:51:12.295,49902,12.76,6.33,6.26,0.0,-15.65,-12.36
21:51:12.355,49962,12.76,6.33,6.26,0.0,-15.65,-12.36
21:51:12.470,50077,12.76,6.33,6.26,0.0,-15.65,-12.36
21:51:12.580,50187,12.76,6.33,6.26,0.0,-15.65,-12.36
21:51:12.640,50247,12.76,6.33,6.26,0.0,-15.65,-12.36
21:51:12.695,50302,12.76,6.33,6.26,0.0,-15.65,-12.36
21:51:12.755,50362,12.76,6.33,6.26,0.0,-15.65,-12.36
21:51:12.866,50473,12.76,6.33,6.26,0.0,-15.65,-12.36
21:51:12.926,50533,12.76,6.33,6.26,0.0,-15.65,-12.36
21:51:12.980,50587,12.76,6.33,6.26,0.0,-15.65,-12.36
21:51:13.041,50648,12.76,6.33,6.26,0.0,-15.65,-12.36
21:51:13.156,50763,12.76,6.33,6.26,0.0,-15.65,-12.36
21:51:13.265,50872,12.76,6.33,6.26,0.0,-15.65,-12.36
21:51:13.326,50933,12.76,6.33,6.26,0.0,-15.65,-12.36
21:51:13.380,50987,12.76,6.33,6.26,0.0,-15.65,-12.36
21:51:13.441,51048,12.76,6.33,6.26,0.0,-15.65,-12.36
21:51:13.552,51159,12.76,6.33,6.26,0.0,-15.65,-12.36
21:51:13.611,51218,12.76,6.33,6.26,0.0,-15.65,-12.36
21:51:13.666,51273,12.76,6.33,6.26,0.0,-15.65,-12.36
21:51:13.726,51333,12.76,6.33,6.26,0.0,-15.65,-12.36
21:51:13.842,51449,12.76,6.33,6.26,0.0,-15.65,-12.36
21:51:13.951,51558,12.76,6.33,6.26,0.0,-15.65,-12.36
21:51:14.012,51619,12.76,6.33,6.26,0.0,-15.65,-12.36
21:51:14.067,51674,12.76,6.33,6.26,0.0,-15.65,-12.36
21:51:14.127,51734,12.76,6.33,6.26,0.0,-15.65,-12.36
21:51:14.236,51844,12.76,6.33,6.26,0.0,-15.65,-12.36
21:51:14.297,51904,12.76,6.33,6.26,0.0,-15.65,-12.36
21:51:14.352,51959,12.76,6.33,6.26,0.0,-15.65,-12.36
21:51:14.412,52019,12.76,6.33,6.26,0.0,-15.65,-12.36
21:51:14.582,52189,12.76,6.33,6.26,0.0,-15.65,-12.36
21:51:14.637,52244,12.76,6.33,6.26,0.0,-15.65,-12.36
21:51:14.698,52305,12.76,6.33,6.26,0.0,-15.65,-12.36
21:51:14.753,52360,12.76,6.33,6.26,0.0,-15.65,-12.36
21:51:14.813,52420,12.76,6.33,6.26,0.0,-15.65,-12.36
21:51:14.923,52530,12.76,6.33,6.26,0.0,-15.65,-12.36
21:51:14.983,52590,12.76,6.33,6.26,0.0,-15.65,-12.36
21:51:15.038,52645,12.76,6.33,6.26,0.0,-15.65,-12.36
21:51:15.098,52705,12.76,6.33,6.26,0.0,-15.65,-12.36
21:51:15.213,52820,12.76,6.33,6.26,0.0,-15.65,-12.36
21:51:15.323,52930,12.76,6.33,6.26,0.0,-15.65,-12.36
21:51:15.383,52990,12.76,6.33,6.26,0.0,-15.65,-12.36
21:51:15.438,53045,12.76,6.33,6.26,0.0,-15.65,-12.36
21:51:15.498,53105,12.76,6.33,6.26,0.0,-15.65,-12.36
21:51:15.609,53216,12.76,6.33,6.26,0.0,-15.65,-12.36
21:51:15.668,53275,12.76,6.33,6.26,0.0,-15.65,-12.36
21:51:15.724,53331,12.76,6.33,6.26,0.0,-15.65,-12.36
21:51:15.783,53390,12.76,6.33,6.26,0.0,-15.65,-12.36
21:51:15.898,53505,12.76,6.33,6.26,0.0,-15.65,-12.36
21:51:16.009,53616,12.76,6.33,6.26,0.0,-15.65,-12.36
21:51:16.069,53676,12.76,6.33,6.26,0.0,-15.65,-12.36
21:51:16.124,53731,12.76,6.33,6.26,0.0,-15.65,-12.36
21:51:16.184,53791,12.76,6.33,6.26,0.0,-15.65,-12.36
21:51:16.294,53901,12.76,6.33,6.26,0.0,-15.65,-12.36
21:51:16.355,53962,12.76,6.33,6.26,0.0,-15.65,-12.36
21:51:16.470,54077,12.76,6.33,6.26,0.0,-15.65,-12.36
21:51:16.584,54191,12.76,6.33,6.26,0.0,-15.65,-12.36
21:51:16.694,54301,12.76,6.33,6.26,0.0,-15.65,-12.36
21:51:16.755,54362,12.76,6.33,6.26,0.0,-15.65,-12.36
21:51:16.809,54416,12.76,6.33,6.26,0.0,-15.65,-12.36
21:51:16.870,54477,12.76,6.33,6.26,0.0,-15.65,-12.36
21:51:16.980,54587,12.76,6.33,6.26,0.0,-15.65,-12.36
21:51:17.040,54647,12.76,6.33,6.26,0.0,-15.65,-12.36
21:51:17.096,54703,12.76,6.33,6.26,0.0,-15.65,-12.36
21:51:17.156,54763,12.76,6.33,6.26,0.0,-15.65,-12.36
21:51:17.270,54877,12.76,6.33,6.26,0.0,-15.65,-12.36
21:51:17.380,54987,12.76,6.33,6.26,0.0,-15.65,-12.36
21:51:17.440,55047,12.76,6.33,6.26,0.0,-15.65,-12.36
21:51:17.496,55103,12.76,6.33,6.26,0.0,-15.65,-12.36
21:51:17.555,55162,12.76,6.33,6.26,0.0,-15.65,-12.36
21:51:17.666,55273,12.76,6.33,6.26,0.0,-15.65,-12.36
21:51:17.726,55333,12.76,6.33,6.26,0.0,-15.65,-12.36
21:51:17.781,55388,12.76,6.33,6.26,0.0,-15.65,-12.36
21:51:17.841,55448,12.76,6.33,6.26,0.0,-15.65,-12.36
21:51:17.956,55563,12.76,6.33,6.26,0.0,-15.65,-12.36
21:51:18.066,55673,12.76,6.33,6.26,0.0,-15.65,-12.36
21:51:18.126,55733,12.76,6.33,6.26,0.0,-15.65,-12.36
21:51:18.181,55788,12.76,6.33,6.26,0.0,-15.65,-12.36
21:51:18.242,55849,12.76,6.33,6.26,0.0,-15.65,-12.36
21:51:18.351,55958,12.76,6.33,6.26,0.0,-15.65,-12.36
21:51:18.412,56019,12.76,6.33,6.26,0.0,-15.65,-12.36
21:51:18.467,56074,12.76,6.33,6.26,0.0,-15.65,-12.36
21:51:18.527,56134,12.76,6.33,6.26,0.0,-15.65,-12.36
21:51:18.642,56249,12.76,6.33,6.26,0.0,-15.65,-12.36
21:51:18.752,56359,12.76,6.33,6.26,0.0,-15.65,-12.36
21:51:18.812,56419,12.76,6.33,6.26,0.0,-15.65,-12.36
21:51:18.867,56474,12.76,6.33,6.26,0.0,-15.65,-12.36
21:51:18.927,56534,12.76,6.33,6.26,0.0,-15.65,-12.36
21:51:19.037,56644,12.76,6.33,6.26,0.0,-15.65,-12.36
21:51:19.098,56705,12.76,6.33,6.26,0.0,-15.65,-12.36
21:51:19.152,56759,12.76,6.33,6.26,0.0,-15.65,-12.36
21:51:19.212,56819,12.76,6.33,6.26,0.0,-15.65,-12.36
21:51:19.327,56934,12.76,6.33,6.26,0.0,-15.65,-12.36
21:51:19.438,57045,12.76,6.33,6.26,0.0,-15.65,-12.36
21:51:19.498,57105,12.76,6.33,6.26,0.0,-15.65,-12.36
21:51:19.552,57159,12.76,6.33,6.26,0.0,-15.65,-12.36
21:51:19.613,57220,12.76,6.33,6.26,0.0,-15.65,-12.36
21:51:19.723,57330,12.76,6.33,6.26,0.0,-15.65,-12.36
21:51:19.783,57390,12.76,6.33,6.26,0.0,-15.65,-12.36
21:51:19.838,57445,12.76,6.33,6.26,0.0,-15.65,-12.36
21:51:19.898,57505,12.76,6.33,6.26,0.0,-15.65,-12.36
21:51:20.014,57621,12.76,6.33,6.26,0.0,-15.65,-12.36
21:51:20.124,57731,12.76,6.33,6.26,0.0,-15.65,-12.36
21:51:20.184,57791,12.76,6.33,6.26,0.0,-15.65,-12.36
21:51:20.239,57846,12.76,6.33,6.26,0.0,-15.65,-12.36
21:51:20.299,57906,12.76,6.33,6.26,0.0,-15.65,-12.36
21:51:20.409,58017,12.76,6.33,6.26,0.0,-15.65,-12.36
21:51:20.469,58076,12.76,6.33,6.26,0.0,-15.65,-12.36
21:51:20.524,58131,12.76,6.33,6.26,0.0,-15.65,-12.36
21:51:20.584,58191,12.76,6.33,6.26,0.0,-15.65,-12.36
21:51:20.699,58306,12.76,6.33,6.26,0.0,-15.65,-12.36
21:51:20.809,58416,12.76,6.33,6.26,0.0,-15.65,-12.36
21:51:20.869,58476,12.76,6.33,6.26,0.0,-15.65,-12.36
21:51:20.925,58532,12.76,6.33,6.26,0.0,-15.65,-12.36
21:51:20.984,58591,12.76,6.33,6.26,0.0,-15.65,-12.36
21:51:21.095,58702,12.76,6.33,6.26,0.0,-15.65,-12.36
21:51:21.155,58762,12.76,6.33,6.26,0.0,-15.65,-12.36
21:51:21.210,58817,12.76,6.33,6.26,0.0,-15.65,-12.36
21:51:21.270,58877,12.76,6.33,6.26,0.0,-15.65,-12.36
21:51:21.385,58992,12.76,6.33,6.26,0.0,-15.65,-12.36
21:51:21.495,59102,12.76,6.33,6.26,0.0,-15.65,-12.36
21:51:21.555,59162,12.76,6.33,6.26,0.0,-15.65,-12.36
21:51:21.610,59217,12.76,6.33,6.26,0.0,-15.65,-12.36
21:51:21.670,59277,12.76,6.33,6.26,0.0,-15.65,-12.36
21:51:21.780,59387,12.76,6.33,6.26,0.0,-15.65,-12.36
21:51:21.840,59447,12.76,6.33,6.26,0.0,-15.65,-12.36
21:51:21.896,59503,12.76,6.33,6.26,0.0,-15.65,-12.36
21:51:21.956,59563,12.76,6.33,6.26,0.0,-15.65,-12.36
21:51:22.071,59678,12.76,6.33,6.26,0.0,-15.65,-12.36
21:51:22.180,59787,12.76,6.33,6.26,0.0,-15.65,-12.36
21:51:22.241,59848,12.76,6.33,6.26,0.0,-15.65,-12.36
21:51:22.296,59903,12.76,6.33,6.26,0.0,-15.65,-12.36
21:51:22.355,59962,12.76,6.33,6.26,0.0,-15.65,-12.36
21:51:22.466,60073,12.76,6.33,6.26,0.0,-15.65,-12.36
21:51:22.526,60133,12.76,6.33,6.26,0.0,-15.65,-12.36
21:51:22.582,60189,12.76,6.33,6.26,0.0,-15.65,-12.36
21:51:22.641,60248,12.76,6.33,6.26,0.0,-15.65,-12.36
21:51:22.757,60364,12.76,6.33,6.26,0.0,-15.65,-12.36
21:51:22.867,60474,12.76,6.33,6.26,0.0,-15.65,-12.36
21:51:22.926,60533,12.76,6.33,6.26,0.0,-15.65,-12.36
21:51:22.982,60589,12.76,6.33,6.26,0.0,-15.65,-12.36
21:51:23.042,60649,12.76,6.33,6.26,0.0,-15.65,-12.36
21:51:23.151,60758,12.76,6.33,6.26,0.0,-15.65,-12.36
21:51:23.213,60820,12.76,6.33,6.26,0.0,-15.65,-12.36
21:51:23.267,60874,12.76,6.33,6.26,0.0,-15.65,-12.36
21:51:23.327,60934,12.76,6.33,6.26,0.0,-15.65,-12.36
21:51:23.442,61049,12.76,6.33,6.26,0.0,-15.65,-12.36
21:51:23.552,61159,12.76,6.33,6.26,0.0,-15.65,-12.36
21:51:23.612,61219,12.76,6.33,6.26,0.0,-15.65,-12.36
21:51:23.667,61274,12.76,6.33,6.26,0.0,-15.65,-12.36
21:51:23.727,61334,12.76,6.33,6.26,0.0,-15.65,-12.36
21:51:23.838,61445,12.76,6.33,6.26,0.0,-15.65,-12.36
21:51:23.898,61505,12.76,6.33,6.26,0.0,-15.65,-12.36
21:51:23.953,61560,12.76,6.33,6.26,0.0,-15.65,-12.36
21:51:24.013,61620,12.76,6.33,6.26,0.0,-15.65,-12.36
21:51:24.128,61735,12.76,6.33,6.26,0.0,-15.65,-12.36
21:51:24.238,61845,12.76,6.33,6.26,0.0,-15.65,-12.36
21:51:24.298,61905,12.76,6.33,6.26,0.0,-15.65,-12.36
21:51:24.354,61961,12.76,6.33,6.26,0.0,-15.65,-12.36
21:51:24.413,62020,12.76,6.33,6.26,0.0,-15.65,-12.36
21:51:24.523,62130,12.76,6.33,6.26,0.0,-15.65,-12.36
21:51:24.584,62191,12.76,6.33,6.26,0.0,-15.65,-12.36
21:51:24.639,62246,12.76,6.33,6.26,0.0,-15.65,-12.36
21:51:24.699,62306,12.76,6.33,6.26,0.0,-15.65,-12.36
21:51:24.813,62420,12.76,6.33,6.26,0.0,-15.65,-12.36
21:51:24.924,62531,12.76,6.33,6.26,0.0,-15.65,-12.36
21:51:24.984,62591,12.76,6.33,6.26,0.0,-15.65,-12.36
21:51:25.038,62645,12.76,6.33,6.26,0.0,-15.65,-12.36
21:51:25.099,62706,12.76,6.33,6.26,0.0,-15.65,-12.36
21:51:25.210,62817,12.76,6.33,6.26,0.0,-15.65,-12.36
21:51:25.270,62877,12.76,6.33,6.26,0.0,-15.65,-12.36
21:51:25.325,62932,12.76,6.33,6.26,0.0,-15.65,-12.36
21:51:25.384,62992,12.76,6.33,6.26,0.0,-15.65,-12.36
21:51:25.499,63106,12.76,6.33,6.26,0.0,-15.65,-12.36
21:51:25.609,63216,12.76,6.33,6.26,0.0,-15.65,-12.36
21:51:25.670,63277,12.76,6.33,6.26,0.0,-15.65,-12.36
21:51:25.725,63332,12.76,6.33,6.26,0.0,-15.65,-12.36
21:51:25.784,63391,12.76,6.33,6.26,0.0,-15.65,-12.36
21:51:25.895,63502,12.76,6.33,6.26,0.0,-15.65,-12.36
21:51:25.954,63561,12.76,6.33,6.26,0.0,-15.65,-12.36
21:51:26.070,63677,12.76,6.33,6.26,0.0,-15.65,-12.36
21:51:26.186,63793,12.76,6.33,6.26,0.0,-15.65,-12.36
21:51:26.295,63902,12.76,6.33,6.26,0.0,-15.65,-12.36
21:51:26.355,63962,12.76,6.33,6.26,0.0,-15.65,-12.36
21:51:26.410,64017,12.76,6.33,6.26,0.0,-15.65,-12.36
21:51:26.470,64077,12.76,6.33,6.26,0.0,-15.65,-12.36
21:51:26.581,64188,12.76,6.33,6.26,0.0,-15.65,-12.36
21:51:26.640,64247,12.76,6.33,6.26,0.0,-15.65,-12.36
21:51:26.695,64302,12.76,6.33,6.26,0.0,-15.65,-12.36
21:51:26.756,64363,12.76,6.33,6.26,0.0,-15.65,-12.36
21:51:26.871,64478,12.76,6.33,6.26,0.0,-15.65,-12.36
21:51:26.980,64587,12.77,6.34,6.26,0.0,-15.72,-12.37
21:51:27.041,64648,12.77,6.34,6.27,0.0,-15.67,-12.27
21:51:27.096,64703,12.77,6.34,6.26,0.0,-15.67,-12.30
21:51:27.156,64763,12.78,6.34,6.25,0.0,-15.68,-12.29
21:51:27.266,64873,12.78,6.34,6.25,0.0,-15.63,-12.24
21:51:27.327,64934,12.78,6.34,6.25,0.0,-15.68,-12.28
21:51:27.381,64988,12.78,6.35,6.25,0.0,-15.69,-12.34
21:51:27.441,65048,12.78,6.34,6.25,0.0,-15.74,-12.39
21:51:27.557,65164,12.78,6.34,6.26,0.0,-15.58,-12.24
21:51:27.666,65273,12.78,6.34,6.25,0.0,-15.63,-12.34
21:51:27.727,65334,12.78,6.34,6.25,0.0,-15.68,-12.40
21:51:27.782,65389,12.78,6.34,6.25,0.0,-15.72,-12.23
21:51:27.842,65449,12.77,6.35,6.25,0.0,-15.74,-12.28
21:51:27.952,65559,12.77,6.34,6.25,0.0,-15.68,-12.33
21:51:28.012,65619,12.76,6.34,6.25,0.0,-15.68,-12.34
21:51:28.067,65674,12.76,6.34,6.25,0.0,-15.68,-12.34
21:51:28.128,65735,12.76,6.34,6.25,0.0,-15.68,-12.34
21:51:28.242,65849,12.76,6.34,6.25,0.0,-15.68,-12.34
21:51:28.353,65960,12.76,6.34,6.25,0.0,-15.68,-12.34
21:51:28.412,66020,12.76,6.34,6.25,0.0,-15.68,-12.34
21:51:28.467,66074,12.76,6.34,6.25,0.0,-15.68,-12.34
21:51:28.527,66134,12.76,6.34,6.25,0.0,-15.68,-12.34
21:51:28.638,66245,12.76,6.34,6.25,0.0,-15.68,-12.34
21:51:28.698,66305,12.76,6.34,6.25,0.0,-15.68,-12.34
21:51:28.754,66361,12.76,6.34,6.25,0.0,-15.68,-12.34
21:51:28.814,66421,12.76,6.34,6.25,0.0,-15.68,-12.34
21:51:28.929,66536,12.76,6.34,6.25,0.0,-15.68,-12.34
21:51:29.039,66646,12.76,6.34,6.25,0.0,-15.68,-12.34
21:51:29.098,66706,12.76,6.34,6.25,0.0,-15.68,-12.34
21:51:29.153,66760,12.76,6.34,6.25,0.0,-15.68,-12.34
21:51:29.213,66820,12.76,6.34,6.25,0.0,-15.68,-12.34
21:51:29.324,66931,12.76,6.34,6.25,0.0,-15.68,-12.34
21:51:29.384,66991,12.76,6.34,6.25,0.0,-15.68,-12.34
21:51:29.439,67046,12.76,6.34,6.25,0.0,-15.68,-12.34
21:51:29.499,67106,12.76,6.34,6.25,0.0,-15.68,-12.34
21:51:29.614,67221,12.76,6.34,6.25,0.0,-15.68,-12.34
21:51:29.724,67331,12.76,6.34,6.25,0.0,-15.68,-12.34
21:51:29.784,67391,12.76,6.34,6.25,0.0,-15.68,-12.34
21:51:29.839,67446,12.76,6.34,6.25,0.0,-15.68,-12.34
21:51:29.899,67506,12.76,6.34,6.25,0.0,-15.68,-12.34
21:51:30.009,67616,12.76,6.34,6.25,0.0,-15.68,-12.34
21:51:30.069,67676,12.76,6.34,6.25,0.0,-15.68,-12.34
21:51:30.125,67732,12.76,6.34,6.25,0.0,-15.68,-12.34
21:51:30.185,67792,12.76,6.34,6.25,0.0,-15.68,-12.34
21:51:30.300,67907,12.76,6.34,6.25,0.0,-15.68,-12.34
21:51:30.410,68017,12.76,6.34,6.25,0.0,-15.68,-12.34
21:51:30.470,68077,12.76,6.34,6.25,0.0,-15.68,-12.34
21:51:30.524,68131,12.76,6.34,6.25,0.0,-15.68,-12.34
21:51:30.585,68192,12.76,6.34,6.25,0.0,-15.68,-12.34
21:51:30.696,68303,12.76,6.34,6.25,0.0,-15.68,-12.34
21:51:30.755,68362,12.76,6.34,6.25,0.0,-15.68,-12.34
21:51:30.811,68418,12.76,6.34,6.25,0.0,-15.68,-12.34
21:51:30.870,68477,12.76,6.34,6.25,0.0,-15.68,-12.34
21:51:30.986,68593,12.76,6.34,6.25,0.0,-15.68,-12.34
21:51:31.095,68702,12.76,6.34,6.25,0.0,-15.68,-12.34
21:51:31.156,68763,12.76,6.34,6.25,0.0,-15.68,-12.34
21:51:31.210,68817,12.76,6.34,6.25,0.0,-15.68,-12.34
21:51:31.270,68877,12.76,6.34,6.25,0.0,-15.68,-12.34
21:51:31.381,68988,12.76,6.34,6.25,0.0,-15.68,-12.34
21:51:31.441,69048,12.76,6.34,6.25,0.0,-15.68,-12.34
21:51:31.556,69163,12.76,6.34,6.25,0.0,-15.68,-12.34
21:51:31.672,69279,12.76,6.34,6.25,0.0,-15.68,-12.34
21:51:31.781,69388,12.76,6.34,6.25,0.0,-15.68,-12.34
21:51:31.842,69449,12.76,6.34,6.25,0.0,-15.68,-12.34
21:51:31.896,69503,12.76,6.34,6.25,0.0,-15.68,-12.34
21:51:31.957,69564,12.76,6.34,6.25,0.0,-15.68,-12.34
21:51:32.067,69674,12.76,6.34,6.25,0.0,-15.68,-12.34
21:51:32.127,69734,12.76,6.34,6.25,0.0,-15.68,-12.34
21:51:32.182,69789,12.76,6.34,6.25,0.0,-15.68,-12.34
21:51:32.242,69849,12.76,6.34,6.25,0.0,-15.68,-12.34
21:51:32.357,69964,12.76,6.34,6.25,0.0,-15.68,-12.34
21:51:32.467,70074,12.76,6.34,6.25,0.0,-15.68,-12.34
21:51:32.527,70134,12.76,6.34,6.25,0.0,-15.68,-12.34
21:51:32.582,70189,12.76,6.34,6.25,0.0,-15.68,-12.34
21:51:32.642,70249,12.76,6.34,6.25,0.0,-15.68,-12.34
21:51:32.753,70360,12.76,6.34,6.25,0.0,-15.68,-12.34
21:51:32.812,70419,12.76,6.34,6.25,0.0,-15.68,-12.34
21:51:32.868,70475,12.76,6.34,6.25,0.0,-15.68,-12.34
21:51:32.982,70589,12.76,6.34,6.25,0.0,-15.68,-12.34
21:51:33.043,70650,12.76,6.34,6.25,0.0,-15.68,-12.34
21:51:33.153,70760,12.76,6.34,6.25,0.0,-15.68,-12.34
21:51:33.213,70820,12.76,6.34,6.25,0.0,-15.68,-12.34
21:51:33.268,70875,12.76,6.34,6.25,0.0,-15.68,-12.34
21:51:33.328,70936,12.76,6.34,6.25,0.0,-15.68,-12.34
21:51:33.439,71046,12.76,6.34,6.25,0.0,-15.68,-12.34
21:51:33.499,71106,12.76,6.34,6.25,0.0,-15.68,-12.34
21:51:33.553,71160,12.76,6.34,6.25,0.0,-15.68,-12.34
21:51:33.613,71220,12.76,6.34,6.25,0.0,-15.68,-12.34
21:51:33.783,71390,12.76,6.34,6.25,0.0,-15.68,-12.34
21:51:33.839,71446,12.76,6.34,6.25,0.0,-15.68,-12.34
21:51:33.899,71506,12.76,6.34,6.25,0.0,-15.68,-12.34
21:51:33.953,71560,12.76,6.34,6.25,0.0,-15.68,-12.34
21:51:34.014,71621,12.76,6.34,6.25,0.0,-15.68,-12.34
21:51:34.125,71732,12.76,6.34,6.25,0.0,-15.68,-12.34
21:51:34.185,71792,12.76,6.34,6.25,0.0,-15.68,-12.34
21:51:34.239,71846,12.76,6.34,6.25,0.0,-15.68,-12.34
21:51:34.300,71907,12.76,6.34,6.25,0.0,-15.68,-12.34
21:51:34.414,72022,12.76,6.34,6.25,0.0,-15.68,-12.34
21:51:34.524,72131,12.76,6.34,6.25,0.0,-15.68,-12.34
21:51:34.585,72192,12.76,6.34,6.25,0.0,-15.68,-12.34
21:51:34.640,72247,12.76,6.34,6.25,0.0,-15.68,-12.34
21:51:34.699,72306,12.76,6.34,6.25,0.0,-15.68,-12.34
21:51:34.810,72417,12.76,6.34,6.25,0.0,-15.68,-12.34
21:51:34.870,72477,12.76,6.34,6.25,0.0,-15.68,-12.34
21:51:34.925,72532,12.76,6.34,6.25,0.0,-15.68,-12.34
21:51:34.985,72592,12.76,6.34,6.25,0.0,-15.68,-12.34
21:51:35.100,72707,12.76,6.34,6.25,0.0,-15.68,-12.34
21:51:35.210,72817,12.76,6.34,6.25,0.0,-15.68,-12.34
21:51:35.270,72877,12.76,6.34,6.25,0.0,-15.68,-12.34
21:51:35.325,72932,12.76,6.34,6.25,0.0,-15.68,-12.34
21:51:35.385,72992,12.76,6.34,6.25,0.0,-15.68,-12.34
21:51:35.496,73103,12.76,6.34,6.25,0.0,-15.68,-12.34
21:51:35.555,73162,12.76,6.34,6.25,0.0,-15.68,-12.34
21:51:35.611,73218,12.76,6.34,6.25,0.0,-15.68,-12.34
21:51:35.671,73278,12.76,6.34,6.25,0.0,-15.68,-12.34
21:51:35.786,73393,12.76,6.34,6.25,0.0,-15.68,-12.34
21:51:35.956,73563,12.76,6.34,6.25,0.0,-15.68,-12.34
21:51:36.011,73618,12.76,6.34,6.25,0.0,-15.68,-12.34
21:51:36.071,73678,12.76,6.34,6.25,0.0,-15.68,-12.34
21:51:36.181,73788,12.76,6.34,6.25,0.0,-15.68,-12.34
21:51:36.241,73848,12.76,6.34,6.25,0.0,-15.68,-12.34
21:51:36.296,73903,12.76,6.34,6.25,0.0,-15.68,-12.34
21:51:36.356,73963,12.76,6.34,6.25,0.0,-15.68,-12.34
21:51:36.471,74078,12.76,6.34,6.25,0.0,-15.68,-12.34
21:51:36.582,74189,12.76,6.34,6.25,0.0,-15.68,-12.34
21:51:36.643,74250,12.76,6.34,6.25,0.0,-15.68,-12.34
21:51:36.696,74303,12.76,6.34,6.25,0.0,-15.68,-12.34
21:51:36.756,74364,12.76,6.34,6.25,0.0,-15.68,-12.34
21:51:36.867,74474,12.76,6.34,6.25,0.0,-15.68,-12.34
21:51:36.927,74534,12.76,6.34,6.25,0.0,-15.68,-12.34
21:51:36.982,74589,12.76,6.34,6.25,0.0,-15.68,-12.34
21:51:37.042,74649,12.76,6.34,6.25,0.0,-15.68,-12.34
21:51:37.157,74764,12.76,6.34,6.25,0.0,-15.68,-12.34
21:51:37.267,74874,12.76,6.34,6.25,0.0,-15.68,-12.34
21:51:37.327,74935,12.76,6.34,6.25,0.0,-15.68,-12.34
21:51:37.383,74990,12.76,6.34,6.25,0.0,-15.68,-12.34
21:51:37.442,75049,12.76,6.34,6.25,0.0,-15.68,-12.34
21:51:37.553,75160,12.76,6.34,6.25,0.0,-15.68,-12.34
21:51:37.613,75220,12.76,6.34,6.25,0.0,-15.68,-12.34
21:51:37.668,75275,12.76,6.34,6.25,0.0,-15.68,-12.34
21:51:37.728,75335,12.76,6.34,6.25,0.0,-15.68,-12.34
21:51:37.844,75451,12.76,6.34,6.25,0.0,-15.68,-12.34
21:51:37.953,75560,12.76,6.34,6.25,0.0,-15.68,-12.34
21:51:38.013,75620,12.76,6.34,6.25,0.0,-15.68,-12.34
21:51:38.068,75676,12.76,6.34,6.25,0.0,-15.68,-12.34
21:51:38.129,75736,12.76,6.34,6.25,0.0,-15.68,-12.34
21:51:38.238,75845,12.76,6.34,6.25,0.0,-15.68,-12.34
21:51:38.299,75906,12.76,6.34,6.25,0.0,-15.68,-12.34
21:51:38.354,75961,12.76,6.34,6.25,0.0,-15.68,-12.34
21:51:38.413,76020,12.76,6.34,6.25,0.0,-15.68,-12.34
21:51:38.529,76136,12.76,6.34,6.25,0.0,-15.68,-12.34
21:51:38.639,76246,12.76,6.34,6.25,0.0,-15.68,-12.34
21:51:38.699,76306,12.76,6.34,6.25,0.0,-15.68,-12.34
21:51:38.754,76361,12.76,6.34,6.25,0.0,-15.68,-12.34
21:51:38.814,76421,12.76,6.34,6.25,0.0,-15.68,-12.34
21:51:38.924,76531,12.76,6.34,6.25,0.0,-15.68,-12.34
21:51:38.985,76592,12.76,6.34,6.25,0.0,-15.68,-12.34
21:51:39.040,76647,12.76,6.34,6.25,0.0,-15.68,-12.34
21:51:39.100,76707,12.76,6.34,6.25,0.0,-15.68,-12.34
21:51:39.214,76821,12.76,6.34,6.25,0.0,-15.68,-12.34
21:51:39.325,76932,12.76,6.34,6.25,0.0,-15.68,-12.34
21:51:39.384,76991,12.76,6.34,6.25,0.0,-15.68,-12.34
21:51:39.440,77047,12.76,6.34,6.25,0.0,-15.68,-12.34
21:51:39.500,77107,12.76,6.34,6.25,0.0,-15.68,-12.34
21:51:39.610,77217,12.76,6.34,6.25,0.0,-15.68,-12.34
21:51:39.671,77278,12.76,6.34,6.25,0.0,-15.68,-12.34
21:51:39.726,77333,12.76,6.34,6.25,0.0,-15.68,-12.34
21:51:39.785,77392,12.76,6.34,6.25,0.0,-15.68,-12.34
21:51:39.901,77508,12.76,6.34,6.25,0.0,-15.68,-12.34
21:51:40.010,77617,12.76,6.34,6.25,0.0,-15.68,-12.34
21:51:40.071,77678,12.76,6.34,6.25,0.0,-15.68,-12.34
21:51:40.125,77732,12.76,6.34,6.25,0.0,-15.68,-12.34
21:51:40.185,77792,12.76,6.34,6.25,0.0,-15.68,-12.34
21:51:40.296,77903,12.76,6.34,6.25,0.0,-15.68,-12.34
21:51:40.356,77963,12.76,6.34,6.25,0.0,-15.68,-12.34
21:51:40.411,78018,12.76,6.34,6.25,0.0,-15.68,-12.34
21:51:40.471,78078,12.76,6.34,6.25,0.0,-15.68,-12.34
21:51:40.587,78194,12.76,6.34,6.25,0.0,-15.68,-12.34
21:51:40.697,78304,12.76,6.34,6.25,0.0,-15.68,-12.34
21:51:40.756,78363,12.76,6.34,6.25,0.0,-15.68,-12.34
21:51:40.812,78419,12.76,6.34,6.25,0.0,-15.68,-12.34
21:51:40.871,78478,12.76,6.34,6.25,0.0,-15.68,-12.34
21:51:40.982,78589,12.76,6.34,6.25,0.0,-15.68,-12.34
21:51:41.042,78649,12.76,6.34,6.25,0.0,-15.68,-12.34
21:51:41.097,78704,12.76,6.34,6.25,0.0,-15.68,-12.34
21:51:41.157,78764,12.76,6.34,6.25,0.0,-15.68,-12.34
21:51:41.272,78879,12.76,6.34,6.25,0.0,-15.68,-12.34
21:51:41.382,78989,12.76,6.34,6.25,0.0,-15.68,-12.34
21:51:41.442,79049,12.76,6.34,6.25,0.0,-15.68,-12.34
21:51:41.497,79104,12.76,6.34,6.25,0.0,-15.68,-12.34
21:51:41.557,79164,12.76,6.34,6.25,0.0,-15.68,-12.34
21:51:41.667,79274,12.76,6.34,6.25,0.0,-15.68,-12.34
21:51:41.728,79335,12.76,6.34,6.25,0.0,-15.68,-12.34
21:51:41.782,79389,12.76,6.34,6.25,0.0,-15.68,-12.34
21:51:41.842,79449,12.76,6.34,6.25,0.0,-15.68,-12.34
21:51:41.958,79565,12.76,6.34,6.25,0.0,-15.68,-12.34
21:51:42.068,79675,12.76,6.34,6.25,0.0,-15.68,-12.34
21:51:42.128,79735,12.76,6.34,6.25,0.0,-15.68,-12.34
21:51:42.183,79790,12.76,6.34,6.25,0.0,-15.68,-12.34
21:51:42.243,79850,12.76,6.34,6.25,0.0,-15.68,-12.34
21:51:42.353,79960,12.76,6.34,6.25,0.0,-15.68,-12.34
21:51:42.468,80075,12.76,6.34,6.25,0.0,-15.68,-12.34
21:51:42.528,80135,12.76,6.34,6.25,0.0,-15.68,-12.34
21:51:42.644,80251,12.76,6.34,6.25,0.0,-15.68,-12.34
21:51:42.753,80360,12.76,6.34,6.25,0.0,-15.68,-12.34
21:51:42.814,80421,12.76,6.34,6.25,0.0,-15.68,-12.34
21:51:42.869,80476,12.76,6.34,6.25,0.0,-15.68,-12.34
21:51:42.928,80535,12.76,6.34,6.25,0.0,-15.68,-12.34
21:51:43.039,80646,12.76,6.34,6.25,0.0,-15.68,-12.34
21:51:43.099,80706,12.76,6.34,6.25,0.0,-15.68,-12.34
21:51:43.154,80761,12.76,6.34,6.25,0.0,-15.68,-12.34
21:51:43.214,80821,12.76,6.34,6.25,0.0,-15.68,-12.34
21:51:43.329,80936,12.76,6.34,6.25,0.0,-15.68,-12.34
21:51:43.439,81046,12.76,6.34,6.25,0.0,-15.68,-12.34
21:51:43.499,81106,12.76,6.34,6.25,0.0,-15.68,-12.34
21:51:43.554,81161,12.76,6.34,6.25,0.0,-15.68,-12.34
21:51:43.614,81221,12.76,6.34,6.25,0.0,-15.68,-12.34
21:51:43.724,81331,12.76,6.34,6.25,0.0,-15.68,-12.34
21:51:43.785,81392,12.76,6.34,6.25,0.0,-15.68,-12.34
21:51:43.840,81447,12.76,6.34,6.25,0.0,-15.68,-12.34
21:51:43.900,81507,12.76,6.34,6.25,0.0,-15.68,-12.34
21:51:44.015,81622,12.76,6.34,6.25,0.0,-15.68,-12.34
21:51:44.125,81732,12.76,6.34,6.25,0.0,-15.68,-12.34
21:51:44.185,81792,12.76,6.34,6.25,0.0,-15.68,-12.34
21:51:44.240,81847,12.76,6.34,6.25,0.0,-15.68,-12.34
21:51:44.300,81907,12.76,6.34,6.25,0.0,-15.68,-12.34
21:51:44.411,82018,12.76,6.34,6.25,0.0,-15.68,-12.34
21:51:44.471,82078,12.76,6.34,6.25,0.0,-15.68,-12.34
21:51:44.586,82193,12.76,6.34,6.25,0.0,-15.68,-12.34
21:51:44.701,82308,12.76,6.34,6.25,0.0,-15.68,-12.34
21:51:44.810,82417,12.76,6.34,6.25,0.0,-15.68,-12.34
21:51:44.871,82478,12.76,6.34,6.25,0.0,-15.68,-12.34
21:51:44.926,82533,12.76,6.34,6.25,0.0,-15.68,-12.34
21:51:44.987,82594,12.76,6.34,6.25,0.0,-15.68,-12.34
21:51:45.096,82703,12.76,6.34,6.25,0.0,-15.68,-12.34
21:51:45.156,82763,12.76,6.34,6.25,0.0,-15.68,-12.34
21:51:45.211,82818,12.76,6.34,6.25,0.0,-15.68,-12.34
21:51:45.272,82879,12.76,6.34,6.25,0.0,-15.68,-12.34
21:51:45.387,82994,12.76,6.34,6.25,0.0,-15.68,-12.34
21:51:45.497,83104,12.76,6.34,6.25,0.0,-15.68,-12.34
21:51:45.557,83164,12.76,6.34,6.25,0.0,-15.68,-12.34
21:51:45.612,83219,12.76,6.34,6.25,0.0,-15.68,-12.34
21:51:45.671,83278,12.76,6.34,6.25,0.0,-15.68,-12.34
21:51:45.782,83389,12.76,6.34,6.25,0.0,-15.68,-12.34
21:51:45.842,83449,12.76,6.34,6.25,0.0,-15.68,-12.34
21:51:45.897,83504,12.76,6.34,6.25,0.0,-15.68,-12.34
21:51:45.958,83565,12.76,6.34,6.25,0.0,-15.68,-12.34
21:51:46.073,83680,12.76,6.34,6.25,0.0,-15.68,-12.34
21:51:46.243,83850,12.76,6.34,6.25,0.0,-15.68,-12.34
21:51:46.297,83904,12.76,6.34,6.25,0.0,-15.68,-12.34
21:51:46.358,83965,12.76,6.34,6.25,0.0,-15.68,-12.34
21:51:46.468,84075,12.76,6.34,6.25,0.0,-15.68,-12.34
21:51:46.528,84135,12.76,6.34,6.25,0.0,-15.68,-12.34
21:51:46.643,84250,12.76,6.34,6.25,0.0,-15.68,-12.34
21:51:46.758,84365,12.76,6.34,6.25,0.0,-15.68,-12.34
21:51:46.868,84475,12.76,6.34,6.25,0.0,-15.68,-12.34
21:51:46.928,84535,12.76,6.34,6.25,0.0,-15.68,-12.34
21:51:46.983,84590,12.76,6.34,6.25,0.0,-15.68,-12.34
21:51:47.043,84650,12.76,6.34,6.25,0.0,-15.68,-12.34
21:51:47.154,84761,12.76,6.34,6.25,0.0,-15.68,-12.34
21:51:47.214,84821,12.76,6.34,6.25,0.0,-15.68,-12.34
21:51:47.328,84935,12.76,6.34,6.25,0.0,-15.68,-12.34
21:51:47.444,85051,12.76,6.34,6.25,0.0,-15.68,-12.34
21:51:47.554,85161,12.76,6.34,6.25,0.0,-15.68,-12.34
21:51:47.614,85221,12.76,6.34,6.25,0.0,-15.68,-12.34
21:51:47.669,85276,12.76,6.34,6.25,0.0,-15.68,-12.34
21:51:47.729,85336,12.76,6.34,6.25,0.0,-15.68,-12.34
21:51:47.840,85447,12.76,6.34,6.25,0.0,-15.68,-12.34
21:51:47.900,85507,12.76,6.34,6.25,0.0,-15.68,-12.34
21:51:47.954,85561,12.76,6.34,6.25,0.0,-15.68,-12.34
21:51:48.015,85622,12.76,6.34,6.25,0.0,-15.68,-12.34
21:51:48.130,85737,12.76,6.34,6.25,0.0,-15.68,-12.34
21:51:48.240,85847,12.76,6.34,6.25,0.0,-15.68,-12.34
21:51:48.300,85907,12.76,6.34,6.25,0.0,-15.68,-12.34
21:51:48.354,85961,12.76,6.34,6.25,0.0,-15.68,-12.34
21:51:48.415,86022,12.76,6.34,6.25,0.0,-15.68,-12.34
21:51:48.525,86132,12.76,6.34,6.25,0.0,-15.68,-12.34
21:51:48.585,86192,12.76,6.34,6.25,0.0,-15.68,-12.34
21:51:48.640,86247,12.76,6.34,6.25,0.0,-15.68,-12.34
21:51:48.700,86308,12.76,6.34,6.25,0.0,-15.68,-12.34
21:51:48.815,86422,12.76,6.34,6.25,0.0,-15.68,-12.34
21:51:48.926,86533,12.76,6.34,6.25,0.0,-15.68,-12.34
21:51:48.986,86593,12.76,6.34,6.25,0.0,-15.68,-12.34
21:51:49.041,86648,12.76,6.34,6.25,0.0,-15.68,-12.34
21:51:49.101,86708,12.76,6.34,6.25,0.0,-15.68,-12.34
21:51:49.211,86818,12.76,6.34,6.25,0.0,-15.68,-12.34
21:51:49.270,86877,12.76,6.34,6.25,0.0,-15.68,-12.34
21:51:49.326,86933,12.76,6.34,6.25,0.0,-15.68,-12.34
21:51:49.386,86993,12.76,6.34,6.26,0.0,-15.68,-12.47
21:51:49.501,87108,12.75,6.34,6.27,0.0,-15.73,-12.33
21:51:49.611,87218,12.75,6.34,6.28,0.0,-15.61,-12.45
21:51:49.672,87279,12.75,6.34,6.28,0.0,-15.67,-12.42
21:51:49.726,87333,12.76,6.33,6.29,0.0,-15.67,-12.42
21:51:49.786,87393,12.76,6.34,6.28,0.0,-15.67,-12.30
21:51:49.897,87504,12.76,6.33,6.28,0.0,-15.66,-12.47
21:51:49.957,87564,12.76,6.32,6.29,0.0,-15.59,-12.42
21:51:50.012,87619,12.76,6.32,6.28,0.0,-15.58,-12.51
21:51:50.071,87678,12.77,6.32,6.28,0.0,-15.63,-12.40
21:51:50.187,87794,12.77,6.32,6.27,0.0,-15.64,-12.39
21:51:50.297,87904,12.77,6.32,6.27,0.0,-15.63,-12.39
21:51:50.357,87964,12.76,6.32,6.27,0.0,-15.63,-12.39
21:51:50.412,88019,12.76,6.32,6.27,0.0,-15.63,-12.39
21:51:50.472,88079,12.76,6.32,6.27,0.0,-15.63,-12.39
21:51:50.582,88189,12.76,6.32,6.27,0.0,-15.63,-12.39
21:51:50.643,88250,12.76,6.32,6.27,0.0,-15.58,-12.27
21:51:50.697,88304,12.76,6.32,6.26,0.0,-15.58,-12.26
21:51:50.757,88364,12.76,6.32,6.25,0.0,-15.62,-12.35
21:51:50.873,88480,12.75,6.32,6.26,0.0,-15.57,-12.42
21:51:50.982,88589,12.75,6.31,6.26,0.0,-15.55,-12.37
21:51:51.042,88649,12.76,6.30,6.27,0.0,-15.54,-12.44
21:51:51.097,88704,12.76,6.30,6.27,0.0,-15.59,-12.40
21:51:51.158,88765,12.76,6.30,6.27,0.0,-15.53,-12.28
21:51:51.268,88875,12.76,6.30,6.27,0.0,-15.58,-12.39
21:51:51.328,88935,12.76,6.30,6.26,0.0,-15.53,-12.27
21:51:51.383,88990,12.76,6.29,6.26,0.0,-15.57,-12.38
21:51:51.444,89051,12.76,6.29,6.26,0.0,-15.57,-12.37
21:51:51.558,89165,12.76,6.30,6.27,0.0,-15.65,-12.39
21:51:51.668,89275,12.77,6.30,6.27,0.0,-15.60,-12.40
21:51:51.729,89336,12.77,6.30,6.27,0.0,-15.60,-12.40
21:51:51.783,89390,12.77,6.30,6.27,0.0,-15.60,-12.40
21:51:51.843,89450,12.77,6.30,6.27,0.0,-15.60,-12.40
21:51:51.954,89561,12.77,6.30,6.27,0.0,-15.60,-12.40
21:51:52.013,89620,12.77,6.30,6.27,0.0,-15.60,-12.40
21:51:52.070,89677,12.77,6.30,6.27,0.0,-15.60,-12.40
21:51:52.129,89736,12.77,6.30,6.27,0.0,-15.60,-12.28
21:51:52.244,89851,12.76,6.30,6.27,0.0,-15.60,-12.38
21:51:52.355,89962,12.77,6.31,6.26,0.0,-15.66,-12.37
21:51:52.414,90021,12.76,6.31,6.26,0.0,-15.55,-12.38
21:51:52.469,90076,12.76,6.30,6.26,0.0,-15.53,-12.38
21:51:52.530,90137,12.76,6.30,6.26,0.0,-15.53,-12.38
21:51:52.639,90246,12.76,6.30,6.27,0.0,-15.58,-12.34
21:51:52.699,90306,12.76,6.30,6.26,0.0,-15.53,-12.38
21:51:52.754,90361,12.76,6.30,6.27,0.0,-15.53,-12.44
21:51:52.815,90422,12.76,6.30,6.27,0.0,-15.65,-12.44
21:51:52.930,90537,12.76,6.31,6.28,0.0,-15.61,-12.35
21:51:53.040,90647,12.76,6.31,6.27,0.0,-15.60,-12.40
21:51:53.099,90706,12.75,6.31,6.28,0.0,-15.66,-12.46
21:51:53.155,90762,12.75,6.31,6.27,0.0,-15.66,-12.28
21:51:53.215,90822,12.75,6.31,6.27,0.0,-15.61,-12.44
21:51:53.325,90932,12.76,6.31,6.27,0.0,-15.62,-12.34
21:51:53.386,90993,12.76,6.31,6.28,0.0,-15.67,-12.40
21:51:53.441,91048,12.76,6.31,6.28,0.0,-15.56,-12.41
21:51:53.500,91107,12.76,6.30,6.27,0.0,-15.55,-12.35
21:51:53.615,91222,12.75,6.31,6.28,0.0,-15.66,-12.42
21:51:53.725,91332,12.74,6.31,6.29,0.0,-15.62,-12.48
21:51:53.786,91393,12.74,6.32,6.28,0.0,-15.63,-12.42
21:51:53.841,91448,12.74,6.32,6.28,0.0,-15.63,-12.36
21:51:53.901,91508,12.75,6.32,6.28,0.0,-15.58,-12.35
21:51:54.012,91619,12.75,6.32,6.27,0.0,-15.69,-12.34
21:51:54.071,91678,12.75,6.33,6.28,0.0,-15.64,-12.46
21:51:54.126,91733,12.76,6.32,6.28,0.0,-15.64,-12.41
21:51:54.187,91794,12.77,6.32,6.28,0.0,-15.69,-12.41
21:51:54.301,91908,12.77,6.33,6.28,0.0,-15.65,-12.41
21:51:54.411,92018,12.77,6.33,6.28,0.0,-15.65,-12.41
21:51:54.471,92078,12.77,6.33,6.28,0.0,-15.65,-12.41
21:51:54.527,92134,12.77,6.33,6.28,0.0,-15.65,-12.41
21:51:54.586,92193,12.77,6.33,6.28,0.0,-15.65,-12.41
21:51:54.697,92304,12.77,6.33,6.28,0.0,-15.65,-12.41
21:51:54.757,92364,12.77,6.33,6.28,0.0,-15.65,-12.41
21:51:54.812,92419,12.77,6.33,6.28,0.0,-15.65,-12.41
21:51:54.872,92479,12.77,6.33,6.28,0.0,-15.65,-12.41
21:51:54.987,92594,12.77,6.33,6.28,0.0,-15.65,-12.41
21:51:55.097,92704,12.77,6.33,6.28,0.0,-15.65,-12.41
21:51:55.157,92764,12.77,6.33,6.28,0.0,-15.65,-12.41
21:51:55.213,92820,12.77,6.33,6.28,0.0,-15.65,-12.41
21:51:55.272,92879,12.77,6.33,6.28,0.0,-15.65,-12.41
21:51:55.383,92990,12.77,6.33,6.28,0.0,-15.65,-12.41
21:51:55.443,93050,12.77,6.33,6.28,0.0,-15.65,-12.41
21:51:55.498,93105,12.77,6.33,6.28,0.0,-15.65,-12.41
21:51:55.558,93165,12.77,6.33,6.28,0.0,-15.65,-12.41
21:51:55.673,93280,12.77,6.33,6.28,0.0,-15.65,-12.41
21:51:55.784,93391,12.77,6.33,6.28,0.0,-15.65,-12.41
21:51:55.843,93450,12.77,6.33,6.28,0.0,-15.65,-12.41
21:51:55.898,93505,12.77,6.33,6.28,0.0,-15.65,-12.41
21:51:55.958,93565,12.77,6.33,6.28,0.0,-15.65,-12.41
21:51:56.068,93675,12.77,6.33,6.28,0.0,-15.65,-12.41
21:51:56.129,93736,12.77,6.33,6.28,0.0,-15.65,-12.41
21:51:56.184,93791,12.77,6.33,6.28,0.0,-15.65,-12.41
21:51:56.243,93850,12.77,6.33,6.28,0.0,-15.65,-12.41
21:51:56.358,93965,12.77,6.33,6.28,0.0,-15.65,-12.41
21:51:56.469,94076,12.77,6.33,6.28,0.0,-15.65,-12.41
21:51:56.529,94136,12.77,6.33,6.28,0.0,-15.65,-12.41
21:51:56.584,94191,12.77,6.33,6.28,0.0,-15.65,-12.41
21:51:56.644,94251,12.77,6.33,6.28,0.0,-15.65,-12.41
21:51:56.755,94362,12.77,6.33,6.28,0.0,-15.65,-12.41
