Timestamp,ElapsedMillis,Yaw,Pitch,Roll,Altitude,YawServo,PitchServo
15:19:20.295,16975,1.59,-3.36,-0.50,812.3,0.00,0.00
15:19:20.352,17032,0.23,10.68,-0.00,0.1,0.95,-2.01
15:19:20.409,17089,0.23,10.68,-0.00,-0.1,0.13,6.53
15:19:20.467,17147,0.23,10.68,0.00,-0.0,0.07,6.58
15:19:20.524,17204,0.23,10.68,-0.00,-0.0,0.16,6.65
15:19:20.581,17261,0.24,10.69,-0.00,0.0,0.16,6.73
15:19:20.638,17319,0.24,10.69,0.00,0.1,0.17,6.80
15:19:20.695,17375,0.22,10.69,0.00,0.0,0.08,6.80
15:19:20.753,17433,0.23,10.61,-0.01,-0.0,0.17,6.70
15:19:20.810,17490,0.20,10.25,-0.00,0.1,0.09,5.94
15:19:20.866,17546,0.09,9.67,0.00,0.0,-0.17,4.99
15:19:20.924,17604,-0.16,8.74,-0.01,-0.1,-0.61,3.84
15:19:20.981,17661,-0.56,7.55,-0.02,-0.1,-1.22,2.47
15:19:21.039,17719,-1.14,6.18,-0.03,-0.1,-2.07,1.02
15:19:21.097,17777,-1.98,4.42,-0.05,0.0,-3.12,-0.65
15:19:21.153,17833,-2.96,2.53,-0.07,0.0,-4.12,-2.22
15:19:21.210,17890,-4.01,0.42,-0.08,-0.0,-4.98,-3.96
15:19:21.267,17948,-4.91,-1.72,-0.07,0.0,-5.36,-5.69
15:19:21.324,18005,-5.59,-4.06,-0.07,-0.0,-5.17,-7.08
15:19:21.382,18062,-5.72,-6.13,-0.06,-0.2,-4.07,-8.10
15:19:21.439,18119,-5.22,-7.87,-0.11,-0.1,-2.27,-8.45
15:19:21.496,18176,-4.06,-9.28,-0.06,-0.1,-0.19,-8.37
15:19:21.553,18233,-2.16,-10.01,-0.06,-0.1,2.90,-7.42
15:19:21.610,18291,0.38,-10.05,-0.04,-0.0,6.20,-5.80
15:19:21.668,18348,3.35,-9.52,-0.03,-0.0,9.00,-4.01
15:19:21.725,18405,6.59,-8.48,-0.02,0.0,11.27,-2.42
15:19:21.782,18462,9.55,-7.07,0.00,-0.0,13.23,-0.39
15:19:21.839,18519,12.56,-5.14,-0.01,-0.1,14.68,1.71
15:19:21.896,18576,15.41,-2.84,-0.02,-0.0,15.95,3.82
15:19:21.953,18634,17.78,-0.35,-0.00,-0.1,16.75,6.17
15:19:22.010,18690,19.70,2.19,-0.01,-0.0,17.09,8.11
15:19:22.068,18748,21.36,4.91,0.04,0.0,17.24,9.76
15:19:22.125,18805,22.41,7.41,0.04,-0.1,16.64,10.88
15:19:22.183,18863,22.77,9.49,0.06,-0.1,15.40,11.49
15:19:22.240,18920,22.54,11.41,0.06,-0.1,13.96,11.95
15:19:22.297,18977,21.57,12.97,0.07,-0.0,11.81,12.06
15:19:22.354,19034,20.02,13.99,0.05,-0.1,9.20,11.81
15:19:22.411,19091,17.73,14.66,0.05,-0.2,6.19,11.22
15:19:22.468,19148,14.75,14.95,0.04,-0.1,3.24,10.58
15:19:22.525,19205,11.47,14.86,0.02,-0.0,0.08,9.70
15:19:22.583,19263,7.88,14.47,0.01,0.0,-2.71,8.80
15:19:22.640,19320,4.17,13.82,-0.02,0.0,-4.89,7.92
15:19:22.697,19377,0.60,13.02,-0.09,-0.0,-6.53,7.17
15:19:22.754,19434,-2.24,12.26,-0.15,0.1,-7.65,6.52
15:19:22.811,19491,-5.03,11.45,-0.20,-0.0,-8.50,6.16
15:19:22.869,19549,-7.56,10.68,-0.25,-0.0,-9.34,5.90
15:19:22.926,19607,-9.43,10.03,-0.28,-0.1,-9.41,5.74
15:19:22.983,19663,-10.95,9.32,-0.29,-0.1,-9.20,5.38
15:19:23.040,19720,-11.59,8.51,-0.31,-0.0,-7.69,4.77
15:19:23.098,19778,-11.26,7.58,-0.30,0.0,-5.21,3.84
15:19:23.155,19835,-10.01,6.56,-0.27,-0.0,-2.22,3.04
15:19:23.212,19892,-8.17,5.40,-0.24,0.1,0.35,2.09
15:19:23.269,19949,-5.88,4.12,-0.17,0.1,2.72,1.11
15:19:23.325,20005,-3.71,2.98,-0.14,0.0,4.27,0.49
15:19:23.384,20064,-1.44,1.80,-0.11,0.1,5.34,-0.01
15:19:23.441,20121,0.39,0.84,-0.10,0.1,5.56,-0.13
15:19:23.498,20178,1.69,0.02,-0.09,0.0,5.21,-0.29
15:19:23.556,20236,2.43,-0.72,-0.10,-0.0,4.24,-0.56
15:19:23.612,20292,2.68,-1.58,-0.11,0.0,3.26,-1.27
15:19:23.670,20350,2.42,-2.64,-0.11,0.0,1.84,-2.44
15:19:23.726,20406,1.84,-3.83,-0.11,-0.0,0.61,-3.63
15:19:23.784,20464,0.97,-5.28,-0.10,-0.1,-0.44,-4.85
15:19:23.841,20521,0.09,-6.62,-0.09,0.0,-1.23,-5.80
15:19:23.898,20578,-0.76,-7.67,-0.11,-0.1,-1.61,-5.80
15:19:23.955,20635,-1.49,-8.21,-0.09,-0.0,-1.76,-4.89
15:19:24.012,20692,-1.89,-7.85,-0.08,-0.1,-1.32,-2.69
15:19:24.069,20749,-1.99,-6.63,-0.08,-0.1,-0.64,0.28
15:19:24.127,20807,-1.92,-4.55,-0.07,-0.1,-0.10,3.50
15:19:24.184,20864,-1.75,-1.73,-0.08,0.0,0.17,6.22
15:19:24.241,20921,-1.57,0.86,-0.08,0.1,0.40,8.89
15:19:24.299,20979,-1.32,4.08,-0.05,-0.0,0.63,11.28
15:19:24.356,21036,-1.07,7.37,-0.05,-0.1,0.79,13.41
15:19:24.413,21093,-0.84,10.31,-0.01,-0.1,0.91,15.06
15:19:24.470,21150,-0.63,12.93,0.00,-0.0,1.02,16.05
15:19:24.527,21207,-0.45,15.41,0.04,-0.0,1.01,16.85
15:19:24.585,21265,-0.37,17.25,0.02,-0.1,0.85,16.83
15:19:24.641,21321,-0.53,18.21,0.02,-0.1,0.20,15.47
15:19:24.699,21379,-0.87,18.34,-0.02,-0.1,-0.43,13.58
15:19:24.757,21437,-1.39,17.40,-0.02,0.0,-1.18,10.64
15:19:24.813,21493,-1.90,15.74,-0.07,-0.1,-1.71,7.43
15:19:24.870,21550,-2.43,13.12,-0.09,0.1,-1.94,3.88
15:19:24.928,21608,-2.89,9.88,-0.11,-0.0,-2.07,0.68
15:19:24.984,21664,-3.13,6.61,-0.10,-0.2,-1.82,-2.06
15:19:25.042,21722,-3.15,3.10,-0.11,-0.0,-1.27,-4.15
15:19:25.100,21780,-2.79,-0.10,-0.15,-0.0,-0.25,-5.36
15:19:25.156,21836,-1.93,-2.92,-0.11,0.0,1.32,-5.98
15:19:25.214,21894,-0.74,-4.80,-0.12,0.0,3.31,-5.86
15:19:25.271,21951,1.01,-6.36,-0.13,-0.0,5.39,-5.51
15:20:13.777,70457,-11.75,10.61,-2.23,-0.1,6.18,-5.19
15:20:13.833,70513,-0.50,16.01,-0.01,-0.0,-7.05,6.37
15:20:13.891,70571,-0.50,15.98,0.01,-0.1,-0.37,9.72
15:20:13.949,70629,-0.47,15.93,0.01,-0.1,-0.09,9.67
15:20:14.006,70686,-0.46,15.89,-0.01,-0.2,-0.20,9.77
15:20:14.062,70742,-0.43,15.81,-0.01,-0.1,-0.21,9.73
15:20:14.120,70800,-0.20,15.61,-0.04,-0.2,0.35,9.44
15:20:14.177,70857,0.54,15.19,-0.02,-0.1,1.96,8.78
15:20:14.234,70914,1.97,14.56,-0.00,-0.1,4.24,8.03
15:20:14.292,70972,3.89,13.82,0.03,-0.0,7.10,7.24
15:20:14.349,71029,6.41,12.87,0.07,-0.1,9.73,6.34
15:20:14.406,71086,9.18,11.73,0.07,-0.2,11.93,5.42
15:20:14.463,71143,11.77,10.52,0.06,-0.1,13.68,4.31
15:20:14.521,71201,14.27,9.17,0.06,-0.2,15.21,3.14
15:20:14.577,71257,16.95,7.58,0.04,-0.2,16.77,1.94
15:20:14.634,71314,19.42,5.91,0.00,-0.1,18.11,0.65
15:20:14.692,71372,21.68,4.23,-0.03,-0.0,19.22,-0.48
15:20:14.749,71429,23.83,2.46,-0.06,-0.1,19.99,-1.50
15:20:14.806,71486,25.70,0.73,-0.09,-0.1,20.68,-2.38
15:20:14.864,71544,27.00,-0.66,-0.10,-0.1,20.64,-2.87
15:20:14.921,71601,28.00,-1.95,-0.13,-0.1,20.46,-3.19
15:20:14.978,71658,28.66,-3.11,-0.13,-0.1,20.14,-3.55
15:20:15.035,71715,28.82,-3.92,-0.12,-0.0,19.28,-3.37
15:20:15.092,71772,28.53,-4.48,-0.06,-0.1,18.11,-2.95
15:20:15.149,71829,27.80,-4.70,-0.04,-0.0,16.91,-2.37
15:20:15.206,71886,26.58,-4.58,-0.01,-0.0,15.18,-1.48
15:20:15.264,71944,25.05,-4.20,0.00,-0.1,13.31,-0.57
15:20:15.322,72002,23.07,-3.67,0.02,-0.2,11.40,0.07
15:20:15.378,72058,20.55,-3.15,0.05,-0.1,8.88,0.36
15:20:15.436,72116,17.85,-2.77,0.09,-0.0,6.27,0.36
15:20:15.492,72172,14.59,-2.44,0.09,0.0,3.78,0.31
15:20:15.550,72230,11.16,-2.27,0.13,0.0,1.24,0.03
15:20:15.607,72287,7.50,-2.24,0.13,0.0,-1.17,-0.29
15:20:15.664,72344,4.08,-2.27,0.14,0.1,-3.03,-0.53
15:20:15.721,72401,0.94,-2.28,0.12,0.1,-4.95,-0.50
15:20:15.779,72459,-2.26,-2.20,0.12,0.0,-6.43,-0.25
15:20:15.836,72516,-4.99,-1.98,0.11,-0.1,-7.40,0.22
15:20:15.893,72573,-7.58,-1.50,0.09,-0.1,-8.06,0.99
15:20:15.951,72631,-9.45,-0.67,0.07,-0.1,-7.84,2.32
15:20:16.007,72687,-10.68,0.59,0.07,-0.1,-7.12,4.21
15:20:16.065,72745,-11.38,2.32,0.05,-0.1,-6.07,6.24
15:20:16.122,72802,-11.57,4.26,0.06,-0.0,-5.17,8.13
15:20:16.178,72858,-11.35,6.32,0.07,-0.1,-4.02,9.88
15:20:16.235,72915,-10.77,8.51,0.10,-0.1,-2.83,11.38
15:20:16.293,72973,-9.84,10.78,0.15,-0.0,-1.66,12.73
15:20:16.350,73030,-8.72,12.76,0.20,-0.1,-0.26,13.87
15:20:16.408,73088,-7.31,14.73,0.27,-0.1,1.01,14.75
15:20:16.465,73145,-5.72,16.60,0.33,-0.0,2.29,15.62
15:20:16.522,73202,-4.18,18.11,0.38,0.0,3.35,16.04
15:20:16.580,73260,-2.75,19.26,0.45,-0.0,4.08,16.02
15:20:16.637,73317,-1.36,20.16,0.50,-0.0,4.60,15.96
15:20:16.694,73374,-0.20,20.51,0.54,-0.1,4.61,15.10
15:20:16.751,73431,0.54,20.30,0.55,-0.1,4.46,13.66
15:20:16.807,73487,1.15,19.53,0.55,-0.1,4.25,12.06
15:20:16.865,73545,1.53,18.14,0.53,0.0,3.89,9.92
15:20:16.923,73603,1.72,16.36,0.49,0.0,3.63,7.53
15:20:16.980,73660,1.81,14.07,0.46,-0.0,3.39,5.07
15:20:17.037,73717,1.85,11.30,0.44,-0.0,3.28,2.65
15:20:17.094,73774,1.85,8.40,0.43,0.0,3.18,0.32
15:20:17.152,73832,1.88,5.27,0.42,-0.0,3.27,-2.06
15:20:17.208,73888,1.97,1.93,0.40,-0.0,3.47,-4.19
15:20:17.265,73945,2.17,-1.37,0.40,-0.0,3.81,-5.97
15:20:17.322,74002,2.45,-4.05,0.40,-0.0,4.32,-7.26
15:20:17.380,74060,2.85,-6.74,0.42,-0.1,4.80,-8.24
15:20:17.437,74117,3.36,-9.21,0.45,-0.2,5.35,-9.13
15:20:17.494,74174,3.91,-11.06,0.47,-0.1,5.91,-9.28
15:20:17.552,74232,4.57,-12.65,0.50,-0.0,6.48,-9.30
15:20:17.608,74289,5.28,-13.67,0.50,0.0,7.06,-8.67
15:20:17.666,74346,6.01,-14.09,0.53,-0.1,7.69,-7.69
15:20:17.723,74403,6.82,-13.92,0.52,-0.2,8.30,-6.17
15:20:17.780,74460,7.65,-13.26,0.53,-0.1,8.93,-4.66
15:20:17.837,74517,8.51,-11.92,0.53,-0.1,9.55,-2.29
15:20:17.895,74575,9.31,-10.16,0.51,-0.0,10.08,0.01
15:20:17.952,74632,10.18,-7.83,0.51,0.0,10.62,2.24
15:20:18.009,74690,10.94,-5.20,0.50,-0.0,10.94,4.71
15:20:18.066,74746,11.56,-2.35,0.51,0.1,11.08,6.98
15:20:18.123,74803,11.99,0.39,0.51,0.0,10.99,8.70
15:20:18.181,74861,12.25,3.11,0.52,0.2,10.80,10.14
15:20:18.238,74918,12.29,5.65,0.55,0.1,10.36,11.23
15:20:18.295,74975,12.18,7.78,0.58,0.0,9.94,11.86
15:20:18.352,75032,11.91,9.79,0.60,-0.0,9.54,12.40
15:20:18.410,75090,11.47,11.29,0.61,-0.0,8.86,12.54
15:20:18.466,75146,10.87,12.52,0.62,0.0,8.20,12.45
15:20:18.524,75204,10.18,13.53,0.66,-0.1,7.70,12.52
15:20:18.580,75260,9.43,14.35,0.65,0.0,7.06,12.65
15:20:18.638,75318,8.67,15.12,0.66,-0.0,6.55,13.11
15:20:18.696,75376,7.88,15.90,0.66,0.0,6.11,13.62
15:20:18.753,75434,7.07,16.66,0.69,-0.0,5.61,14.17
15:21:13.745,130425,-0.08,0.55,0.46,812.5,0.00,0.00
15:21:13.802,130482,1.76,16.07,0.01,-0.1,-0.05,0.33
15:21:13.859,130539,1.77,16.06,0.01,-0.1,1.08,9.77
15:21:13.916,130596,1.78,16.04,0.01,0.1,1.08,9.88
15:21:13.973,130653,1.79,16.04,-0.01,-0.0,1.15,9.95
15:21:14.031,130711,1.79,16.04,-0.01,-0.0,1.13,10.05
15:21:14.088,130768,1.80,16.03,-0.03,-0.1,1.17,10.11
15:21:14.145,130825,1.81,16.02,-0.02,-0.1,1.16,10.22
15:21:14.202,130882,1.81,16.02,-0.04,-0.0,1.17,10.32
15:21:14.259,130939,1.77,15.84,-0.04,-0.1,1.08,9.92
15:21:14.316,130996,1.40,15.17,-0.05,-0.1,0.46,8.91
15:21:14.373,131053,0.80,14.27,-0.08,-0.0,-1.03,7.13
15:21:14.431,131111,0.15,13.14,-0.09,0.1,-1.36,6.30
15:21:14.488,131168,-0.50,11.93,-0.12,0.1,-1.68,5.55
15:21:14.545,131225,-0.98,10.71,-0.14,0.1,-1.76,4.61
15:21:14.602,131282,-1.13,9.53,-0.15,0.0,-1.02,3.97
15:21:14.659,131339,-0.91,8.17,-0.14,-0.1,-0.10,3.05
15:21:14.717,131397,-0.21,6.76,-0.14,-0.0,1.55,1.86
15:21:14.774,131454,0.95,5.07,-0.13,0.0,3.41,0.47
15:21:14.831,131511,2.24,3.11,-0.15,0.1,4.45,-1.20
15:21:14.888,131568,3.36,0.96,-0.16,-0.0,4.80,-2.89
15:21:14.946,131626,3.95,-0.90,-0.17,0.0,4.19,-3.95
15:21:15.002,131682,4.00,-2.77,-0.17,-0.0,2.78,-4.90
15:21:15.061,131741,3.55,-4.67,-0.17,-0.0,1.43,-5.92
15:21:15.117,131797,2.73,-6.27,-0.16,-0.0,-0.14,-6.51
15:21:15.174,131854,1.76,-7.69,-0.17,-0.0,-1.10,-6.82
15:21:15.232,131912,0.95,-8.74,-0.17,-0.1,-1.21,-6.61
15:21:15.289,131969,0.44,-9.29,-0.17,-0.1,-0.74,-5.76
15:21:15.346,132026,0.22,-9.18,-0.19,-0.1,-0.33,-4.35
15:21:15.403,132083,0.22,-8.29,-0.19,-0.1,0.25,-2.01
15:21:15.460,132140,0.58,-6.33,-0.21,-0.0,1.32,1.58
15:21:15.518,132198,1.17,-3.88,-0.19,-0.0,2.41,4.92
15:21:15.575,132255,1.90,-1.10,-0.19,-0.0,3.11,6.93
15:21:15.631,132311,2.41,1.14,-0.16,0.2,3.02,7.28
15:21:15.689,132369,2.74,2.66,-0.17,0.1,2.67,6.38
15:21:15.747,132427,3.19,3.33,-0.11,0.1,3.17,4.99
15:21:15.803,132483,4.32,3.63,-0.11,0.1,5.32,4.10
15:21:15.861,132541,6.35,3.45,-0.12,0.1,8.72,2.85
15:21:15.918,132598,8.96,3.10,-0.13,0.1,12.37,2.09
15:21:15.976,132656,11.99,2.51,-0.17,0.1,14.71,1.38
15:21:16.032,132712,14.33,1.69,-0.21,0.0,14.99,0.22
15:21:16.089,132769,15.83,0.84,-0.21,0.1,14.13,-0.45
15:21:16.147,132827,16.11,-0.01,-0.24,0.1,11.25,-0.88
15:21:16.204,132884,15.11,-0.73,-0.24,0.1,7.90,-1.09
15:21:16.261,132941,12.88,-1.22,-0.24,-0.1,3.46,-0.90
15:21:16.318,132998,10.90,-1.36,-0.23,-0.0,2.07,-0.71
15:21:16.375,133055,6.21,-1.18,-0.20,-0.0,-3.50,0.63
15:21:16.433,133113,2.88,-0.74,-0.20,-0.0,-5.79,1.71
15:21:16.490,133170,-0.33,-0.15,-0.18,0.1,-7.14,2.46
15:21:16.547,133227,-3.02,0.43,-0.19,0.1,-7.50,2.77
15:21:16.604,133284,-4.29,0.92,-0.20,-0.1,-5.16,2.86
15:21:16.661,133341,-4.21,1.47,-0.19,-0.0,-1.77,3.41
15:21:16.718,133398,-3.02,2.28,-0.21,-0.1,1.79,4.37
15:21:16.776,133456,-0.76,3.70,-0.27,0.0,4.80,6.10
15:21:16.833,133513,1.95,5.32,-0.20,-0.0,9.12,8.68
15:21:16.891,133571,5.93,7.25,-0.14,-0.0,13.69,10.10
15:21:16.947,133627,9.79,8.70,-0.09,-0.0,15.98,10.08
15:21:17.004,133684,12.43,9.34,-0.13,-0.1,15.57,8.75
15:21:17.062,133742,13.74,9.29,-0.12,-0.2,12.95,6.94
15:21:17.119,133799,14.09,8.83,-0.15,-0.1,10.81,5.72
15:21:17.176,133856,13.62,8.30,-0.13,0.0,8.50,5.13
15:21:17.234,133914,12.31,7.46,-0.19,0.0,5.94,4.12
15:21:17.291,133971,10.11,6.11,-0.19,-0.1,2.66,2.30
15:21:17.348,134028,7.14,4.10,-0.22,-0.2,-0.87,-0.36
15:21:17.405,134085,4.29,2.04,-0.22,-0.1,-3.44,-2.53
15:21:17.462,134142,1.63,-0.04,-0.26,-0.1,-4.18,-3.57
15:21:17.519,134199,-0.40,-1.95,-0.20,0.0,-3.79,-4.14
15:21:17.576,134257,-1.45,-3.48,-0.24,0.2,-2.28,-4.44
15:21:17.633,134313,-1.83,-5.10,-0.22,0.1,-0.62,-5.30
15:21:17.691,134371,-1.38,-6.66,-0.24,0.1,1.33,-6.13
15:21:17.748,134428,0.06,-8.40,-0.24,0.2,4.54,-7.43
15:21:17.805,134485,1.80,-10.06,-0.27,-0.1,7.13,-9.01
15:21:17.863,134543,3.84,-11.95,-0.24,-0.1,8.77,-10.40
15:21:17.919,134599,5.88,-13.56,-0.30,0.1,9.97,-10.74
15:21:18.034,134714,9.64,-14.95,-0.35,0.1,12.08,-9.03
15:21:18.091,134771,12.08,-14.32,-0.34,0.0,14.57,-6.39
15:21:18.149,134829,14.71,-12.84,-0.36,-0.1,16.69,-3.54
15:21:18.206,134886,17.02,-10.88,-0.40,-0.1,18.04,-0.71
15:21:18.264,134944,19.06,-8.30,-0.43,-0.1,18.55,1.99
15:21:18.320,135000,20.24,-5.31,-0.44,-0.2,17.38,4.71
15:21:18.377,135057,20.31,-2.15,-0.45,-0.1,14.75,7.48
15:21:18.435,135115,19.27,1.49,-0.45,-0.0,11.91,10.08
15:21:18.491,135171,17.02,4.91,-0.43,0.1,7.55,12.18
15:21:18.549,135229,13.77,8.01,-0.40,-0.1,3.01,13.44
15:21:18.606,135286,9.90,10.87,-0.41,-0.1,-0.45,14.25
15:21:18.663,135343,6.18,13.09,-0.51,-0.0,-2.95,14.37
15:21:18.721,135401,3.31,14.85,-0.51,-0.1,-2.87,14.46
15:21:18.778,135458,1.43,16.36,-0.52,-0.0,-1.26,14.69
15:21:18.834,135514,0.71,17.64,-0.49,0.1,0.91,14.86
15:21:18.891,135571,0.83,18.26,-0.50,0.0,3.31,14.21
15:21:18.949,135629,1.19,18.11,-0.49,0.0,4.28,12.27
15:21:19.006,135686,1.36,17.09,-0.50,-0.0,4.02,9.77
15:21:19.063,135743,1.13,15.17,-0.53,-0.0,2.90,6.25
15:21:19.178,135858,0.25,9.37,-0.57,-0.1,1.68,-0.16
15:21:19.235,135915,0.20,5.82,-0.59,-0.0,2.50,-3.00
15:21:19.292,135972,0.59,2.29,-0.61,-0.1,3.90,-5.68
15:21:19.349,136029,1.39,-1.52,-0.63,-0.1,5.32,-8.11
15:21:19.407,136087,2.34,-5.10,-0.65,0.0,6.29,-9.60
15:21:19.463,136143,3.10,-7.72,-0.67,-0.0,6.63,-9.80
15:21:19.521,136201,3.48,-9.57,-0.68,0.1,6.00,-8.75
15:21:19.578,136258,3.38,-10.24,-0.68,-0.1,4.65,-6.60
15:21:19.636,136316,3.32,-9.78,-0.69,-0.1,4.49,-3.49
15:21:19.692,136372,3.84,-8.15,-0.76,-0.2,6.09,0.30
15:21:19.750,136430,5.01,-5.59,-0.75,-0.1,8.34,3.82
15:21:19.807,136487,6.58,-2.40,-0.69,-0.0,10.53,7.32
15:21:19.864,136544,7.10,0.08,-0.61,-0.0,8.89,7.78
15:21:19.921,136601,6.72,1.68,-0.63,0.0,6.04,6.91
15:21:19.978,136658,6.36,2.90,-0.58,0.2,5.75,6.32
15:21:20.035,136715,6.99,3.41,-0.63,0.2,8.28,5.05
15:21:20.092,136772,9.04,3.61,-0.59,0.2,12.78,4.33
15:21:20.150,136830,12.12,3.27,-0.57,0.1,17.45,3.01
15:21:20.207,136887,15.32,2.45,-0.58,0.1,19.72,1.27
15:21:20.265,136945,17.51,1.58,-0.59,-0.0,19.99,0.30
15:21:20.321,137001,18.95,0.49,-0.63,-0.0,18.69,-0.71
15:21:20.379,137059,18.81,-0.52,-0.65,0.1,14.99,-1.20
15:21:20.436,137116,17.17,-1.17,-0.65,0.0,9.97,-0.84
15:21:20.493,137173,14.03,-1.50,-0.63,0.1,5.29,-0.21
15:21:20.550,137230,10.16,-1.34,-0.63,0.1,0.77,1.01
15:21:20.608,137288,6.10,-0.84,-0.62,0.0,-2.43,2.25
15:21:20.665,137345,2.08,-0.18,-0.64,0.1,-4.65,3.05
15:21:20.722,137402,-1.66,0.41,-0.63,0.0,-6.46,3.32
15:21:20.779,137459,-4.61,0.93,-0.67,0.1,-6.53,3.40
15:21:20.837,137517,-6.10,1.45,-0.67,-0.0,-3.87,3.77
15:21:20.893,137573,-6.41,1.97,-0.65,0.0,-1.26,4.02
15:21:20.951,137631,-5.72,2.53,-0.66,0.1,1.70,4.44
15:21:21.008,137688,-3.88,3.61,-0.67,0.0,5.42,6.24
15:21:21.065,137745,-1.13,5.28,-0.60,-0.0,9.13,8.44
15:21:21.123,137803,1.91,7.29,-0.49,-0.1,12.43,11.03
15:21:21.180,137860,4.11,8.90,-0.45,-0.1,12.17,11.37
15:21:21.236,137916,5.17,10.08,-0.28,-0.0,9.50,10.78
15:21:21.294,137974,4.88,10.77,-0.30,-0.0,6.71,10.01
15:21:21.351,138031,3.99,11.22,-0.30,-0.0,3.88,9.78
15:21:21.408,138088,2.87,12.10,-0.34,0.0,2.86,11.21
15:21:21.466,138146,2.24,13.51,-0.40,0.0,3.36,13.21
15:21:21.523,138203,2.54,15.32,-0.35,0.1,5.86,15.75
15:21:21.581,138261,3.28,17.15,-0.27,0.1,7.68,17.23
15:21:21.637,138317,4.12,18.76,-0.24,-0.0,8.39,17.64
15:21:21.694,138374,4.50,19.28,-0.22,0.0,7.65,15.64
15:21:21.752,138432,4.42,18.56,-0.19,0.0,6.49,12.43
15:21:21.809,138489,4.23,16.67,-0.18,0.1,6.01,8.63
15:21:21.867,138547,4.33,13.70,-0.23,0.2,6.63,4.44
15:21:21.923,138603,4.75,10.39,-0.25,0.0,7.87,0.66
15:21:21.981,138661,5.28,6.41,-0.33,0.1,8.49,-3.06
15:21:22.037,138717,5.78,2.08,-0.35,0.1,8.74,-6.04
15:21:22.094,138774,6.14,-1.72,-0.38,0.1,8.73,-7.96
15:21:22.152,138832,6.36,-5.33,-0.41,0.1,8.47,-8.98
15:21:22.209,138889,6.42,-8.26,-0.45,0.1,8.18,-9.32
15:21:22.266,138946,6.46,-10.11,-0.45,0.1,8.17,-7.89
15:21:22.324,139004,6.43,-10.53,-0.46,0.0,8.05,-5.21
15:21:22.381,139061,6.32,-9.88,-0.46,0.1,7.83,-2.11
15:21:22.438,139118,6.06,-7.84,-0.46,0.1,7.37,2.31
15:21:22.496,139176,5.52,-4.71,-0.43,0.1,6.57,6.30
15:21:22.552,139232,4.92,-1.78,-0.39,0.1,5.87,8.68
15:21:22.609,139289,4.69,0.39,-0.34,0.1,6.23,8.60
15:21:22.667,139347,4.92,1.34,-0.33,0.1,7.05,8.04
15:21:22.724,139404,6.70,2.00,-0.33,0.1,11.54,5.22
15:21:22.781,139461,8.63,1.86,-0.38,0.1,14.12,3.46
15:21:22.838,139518,11.00,1.45,-0.43,-0.0,16.82,2.50
15:21:22.895,139575,13.10,1.07,-0.50,-0.1,17.90,2.22
15:21:22.953,139633,14.81,0.78,-0.58,-0.0,17.90,2.33
15:21:23.010,139690,15.09,0.65,-0.56,-0.1,15.12,2.63
15:21:23.067,139747,13.72,0.60,-0.56,-0.1,10.24,2.77
15:21:23.124,139804,10.95,0.72,-0.52,-0.0,5.28,3.29
15:21:23.181,139861,7.63,1.04,-0.45,-0.1,1.59,3.97
15:21:23.239,139919,4.27,1.54,-0.40,-0.1,-0.84,4.69
15:21:23.296,139976,1.28,2.17,-0.34,-0.1,-1.62,5.49
15:21:23.353,140033,-1.24,2.78,-0.39,-0.0,-1.81,5.81
15:21:23.410,140090,-3.08,3.13,-0.34,-0.1,-1.70,5.50
15:21:23.468,140148,-4.21,3.37,-0.34,-0.1,-0.50,5.32
15:21:23.525,140205,-4.70,3.32,-0.34,-0.0,0.82,4.76
15:21:23.582,140262,-4.61,2.62,-0.34,-0.0,2.24,2.79
15:21:23.639,140319,-3.81,1.31,-0.34,-0.1,4.40,0.34
15:21:23.697,140377,-2.26,-0.39,-0.35,0.1,7.04,-1.46
