Timestamp,ElapsedMillis,Yaw,Pitch,Roll,Altitude,YawServo,PitchServo
22:03:24.606,10562,0.07,1.29,2.16,0.0,-3.00,-4.86
22:03:24.606,10562,0.07,1.28,2.16,0.0,-2.94,-4.84
22:03:24.607,10563,0.06,1.28,2.16,0.0,-2.88,-4.90
22:03:24.607,10563,0.05,1.29,2.16,0.0,-2.89,-4.80
22:03:24.607,10563,-4.99,1.34,-3.92,-3.5,-3.34,8.77
22:03:24.711,10667,-5.00,1.34,-3.94,-3.5,-3.33,8.69
22:03:24.811,10767,-4.99,1.34,-3.94,-3.5,-3.38,8.75
22:03:24.911,10867,-4.98,1.34,-3.94,-3.5,-3.39,8.71
22:03:25.011,10967,-4.98,1.34,-3.95,-3.5,-3.45,8.72
22:03:25.110,11066,-4.98,1.34,-3.94,-3.5,-3.40,8.66
22:03:25.211,11167,-4.98,1.34,-3.95,-3.5,-3.39,8.83
22:03:25.316,11272,-4.98,1.35,-3.94,-3.5,-3.40,8.75
22:03:25.421,11377,-4.97,1.35,-3.93,-3.5,-3.45,8.64
22:03:25.521,11477,-4.96,1.34,-3.93,-3.5,-3.28,8.74
22:03:25.621,11577,-4.95,1.34,-3.93,-3.5,-3.33,8.63
22:03:25.721,11677,-4.96,1.33,-3.94,-3.5,-3.37,8.64
22:03:25.826,11782,-4.98,1.33,-3.93,-3.5,-3.37,8.68
22:03:25.926,11883,-4.98,1.33,-3.92,-3.5,-3.30,8.62
22:03:26.032,11988,-4.97,1.32,-3.93,-3.5,-3.34,8.73
22:03:26.131,12087,-4.98,1.32,-3.93,-3.5,-3.34,8.63
22:03:26.232,12188,-4.97,1.32,-3.93,-3.5,-3.34,8.68
22:03:26.337,12293,-4.97,1.32,-3.93,-3.5,-3.34,8.68
22:03:26.442,12398,-4.97,1.32,-3.93,-3.5,-3.34,8.68
22:03:26.541,12497,-4.97,1.32,-3.93,-3.5,-3.34,8.68
22:03:26.642,12598,-4.97,1.32,-3.93,-3.5,-3.34,8.68
22:03:26.742,12698,-4.97,1.32,-3.93,-3.5,-3.34,8.68
22:03:26.848,12804,-4.97,1.32,-3.93,-3.5,-3.34,8.68
22:03:26.948,12904,-4.97,1.32,-3.93,-3.5,-3.34,8.68
22:03:27.152,13108,-4.97,1.32,-3.93,-3.5,-3.34,8.68
22:03:27.253,13209,-4.97,1.32,-3.93,-3.5,-3.34,8.68
22:03:27.358,13314,-4.97,1.32,-3.93,-3.5,-3.34,8.68
22:03:27.458,13414,-4.97,1.32,-3.93,-3.5,-3.34,8.68
22:03:27.558,13514,-4.97,1.32,-3.93,-3.5,-3.34,8.68
22:03:27.658,13614,-4.97,1.32,-3.93,-3.5,-3.34,8.68
22:03:27.763,13719,-4.97,1.32,-3.93,-3.5,-3.34,8.68
22:03:27.863,13819,-4.97,1.32,-3.93,-3.5,-3.34,8.68
22:03:27.963,13919,-4.97,1.32,-3.93,-3.5,-3.34,8.68
22:03:28.063,14019,-4.97,1.32,-3.93,-3.5,-3.34,8.68
22:03:28.168,14124,-4.97,1.31,-3.91,-3.5,-3.27,8.70
22:03:28.268,14224,-4.97,1.31,-3.91,-3.5,-3.38,8.64
22:03:28.368,14324,-4.97,1.32,-3.91,-3.5,-3.28,8.69
22:03:28.474,14430,-4.96,1.32,-3.91,-3.5,-3.33,8.70
22:03:28.578,14534,-4.97,1.32,-3.92,-3.5,-3.40,8.76
22:03:28.678,14634,-5.43,1.73,-3.67,-3.5,-10.81,3.09
22:03:28.778,14734,-2.91,4.88,-3.14,-3.5,-15.76,6.08
22:03:28.878,14834,-1.20,5.50,-3.32,-3.5,-24.64,4.63
22:03:28.983,14939,-1.00,12.15,-2.81,-3.5,-26.40,4.87
22:03:29.084,15040,-0.94,18.55,-3.26,-3.5,-26.40,13.74
22:03:29.189,15145,0.16,11.44,-7.12,-3.5,8.37,24.77
22:03:29.289,15245,1.69,1.47,-8.81,-3.5,26.40,26.40
22:03:29.389,15345,3.18,-11.70,-11.46,-3.5,26.40,26.40
22:03:29.489,15445,4.92,2.70,-9.97,-3.5,-26.40,18.15
22:03:29.589,15545,7.49,15.97,-7.63,-3.5,-26.40,14.03
22:03:29.694,15650,9.86,20.09,-4.72,-3.5,-15.16,3.35
22:03:29.794,15750,6.97,5.50,-5.29,-3.5,26.40,9.27
22:03:29.894,15850,1.86,-16.62,-10.39,-3.5,26.40,26.40
22:03:30.000,15956,0.67,-28.38,-18.10,-3.5,26.40,26.40
22:03:30.100,16056,0.30,-30.70,-21.57,-3.5,26.40,26.40
22:03:30.200,16156,-3.88,-38.33,-17.90,-3.5,26.40,24.06
22:03:30.299,16255,-10.61,-48.97,-12.38,-3.5,26.40,23.93
22:03:30.400,16356,-16.65,-54.83,-6.42,-3.5,26.40,21.33
22:03:30.500,16456,-20.53,-57.14,-2.62,-3.5,26.40,26.40
22:03:30.605,16561,-14.62,-50.50,-6.57,-3.5,26.40,26.40
22:03:30.705,16661,-4.75,-31.33,-9.62,-3.5,-26.40,15.51
22:03:30.805,16761,2.72,-13.02,-8.35,-3.5,-26.40,11.01
22:03:30.910,16866,5.58,-5.84,-8.02,-3.5,-0.57,20.99
22:03:31.010,16966,5.60,-6.02,-7.79,-3.5,17.05,14.93
22:03:31.110,17067,5.53,-6.70,-5.54,-3.5,16.12,-5.18
22:03:31.210,17166,5.61,-6.08,-2.42,-3.5,17.64,20.52
22:03:31.316,17272,8.32,-5.59,-4.89,-3.5,13.19,10.09
22:03:31.416,17372,8.19,-5.56,-4.87,-3.5,12.74,9.52
22:03:31.515,17471,8.12,-5.56,-4.86,-3.5,12.83,9.88
22:03:31.616,17572,8.10,-5.52,-4.82,-3.5,13.43,10.05
22:03:31.716,17672,8.09,-5.53,-4.82,-3.5,13.08,9.85
22:03:31.821,17777,8.09,-5.52,-4.80,-3.5,12.85,9.66
22:03:31.921,17877,8.10,-5.54,-4.82,-3.5,13.20,9.86
22:03:32.020,17977,8.07,-5.52,-4.81,-3.5,12.16,9.25
22:03:32.125,18081,6.28,-5.29,-4.64,-3.5,10.36,9.32
22:03:32.225,18181,5.33,-4.87,-4.49,-3.5,12.16,9.75
22:03:32.326,18282,4.58,-5.53,-4.82,-3.5,15.10,11.98
22:03:32.426,18382,4.60,-5.43,-4.84,-3.5,14.28,10.40
22:03:32.526,18482,3.38,-5.48,-4.93,-3.5,12.60,10.75
22:03:32.631,18587,1.72,-5.47,-4.94,-3.5,12.32,10.93
22:03:32.731,18687,0.92,-5.47,-4.96,-3.5,12.04,10.96
22:03:32.836,18792,1.02,-5.42,-4.93,-3.5,11.89,10.58
22:03:32.936,18892,1.20,-5.39,-4.89,-3.5,11.94,10.63
22:03:33.037,18993,1.80,-5.42,-4.94,-3.5,11.91,10.56
22:03:33.137,19093,1.81,-5.48,-4.99,-3.5,12.73,11.30
22:03:33.242,19198,1.80,-5.49,-5.01,-3.5,12.17,10.88
22:03:33.342,19298,1.80,-5.51,-5.03,-3.5,12.53,11.14
22:03:33.442,19398,1.79,-5.51,-5.04,-3.5,12.68,11.26
22:03:33.542,19498,1.80,-5.51,-5.04,-3.5,12.58,11.11
22:03:33.642,19598,1.82,-5.52,-5.05,-3.5,12.60,11.39
22:03:33.742,19698,1.82,-5.51,-5.05,-3.5,12.49,11.03
22:03:33.843,19799,1.82,-5.50,-5.06,-3.5,12.57,11.19
22:03:34.042,19998,1.83,-5.51,-5.05,-3.5,12.53,11.06
22:03:34.143,20099,1.83,-5.51,-5.05,-3.5,12.53,11.11
22:03:34.248,20204,1.84,-5.52,-5.05,-3.5,12.54,11.11
22:03:34.353,20309,1.86,-5.52,-5.05,-3.5,12.55,11.18
22:03:34.453,20409,1.86,-5.52,-5.06,-3.5,12.61,11.08
22:03:48.979,34935,-0.00,1.34,2.00,0.0,-3.01,-4.50
22:03:49.079,35035,0.00,1.33,2.01,0.0,-2.99,-4.56
22:03:49.179,35135,0.02,1.33,2.01,0.0,-3.00,-4.47
22:03:49.279,35235,0.03,1.33,2.01,0.0,-2.99,-4.40
22:03:49.379,35335,0.02,1.34,1.99,0.0,-3.00,-4.53
22:03:49.479,35435,0.03,1.34,1.99,0.0,-3.00,-4.42
22:03:49.579,35535,0.04,1.33,1.98,0.0,-2.94,-4.39
22:03:49.684,35640,0.04,1.33,1.99,0.0,-2.93,-4.40
22:03:49.784,35740,0.04,1.33,1.98,0.0,-3.09,-4.40
22:03:49.889,35845,0.05,1.34,1.98,0.0,-2.95,-4.38
22:03:49.990,35946,0.06,1.32,1.98,0.0,-2.92,-4.49
22:03:50.089,36046,0.06,1.32,1.97,0.0,-3.02,-4.38
22:03:50.189,36145,0.05,1.32,1.97,0.0,-2.97,-4.47
22:03:50.294,36250,0.06,1.32,1.96,0.0,-2.91,-4.35
22:03:50.395,36351,0.06,1.32,1.96,0.0,-2.90,-4.44
22:03:50.499,36456,0.83,1.53,2.12,0.0,-7.22,-7.47
22:03:50.600,36556,1.07,6.26,3.03,0.0,-26.40,-17.57
22:03:50.799,36755,-1.48,30.97,-1.37,0.0,-26.40,16.67
22:03:50.905,36861,-0.75,23.43,-2.51,0.0,24.64,5.92
22:03:51.005,36961,-0.21,3.68,-2.13,0.0,26.40,2.61
22:03:51.105,37061,0.07,-14.23,-2.66,0.0,26.40,9.70
22:03:51.205,37161,1.17,-21.38,-3.42,0.0,26.40,8.31
22:03:51.310,37266,1.46,-23.24,-3.60,0.0,26.40,8.11
22:03:51.410,37366,1.31,-22.29,-3.93,0.0,26.40,9.62
22:03:51.516,37472,1.81,-23.63,-4.35,0.0,26.40,11.10
22:03:51.620,37576,2.07,-28.46,-5.50,0.0,26.40,11.98
22:03:51.721,37677,1.42,-32.22,-5.24,0.0,26.40,6.82
22:03:51.820,37776,0.24,-29.44,-3.68,0.0,26.40,-0.95
22:03:51.920,37876,0.31,-20.53,-1.40,0.0,1.37,-6.15
22:03:52.025,37981,2.06,-10.70,0.02,0.0,-17.59,-3.80
22:03:52.125,38081,3.24,-2.10,2.73,0.0,-26.40,-26.40
22:03:52.230,38186,3.60,5.58,9.17,0.0,-26.40,-26.40
22:03:52.330,38286,2.50,9.32,14.24,0.0,-26.40,-26.40
22:03:52.431,38387,1.11,8.75,17.20,0.0,-16.94,-26.40
22:03:52.536,38492,0.49,4.51,8.43,0.0,23.98,26.40
22:03:52.636,38592,-0.25,-1.86,-2.24,0.0,23.71,26.40
22:03:52.741,38697,0.01,-2.29,-9.18,0.0,0.34,26.40
22:03:52.841,38797,-0.08,-1.04,-12.01,0.0,-6.98,26.40
22:03:52.941,38897,-0.59,-0.13,-9.48,0.0,-1.72,0.08
22:03:53.046,39002,-0.84,0.78,-1.24,0.0,-4.10,-26.40
22:03:53.146,39102,-2.59,-1.96,6.24,0.0,21.16,-26.40
22:03:53.346,39302,-5.25,-4.22,12.45,0.0,3.35,-21.82
22:03:53.446,39402,-4.92,-3.09,7.45,0.0,22.28,17.18
22:03:53.546,39502,-5.97,-9.27,2.68,0.0,26.40,26.40
22:03:53.646,39602,-5.74,-14.11,-5.30,0.0,24.19,26.40
22:03:53.747,39703,-5.12,-9.98,-2.92,0.0,-3.02,-17.56
22:03:53.846,39802,-4.07,-5.65,-1.34,0.0,3.98,7.87
22:03:53.952,39908,-3.95,-1.98,-2.40,0.0,-16.31,0.15
22:03:54.051,40007,-3.63,4.13,-1.84,0.0,-26.40,0.14
22:03:54.151,40107,-3.39,5.74,-1.36,0.0,-10.16,2.56
22:03:54.257,40213,-3.89,4.69,-1.64,0.0,-2.89,3.94
22:03:54.361,40317,-4.55,3.06,-1.58,0.0,-7.58,-0.10
22:03:54.462,40418,-3.97,4.61,-0.76,0.0,-23.41,-6.36
22:03:54.562,40518,-2.21,7.34,-0.34,0.0,-26.40,2.23
22:03:54.662,40618,-1.00,8.26,-0.79,0.0,-15.01,2.08
22:03:54.768,40724,0.71,7.33,0.09,0.0,-12.08,-4.62
22:03:54.867,40823,0.93,6.44,-0.61,0.0,-7.12,5.12
22:03:54.972,40928,0.33,7.45,-0.78,0.0,-26.40,-15.02
22:03:55.073,41029,0.48,13.59,3.46,0.0,-26.40,-10.63
22:03:55.172,41128,0.73,18.98,1.39,0.0,-26.40,16.64
22:03:55.277,41233,-2.12,26.99,-6.48,0.0,-26.40,26.40
22:03:55.377,41333,-11.78,21.90,-21.13,0.0,13.66,26.40
22:03:55.483,41439,-15.59,4.40,-25.71,0.0,26.40,26.40
22:03:55.582,41538,-18.38,-8.58,-15.32,0.0,26.40,-18.94
22:03:55.687,41643,-19.42,-10.26,0.83,0.0,19.24,-26.40
22:03:55.787,41743,-14.62,0.30,9.05,0.0,-26.40,-26.40
22:03:55.893,41849,-8.85,15.79,4.55,0.0,-26.40,14.90
22:03:55.993,41949,-9.78,27.38,-7.53,0.0,-26.40,26.40
22:03:56.098,42054,-14.97,28.27,-20.82,0.0,-26.40,26.40
22:03:56.198,42154,-18.34,16.16,-21.61,0.0,15.19,26.40
22:03:56.297,42253,-20.78,4.43,-15.18,0.0,26.40,13.12
22:03:56.398,42354,-22.79,-6.72,-5.23,0.0,26.40,-9.84
22:03:56.498,42454,-22.25,-11.72,2.30,0.0,20.91,-23.16
22:03:56.604,42560,-16.19,-4.64,3.46,0.0,-26.40,-6.58
22:03:56.708,42664,-9.63,5.36,0.66,0.0,-26.40,5.04
22:03:56.808,42764,-7.34,12.93,-3.48,0.0,-26.40,26.40
22:03:56.908,42864,-10.05,10.21,-11.82,0.0,-10.24,26.40
22:03:57.008,42964,-13.19,2.74,-16.65,0.0,26.40,26.40
22:03:57.108,43064,-15.08,-4.33,-14.61,0.0,26.40,22.70
22:03:57.209,43165,-17.04,-9.36,-8.38,0.0,26.40,-3.15
22:03:57.313,43269,-16.40,-10.26,-3.82,0.0,13.52,2.20
22:03:57.414,43370,-12.78,-4.87,-4.22,0.0,-26.40,8.83
22:03:57.519,43475,-9.89,1.33,-5.55,0.0,-18.54,13.35
22:03:57.618,43574,-9.58,2.92,-6.30,0.0,-13.51,15.05
22:03:57.719,43675,-9.53,4.39,-6.15,0.0,-17.48,9.65
22:03:57.824,43780,-9.12,4.34,-5.88,0.0,-6.90,14.05
22:03:57.923,43879,-9.11,3.92,-5.47,0.0,-4.73,9.58
22:03:58.024,43980,-9.82,3.74,-4.43,0.0,-10.90,2.85
22:03:58.129,44085,-9.27,4.47,-3.29,0.0,-11.60,5.75
22:03:58.229,44185,-10.24,4.53,-3.27,0.0,-10.19,6.87
22:03:58.334,44290,-10.74,4.43,-3.36,0.0,-10.86,6.57
22:03:58.435,44391,-10.75,4.41,-3.37,0.0,-10.35,6.86
22:03:58.540,44496,-10.76,4.41,-3.37,0.0,-10.55,6.55
22:03:58.640,44596,-10.76,4.40,-3.37,0.0,-10.54,6.55
22:03:58.739,44695,-10.75,4.40,-3.38,0.0,-10.54,6.73
22:03:58.844,44800,-10.76,4.40,-3.39,0.0,-10.55,6.70
22:03:58.945,44901,-10.76,4.42,-3.42,0.0,-10.63,6.56
22:03:59.050,45006,-10.76,4.42,-3.42,0.0,-10.58,6.65
22:03:59.150,45106,-10.95,4.41,-3.42,0.0,-10.48,6.74
22:03:59.250,45206,-10.56,4.41,-3.45,0.0,-10.57,6.85
22:03:59.355,45311,-4.47,4.46,-3.41,0.0,-10.46,7.10
22:03:59.455,45411,1.37,4.49,-3.37,0.0,-10.03,7.26
22:03:59.555,45511,4.74,4.52,-3.34,0.0,-10.18,7.37
22:03:59.656,45612,4.74,4.51,-3.34,0.0,-9.90,7.69
22:03:59.756,45712,2.72,4.48,-3.37,0.0,-9.61,8.00
22:03:59.861,45817,2.07,4.48,-3.36,0.0,-9.85,7.73
22:03:59.959,45915,1.90,4.47,-3.37,0.0,-10.11,7.82
22:04:00.061,46017,1.78,4.49,-3.37,0.0,-10.00,7.77
22:04:00.161,46117,0.51,4.48,-3.37,0.0,-9.97,7.61
22:04:00.266,46222,0.37,4.48,-3.38,0.0,-10.03,7.67
22:04:00.366,46322,2.11,4.50,-3.38,0.0,-10.21,7.65
22:04:00.471,46427,6.43,4.52,-3.33,0.0,-9.81,7.55
22:04:00.571,46527,8.11,4.50,-3.36,0.0,-9.59,8.28
22:04:00.676,46632,5.69,4.49,-3.38,0.0,-9.31,8.34
22:04:00.776,46732,3.67,4.46,-3.41,0.0,-9.86,7.85
22:04:00.881,46837,2.92,4.47,-3.39,0.0,-9.72,8.18
22:04:00.981,46937,1.67,4.42,-3.43,0.0,-9.60,7.99
22:04:01.081,47037,1.67,4.41,-3.44,0.0,-9.74,7.96
22:04:01.182,47138,1.68,4.40,-3.45,0.0,-9.71,7.88
22:04:01.287,47243,1.69,4.40,-3.45,0.0,-9.70,7.94
22:04:01.387,47343,1.69,4.40,-3.45,0.0,-9.81,7.82
22:04:01.487,47443,1.69,4.40,-3.45,0.0,-9.80,7.89
22:04:01.587,47543,1.69,4.40,-3.44,0.0,-9.75,7.92
22:04:01.687,47643,1.70,4.40,-3.43,0.0,-9.76,7.74
22:04:01.792,47748,1.71,4.40,-3.43,0.0,-9.81,7.79
22:04:01.892,47848,1.72,4.40,-3.44,0.0,-9.75,7.80
22:04:01.992,47948,1.70,4.40,-3.44,0.0,-9.75,7.85
22:04:02.092,48048,1.69,4.40,-3.43,0.0,-9.75,7.78
22:04:02.192,48148,1.69,4.40,-3.42,0.0,-9.75,7.82
22:04:02.292,48248,1.68,4.40,-3.43,0.0,-9.75,7.89
22:04:02.397,48353,1.68,4.39,-3.43,0.0,-9.74,7.88
22:04:02.497,48453,1.69,4.39,-3.42,0.0,-9.74,7.76
22:04:02.603,48559,1.69,4.40,-3.42,0.0,-9.75,7.76
22:04:02.702,48658,1.70,4.40,-3.40,0.0,-9.75,7.73
22:04:02.803,48759,1.70,4.40,-3.40,0.0,-9.75,7.77
22:04:02.908,48864,1.70,4.40,-3.40,0.0,-9.75,7.77
22:04:03.008,48964,1.70,4.40,-3.40,0.0,-9.75,7.77
22:04:03.108,49064,1.70,4.40,-3.40,0.0,-9.75,7.77
22:04:03.212,49168,1.70,4.40,-3.40,0.0,-9.75,7.77
22:04:03.312,49268,1.70,4.40,-3.40,0.0,-9.75,7.77
22:04:03.418,49374,1.70,4.40,-3.40,0.0,-9.75,7.77
22:04:03.518,49474,1.70,4.40,-3.40,0.0,-9.75,7.77
22:04:03.618,49574,1.70,4.40,-3.40,0.0,-9.75,7.77
22:04:03.719,49675,1.70,4.40,-3.40,0.0,-9.75,7.77
22:04:03.818,49774,1.70,4.40,-3.40,0.0,-9.75,7.77
22:04:03.923,49879,1.70,4.40,-3.40,0.0,-9.75,7.77
22:04:04.023,49979,1.70,4.40,-3.40,0.0,-9.75,7.77
22:04:04.123,50079,1.70,4.40,-3.40,0.0,-9.75,7.77
22:04:04.224,50180,1.70,4.40,-3.40,0.0,-9.75,7.77
22:04:04.328,50285,1.70,4.40,-3.40,0.0,-9.75,7.77
22:04:04.428,50384,1.70,4.40,-3.40,0.0,-9.75,7.77
22:04:04.529,50485,1.70,4.40,-3.40,0.0,-9.75,7.77
22:04:04.634,50590,1.70,4.40,-3.40,0.0,-9.75,7.77
22:04:04.739,50695,1.70,4.40,-3.40,0.0,-9.75,7.77
22:04:04.839,50795,1.70,4.40,-3.40,0.0,-9.75,7.77
22:04:04.939,50895,1.70,4.40,-3.40,0.0,-9.75,7.77
22:04:05.044,51000,1.70,4.40,-3.40,0.0,-9.75,7.77
22:04:05.144,51100,1.70,4.40,-3.40,0.0,-9.75,7.77
22:04:05.249,51205,1.70,4.40,-3.40,0.0,-9.75,7.77
22:04:05.350,51306,1.70,4.40,-3.40,0.0,-9.75,7.77
22:04:05.450,51406,1.70,4.40,-3.40,0.0,-9.75,7.77
22:04:05.554,51510,1.70,4.40,-3.40,0.0,-9.75,7.77
22:04:05.654,51610,1.70,4.40,-3.40,0.0,-9.75,7.77
22:04:05.759,51716,1.70,4.40,-3.40,0.0,-9.75,7.77
22:04:05.860,51816,1.70,4.40,-3.40,0.0,-9.75,7.77
22:04:05.960,51916,1.70,4.40,-3.40,0.0,-9.75,7.77
22:04:06.064,52020,1.70,4.40,-3.40,0.0,-9.75,7.77
22:04:06.266,52222,1.70,4.40,-3.40,0.0,-9.75,7.77
22:04:06.372,52328,1.70,4.40,-3.40,0.0,-9.75,7.77
22:04:06.471,52427,1.70,4.40,-3.40,0.0,-9.75,7.77
22:04:06.576,52532,1.70,4.40,-3.40,0.0,-9.75,7.77
22:04:06.676,52632,1.70,4.40,-3.40,0.0,-9.75,7.77
22:04:06.776,52732,1.70,4.40,-3.40,0.0,-9.75,7.77
22:04:06.882,52838,1.70,4.40,-3.40,0.0,-9.75,7.77
22:04:06.982,52938,1.70,4.40,-3.40,0.0,-9.75,7.77
22:04:07.081,53037,1.70,4.40,-3.40,0.0,-9.75,7.77
22:04:07.182,53138,1.70,4.40,-3.40,0.0,-9.75,7.77
22:04:07.287,53243,1.70,4.40,-3.40,0.0,-9.75,7.77
22:04:07.392,53348,1.70,4.40,-3.40,0.0,-9.75,7.77
22:04:07.498,53454,1.70,4.40,-3.40,0.0,-9.75,7.77
22:04:07.597,53553,1.70,4.40,-3.40,0.0,-9.75,7.77
22:04:07.698,53654,1.70,4.40,-3.40,0.0,-9.75,7.77
22:04:07.803,53759,1.70,4.40,-3.40,0.0,-9.75,7.77
22:04:07.902,53858,1.70,4.40,-3.40,0.0,-9.75,7.77
22:04:08.003,53959,1.70,4.40,-3.40,0.0,-9.75,7.77
22:04:08.108,54064,1.70,4.40,-3.40,0.0,-9.75,7.77
22:04:08.208,54164,1.70,4.40,-3.40,0.0,-9.75,7.77
22:04:08.308,54264,1.70,4.40,-3.40,0.0,-9.75,7.77
22:04:08.414,54370,1.70,4.40,-3.40,0.0,-9.75,7.77
22:04:08.514,54470,1.70,4.40,-3.40,0.0,-9.75,7.77
22:04:08.614,54570,1.70,4.40,-3.40,0.0,-9.75,7.77
22:04:08.718,54674,1.70,4.40,-3.40,0.0,-9.75,7.77
22:04:08.824,54780,1.70,4.40,-3.40,0.0,-9.75,7.77
22:04:08.924,54880,1.70,4.40,-3.40,0.0,-9.75,7.77
22:04:09.024,54980,1.70,4.40,-3.40,0.0,-9.75,7.77
22:04:09.124,55080,1.70,4.40,-3.40,0.0,-9.75,7.77
22:04:09.224,55180,1.70,4.40,-3.40,0.0,-9.75,7.77
22:04:09.324,55280,1.70,4.40,-3.40,0.0,-9.75,7.77
22:04:09.424,55380,1.70,4.40,-3.40,0.0,-9.75,7.77
22:04:09.529,55485,1.70,4.40,-3.40,0.0,-9.75,7.77
22:04:09.634,55590,1.70,4.40,-3.40,0.0,-9.75,7.77
22:04:09.734,55690,1.70,4.40,-3.40,0.0,-9.75,7.77
22:04:09.834,55790,1.70,4.40,-3.40,0.0,-9.75,7.77
22:04:09.935,55891,1.70,4.40,-3.40,0.0,-9.75,7.77
22:04:10.040,55996,1.70,4.40,-3.40,0.0,-9.75,7.77
22:04:10.139,56095,1.70,4.40,-3.40,0.0,-9.75,7.77
22:04:10.240,56196,1.70,4.40,-3.40,0.0,-9.75,7.77
22:04:10.340,56296,1.70,4.40,-3.40,0.0,-9.75,7.77
22:04:10.440,56396,1.70,4.40,-3.40,0.0,-9.75,7.77
22:04:10.545,56501,1.70,4.40,-3.40,0.0,-9.75,7.77
22:04:10.644,56600,1.70,4.40,-3.40,0.0,-9.75,7.77
22:04:10.745,56701,1.70,4.40,-3.40,0.0,-9.75,7.77
22:04:10.850,56806,1.70,4.40,-3.40,0.0,-9.75,7.77
22:04:10.949,56905,1.70,4.40,-3.40,0.0,-9.75,7.77
22:04:11.051,57007,1.70,4.40,-3.40,0.0,-9.75,7.77
22:04:11.150,57106,1.70,4.40,-3.40,0.0,-9.75,7.77
22:04:11.250,57206,1.70,4.40,-3.40,0.0,-9.75,7.77
22:04:11.356,57312,1.70,4.40,-3.40,0.0,-9.75,7.77
22:04:11.455,57411,1.70,4.40,-3.40,0.0,-9.75,7.77
22:04:11.657,57613,1.70,4.40,-3.40,0.0,-9.75,7.77
22:04:11.757,57713,1.70,4.40,-3.40,0.0,-9.75,7.77
22:04:12.064,58020,1.70,4.40,-3.40,0.0,-9.75,7.77
22:04:12.163,58119,1.70,4.40,-3.40,0.0,-9.75,7.77
22:04:12.263,58219,1.70,4.40,-3.40,0.0,-9.75,7.77
22:04:12.365,58321,1.70,4.40,-3.40,0.0,-9.75,7.77
22:04:12.469,58425,1.70,4.40,-3.40,0.0,-9.75,7.77
22:04:12.671,58627,1.70,4.40,-3.40,0.0,-9.75,7.77
22:04:12.776,58732,1.70,4.40,-3.40,0.0,-9.75,7.77
22:04:12.876,58832,1.70,4.40,-3.40,0.0,-9.75,7.77
22:04:13.183,59139,1.70,4.40,-3.40,0.0,-9.75,7.77
22:04:13.283,59239,1.70,4.40,-3.40,0.0,-9.75,7.77
22:04:13.388,59344,1.70,4.40,-3.40,0.0,-9.75,7.77
22:04:13.489,59445,1.69,4.40,-3.39,0.0,-9.76,7.64
22:04:13.588,59544,1.70,4.41,-3.38,0.0,-9.83,7.79
22:04:13.790,59746,1.70,4.42,-3.38,0.0,-9.80,7.67
22:04:13.890,59846,1.70,4.42,-3.38,0.0,-9.85,7.68
22:04:13.995,59951,1.69,4.42,-3.38,0.0,-9.85,7.67
22:04:14.096,60052,1.69,4.41,-3.38,0.0,-9.79,7.77
22:04:14.201,60157,1.68,4.41,-3.38,0.0,-9.79,7.72
22:04:14.300,60256,1.68,4.41,-3.38,0.0,-9.83,7.61
22:04:14.401,60357,1.68,4.42,-3.36,0.0,-9.95,7.48
22:04:14.500,60456,1.68,4.41,-3.37,0.0,-9.78,7.65
22:04:14.601,60557,1.69,4.42,-3.35,0.0,-9.90,7.61
22:04:14.808,60764,0.66,4.30,-3.42,0.0,-5.85,9.09
22:04:14.907,60863,1.35,4.46,-3.61,0.0,-13.59,10.11
22:04:15.013,60969,2.02,8.08,-3.55,0.0,-26.40,10.32
22:04:15.113,61069,3.14,20.41,-3.31,0.0,-26.40,8.14
22:04:15.217,61173,4.55,28.46,-2.53,0.0,-26.40,4.32
22:04:15.318,61274,4.98,32.20,-1.42,0.0,-26.40,5.00
22:04:15.423,61379,4.58,33.33,-1.73,0.0,-26.40,9.39
22:04:15.523,61479,2.96,26.74,-2.57,0.0,-19.52,8.63
22:04:15.624,61580,1.06,18.07,-4.01,0.0,-3.97,15.21
22:04:15.723,61679,0.04,9.97,-5.61,0.0,14.14,19.07
22:04:15.824,61780,-0.16,4.96,-5.96,0.0,5.35,13.29
22:04:15.928,61884,-0.05,-0.71,-6.77,0.0,26.40,15.97
22:04:16.028,61984,-0.48,-7.79,-7.06,0.0,26.40,26.40
22:04:16.134,62090,-0.67,-18.27,-10.80,0.0,26.40,26.40
22:04:16.234,62190,-1.21,-27.52,-12.37,0.0,26.40,26.40
22:04:16.334,62290,-3.10,-37.26,-11.32,0.0,26.40,21.29
22:04:16.434,62390,-4.92,-43.80,-10.28,0.0,26.40,26.40
22:04:16.534,62490,-5.60,-47.91,-9.89,0.0,26.40,26.07
22:04:16.639,62595,-5.37,-50.84,-10.96,0.0,26.40,26.40
22:04:16.744,62700,-6.83,-53.62,-10.11,0.0,26.40,25.55
22:04:16.844,62800,-7.31,-53.18,-10.28,0.0,26.40,22.39
22:04:16.943,62899,-9.33,-46.49,-9.05,0.0,26.40,19.07
22:04:17.044,63000,-6.31,-32.43,-10.35,0.0,-8.47,17.59
22:04:17.149,63105,-5.48,-17.52,-9.76,0.0,-1.68,14.92
22:04:17.249,63205,-6.32,-10.68,-6.93,0.0,-3.77,-6.16
22:04:17.354,63310,-6.60,-2.16,-3.76,0.0,-26.40,2.01
22:04:17.454,63410,-7.33,3.14,-5.04,0.0,-15.65,18.73
22:04:17.554,63510,-8.22,3.97,-6.42,0.0,-10.42,16.46
22:04:17.660,63616,-8.91,4.42,-5.64,0.0,-13.43,4.46
22:04:17.765,63721,-9.76,4.54,-4.49,0.0,-8.69,5.96
22:04:17.865,63821,-10.20,4.36,-4.37,0.0,-12.62,10.26
22:04:17.965,63921,-10.15,4.68,-4.47,0.0,-10.87,6.89
22:04:18.070,64026,-10.30,4.19,-3.93,0.0,-8.30,6.57
22:04:18.170,64126,-10.45,4.50,-4.03,0.0,-15.26,8.12
22:04:18.270,64226,-10.69,5.36,-4.35,0.0,-16.09,11.87
22:04:18.375,64331,-10.57,4.83,-5.26,0.0,-7.07,13.38
22:04:18.476,64432,-8.28,2.83,-5.04,0.0,3.81,10.30
22:04:18.579,64535,-4.07,1.32,-4.96,0.0,6.55,18.40
22:04:18.680,64636,0.01,-1.41,-6.87,0.0,15.39,24.64
22:04:18.786,64742,2.88,0.88,-9.21,0.0,-11.77,13.48
22:04:18.886,64842,5.29,2.55,-8.52,0.0,-10.67,26.40
22:04:18.985,64941,5.15,2.35,-11.46,0.0,-3.82,26.11
22:04:19.090,65046,7.84,2.52,-11.96,0.0,-6.78,26.40
22:04:19.191,65147,8.64,3.36,-13.02,0.0,-5.65,26.40
22:04:19.291,65247,8.07,2.98,-13.73,0.0,-2.19,26.40
22:04:19.390,65346,4.50,2.34,-12.90,0.0,-1.14,24.07
22:04:19.491,65447,-3.02,1.60,-10.63,0.0,-0.72,13.07
22:04:19.591,65547,-8.05,1.10,-8.96,0.0,0.29,16.07
22:04:19.691,65647,-9.93,0.15,-8.15,0.0,1.35,16.54
22:04:19.790,65746,-10.00,-0.53,-8.01,0.0,1.87,20.63
22:04:19.896,65852,-8.99,-0.69,-8.32,0.0,-1.30,19.09
22:04:19.996,65952,-7.53,-0.63,-8.78,0.0,-1.00,22.36
22:04:20.196,66152,-5.68,-0.39,-10.40,0.0,-1.17,26.40
22:04:20.302,66258,-5.37,-0.08,-11.13,0.0,-1.56,26.40
22:04:20.401,66357,-5.14,-0.04,-12.05,0.0,-1.81,26.40
22:04:20.502,66458,-4.47,-0.07,-15.23,0.0,-2.97,26.40
22:04:20.607,66563,-2.92,0.44,-25.66,0.0,-9.74,26.40
22:04:20.707,66663,-0.92,2.69,-38.74,0.0,-20.97,26.40
22:04:20.812,66768,0.76,5.90,-50.57,0.0,-26.11,26.40
22:04:20.912,66868,2.69,6.86,-58.77,0.0,-7.33,26.40
22:04:21.016,66972,4.39,6.65,-63.27,0.0,-6.53,26.40
22:04:21.117,67073,4.69,6.94,-66.12,0.0,-8.94,26.40
22:04:21.222,67178,4.76,7.37,-68.17,0.0,-8.24,26.40
22:04:21.322,67278,5.01,7.43,-67.99,0.0,-8.37,26.40
22:04:21.422,67378,5.29,6.82,-61.49,0.0,-5.59,26.40
22:04:21.522,67478,6.24,5.87,-48.46,0.0,-11.37,26.40
22:04:21.623,67579,7.30,5.46,-32.72,0.0,-13.50,-0.21
22:04:21.727,67683,7.47,5.25,-18.26,0.0,-16.34,-19.06
22:04:21.828,67784,7.69,5.06,-5.56,0.0,-16.02,-26.40
22:04:21.927,67883,7.71,4.46,5.51,0.0,-14.02,-26.40
22:04:22.027,67983,8.26,3.66,14.70,0.0,-14.39,-26.40
22:04:22.128,68084,9.25,3.29,22.19,0.0,-13.33,-26.40
22:04:22.233,68189,9.81,2.58,27.17,0.0,-9.98,-26.40
22:04:22.338,68294,9.53,2.16,27.71,0.0,-7.80,-26.40
22:04:22.438,68394,8.81,1.93,20.46,0.0,1.24,6.49
22:04:22.538,68494,6.97,1.78,7.39,0.0,2.14,26.40
22:04:22.638,68594,5.37,2.42,-5.22,0.0,-8.14,26.40
22:04:22.744,68700,4.55,4.52,-12.50,0.0,-6.54,26.40
22:04:22.849,68805,4.33,3.59,-15.26,0.0,1.43,26.40
22:04:22.949,68905,6.14,3.63,-13.38,0.0,-18.38,13.26
22:04:23.053,69009,7.30,6.77,-10.81,0.0,-26.40,23.41
22:04:23.154,69110,8.10,8.52,-9.91,0.0,-18.80,16.65
22:04:23.253,69209,8.63,8.09,-8.37,0.0,-13.62,12.65
22:04:23.358,69314,8.99,6.52,-7.35,0.0,-8.89,13.38
22:04:23.458,69414,8.61,5.58,-6.82,0.0,-3.98,10.81
22:04:23.558,69514,6.62,3.78,-5.03,0.0,-2.28,-2.79
22:04:23.664,69620,4.42,3.73,-4.48,0.0,-7.98,10.52
22:04:23.764,69720,4.08,3.68,-4.53,0.0,-8.00,10.40
22:04:23.864,69820,4.09,3.69,-4.52,0.0,-7.86,10.44
22:04:23.969,69925,4.08,3.69,-4.53,0.0,-7.85,10.49
22:04:24.069,70025,4.07,3.70,-4.52,0.0,-7.92,10.38
22:04:24.169,70125,4.07,3.70,-4.52,0.0,-7.98,10.48
22:04:24.275,70231,4.06,3.70,-4.52,0.0,-7.93,10.43
22:04:24.379,70335,4.05,3.70,-4.52,0.0,-7.94,10.42
22:04:24.479,70435,4.05,3.70,-4.52,0.0,-7.94,10.53
22:04:24.579,70535,4.04,3.71,-4.54,0.0,-7.85,10.79
22:04:24.684,70640,4.03,3.72,-4.55,0.0,-7.97,10.43
22:04:24.785,70741,4.03,3.72,-4.54,0.0,-8.03,10.31
22:04:24.889,70845,4.03,3.72,-4.54,0.0,-8.03,10.42
22:04:24.989,70945,4.04,3.72,-4.54,0.0,-7.98,10.52
22:04:25.089,71045,4.05,3.72,-4.55,0.0,-8.08,10.49
22:04:25.189,71145,4.05,3.73,-4.56,0.0,-8.05,10.57
22:04:25.290,71246,4.06,3.74,-4.58,0.0,-8.12,10.73
22:04:25.390,71346,4.05,3.75,-4.61,0.0,-8.03,10.73
22:04:25.495,71451,4.04,3.75,-4.62,0.0,-8.04,10.77
22:04:25.595,71551,4.04,3.75,-4.63,0.0,-8.10,10.61
22:04:25.695,71651,4.05,3.75,-4.62,0.0,-8.04,10.60
22:04:25.800,71756,4.05,3.75,-4.62,0.0,-8.09,10.60
22:04:25.900,71856,4.06,3.74,-4.61,0.0,-7.97,10.64
22:04:26.001,71957,4.05,3.74,-4.60,0.0,-8.02,10.51
22:04:26.100,72056,4.04,3.75,-4.60,0.0,-8.09,10.61
22:04:26.200,72156,4.04,3.76,-4.60,0.0,-8.12,10.60
22:04:26.306,72262,4.06,3.77,-4.60,0.0,-8.09,10.60
22:04:26.405,72361,4.07,3.77,-4.59,0.0,-8.08,10.54
22:04:26.506,72462,4.07,3.77,-4.59,0.0,-8.08,10.54
22:04:26.611,72567,4.07,3.77,-4.58,0.0,-8.14,10.52
22:04:26.710,72666,4.07,3.77,-4.58,0.0,-8.09,10.57
22:04:26.811,72767,4.07,3.77,-4.58,0.0,-8.09,10.57
22:04:26.916,72872,4.07,3.77,-4.58,0.0,-8.09,10.57
22:04:27.016,72972,4.07,3.77,-4.58,0.0,-8.09,10.57
22:04:27.122,73078,4.07,3.77,-4.58,0.0,-8.09,10.57
22:04:27.221,73177,4.07,3.77,-4.58,0.0,-8.09,10.57
22:04:27.321,73277,4.07,3.77,-4.58,0.0,-8.09,10.57
22:04:27.421,73377,4.07,3.77,-4.58,0.0,-8.09,10.57
22:04:27.522,73478,4.07,3.77,-4.58,0.0,-8.09,10.57
22:04:27.622,73578,4.07,3.77,-4.58,0.0,-8.09,10.57
22:04:27.727,73683,4.07,3.77,-4.58,0.0,-8.09,10.57
22:04:27.826,73782,4.07,3.77,-4.58,0.0,-8.09,10.57
22:04:27.927,73883,4.07,3.77,-4.58,0.0,-8.09,10.57
22:04:28.032,73988,4.07,3.77,-4.58,0.0,-8.09,10.57
22:04:28.132,74088,4.07,3.77,-4.58,0.0,-8.09,10.57
22:04:28.232,74188,4.07,3.77,-4.58,0.0,-8.09,10.57
22:04:28.438,74394,4.07,3.77,-4.58,0.0,-8.09,10.57
22:04:28.537,74493,4.07,3.77,-4.58,0.0,-8.09,10.57
22:04:28.637,74593,4.07,3.77,-4.58,0.0,-8.09,10.57
22:04:28.738,74694,4.07,3.77,-4.58,0.0,-8.09,10.57
22:04:28.843,74799,4.07,3.77,-4.58,0.0,-8.09,10.57
22:04:28.942,74898,4.07,3.77,-4.58,0.0,-8.09,10.57
22:04:29.042,74998,4.07,3.77,-4.58,0.0,-8.09,10.57
22:04:29.142,75098,4.07,3.77,-4.58,0.0,-8.09,10.57
22:04:29.242,75198,4.07,3.77,-4.58,0.0,-8.09,10.57
22:04:29.343,75299,4.07,3.77,-4.58,0.0,-8.09,10.57
22:04:29.443,75399,4.07,3.77,-4.58,0.0,-8.09,10.57
22:04:29.547,75503,4.07,3.77,-4.58,0.0,-8.09,10.57
22:04:29.653,75609,4.07,3.77,-4.58,0.0,-8.09,10.57
22:04:29.753,75709,4.07,3.77,-4.58,0.0,-8.09,10.57
22:04:29.853,75809,4.07,3.77,-4.58,0.0,-8.09,10.57
22:04:29.953,75909,4.07,3.77,-4.58,0.0,-8.09,10.57
22:04:30.058,76014,4.07,3.77,-4.58,0.0,-8.09,10.57
22:04:30.158,76114,4.07,3.77,-4.58,0.0,-8.09,10.57
22:04:30.263,76219,4.07,3.77,-4.58,0.0,-8.09,10.57
22:04:30.363,76319,4.07,3.77,-4.58,0.0,-8.09,10.57
22:04:30.463,76419,4.07,3.77,-4.58,0.0,-8.09,10.57
22:04:30.564,76520,4.07,3.77,-4.58,0.0,-8.09,10.57
22:04:30.663,76619,4.07,3.77,-4.58,0.0,-8.09,10.57
22:04:30.764,76720,4.07,3.77,-4.58,0.0,-8.09,10.57
22:04:30.869,76825,4.07,3.77,-4.58,0.0,-8.09,10.57
22:04:30.974,76930,4.07,3.77,-4.58,0.0,-8.09,10.57
22:04:31.073,77029,4.07,3.77,-4.58,0.0,-8.09,10.57
22:04:31.174,77130,4.07,3.77,-4.58,0.0,-8.09,10.57
22:04:31.273,77229,4.07,3.77,-4.58,0.0,-8.09,10.57
22:04:31.480,77436,4.07,3.77,-4.58,0.0,-8.09,10.57
22:04:31.580,77536,4.07,3.77,-4.58,0.0,-8.09,10.57
22:04:31.686,77642,4.07,3.77,-4.58,0.0,-8.09,10.57
22:04:31.785,77741,4.07,3.77,-4.58,0.0,-8.09,10.57
22:04:31.987,77943,4.07,3.77,-4.58,0.0,-8.09,10.57
22:04:32.087,78043,4.07,3.77,-4.58,0.0,-8.09,10.57
22:04:32.192,78148,4.07,3.77,-4.58,0.0,-8.09,10.57
22:04:32.292,78248,4.07,3.77,-4.58,0.0,-8.09,10.57
22:04:32.393,78349,4.07,3.77,-4.58,0.0,-8.09,10.57
22:04:32.594,78550,4.07,3.77,-4.58,0.0,-8.09,10.57
22:04:32.700,78656,4.07,3.77,-4.58,0.0,-8.09,10.57
22:04:32.799,78755,4.07,3.77,-4.58,0.0,-8.09,10.57
22:04:32.905,78861,4.07,3.77,-4.58,0.0,-8.09,10.57
22:04:33.005,78961,4.07,3.77,-4.58,0.0,-8.09,10.57
22:04:33.104,79060,4.07,3.77,-4.58,0.0,-8.09,10.57
22:04:33.209,79165,4.07,3.77,-4.58,0.0,-8.09,10.57
22:04:33.310,79266,4.07,3.77,-4.58,0.0,-8.09,10.57
22:04:33.414,79370,4.07,3.77,-4.58,0.0,-8.09,10.57
22:04:33.514,79470,4.07,3.77,-4.58,0.0,-8.09,10.57
22:04:33.614,79570,4.07,3.77,-4.58,0.0,-8.09,10.57
22:04:33.719,79675,4.07,3.77,-4.58,0.0,-8.09,10.57
22:04:33.819,79775,4.07,3.77,-4.58,0.0,-8.09,10.57
22:04:33.925,79881,4.07,3.77,-4.58,0.0,-8.09,10.57
22:04:34.025,79981,4.07,3.77,-4.58,0.0,-8.09,10.57
22:04:34.130,80086,4.07,3.77,-4.58,0.0,-8.09,10.57
22:04:34.230,80186,4.07,3.77,-4.58,0.0,-8.09,10.57
22:04:34.330,80286,4.07,3.77,-4.58,0.0,-8.09,10.57
22:04:34.430,80386,4.07,3.77,-4.58,0.0,-8.09,10.57
22:04:34.535,80491,4.07,3.77,-4.58,0.0,-8.09,10.57
22:04:34.636,80592,4.07,3.77,-4.58,0.0,-8.09,10.57
22:04:34.735,80692,4.07,3.77,-4.58,0.0,-8.09,10.57
22:04:34.835,80791,4.07,3.77,-4.58,0.0,-8.09,10.57
22:04:34.935,80891,4.07,3.77,-4.58,0.0,-8.09,10.57
22:04:35.035,80991,4.07,3.77,-4.58,0.0,-8.09,10.57
22:04:35.140,81096,4.07,3.77,-4.58,0.0,-8.09,10.57
22:04:35.241,81197,4.07,3.77,-4.58,0.0,-8.09,10.57
22:04:35.345,81301,4.07,3.77,-4.58,0.0,-8.09,10.57
22:04:35.446,81402,4.07,3.77,-4.58,0.0,-8.09,10.57
22:04:35.551,81507,4.07,3.77,-4.58,0.0,-8.09,10.57
22:04:35.651,81607,4.07,3.77,-4.58,0.0,-8.09,10.57
22:04:35.751,81707,4.07,3.77,-4.58,0.0,-8.09,10.57
22:04:35.851,81807,4.07,3.77,-4.58,0.0,-8.09,10.57
22:04:35.951,81907,4.07,3.77,-4.58,0.0,-8.09,10.57
22:04:36.051,82007,4.07,3.77,-4.58,0.0,-8.09,10.57
22:04:36.156,82112,4.07,3.77,-4.58,0.0,-8.09,10.57
22:04:36.256,82212,4.07,3.77,-4.58,0.0,-8.09,10.57
22:04:36.361,82317,4.07,3.77,-4.58,0.0,-8.09,10.57
22:04:36.461,82417,4.07,3.77,-4.58,0.0,-8.09,10.57
22:04:36.561,82517,4.07,3.77,-4.58,0.0,-8.09,10.57
22:04:36.666,82622,4.07,3.77,-4.58,0.0,-8.09,10.57
22:04:36.762,82718,4.07,3.77,-4.58,0.0,-8.09,10.57
22:04:36.966,82922,4.07,3.77,-4.58,0.0,-8.09,10.57
22:04:37.067,83023,4.07,3.77,-4.58,0.0,-8.09,10.57
22:04:37.171,83127,4.07,3.77,-4.58,0.0,-8.09,10.57
22:04:37.272,83228,4.07,3.77,-4.58,0.0,-8.09,10.57
22:04:37.372,83328,4.07,3.77,-4.58,0.0,-8.09,10.57
22:04:37.471,83427,4.07,3.77,-4.58,0.0,-8.09,10.57
22:04:37.682,83638,4.07,3.77,-4.58,0.0,-8.09,10.57
22:04:37.782,83738,4.07,3.77,-4.58,0.0,-8.09,10.57
22:04:37.883,83839,4.07,3.77,-4.58,0.0,-8.09,10.57
22:04:37.987,83943,4.07,3.77,-4.58,0.0,-8.09,10.57
22:04:38.088,84044,4.07,3.77,-4.58,0.0,-8.09,10.57
22:04:38.188,84144,4.07,3.77,-4.58,0.0,-8.09,10.57
22:04:38.292,84248,4.07,3.77,-4.58,0.0,-8.09,10.57
22:04:38.393,84349,4.07,3.77,-4.58,0.0,-8.09,10.57
22:04:38.493,84449,4.07,3.77,-4.58,0.0,-8.09,10.57
22:04:38.598,84554,4.07,3.77,-4.58,0.0,-8.09,10.57
22:04:38.703,84659,4.07,3.77,-4.58,0.0,-8.09,10.57
22:04:38.803,84759,4.07,3.77,-4.58,0.0,-8.09,10.57
22:04:38.903,84859,4.07,3.77,-4.58,0.0,-8.09,10.57
22:04:39.008,84964,4.07,3.77,-4.58,0.0,-8.09,10.57
22:04:39.108,85064,4.07,3.77,-4.58,0.0,-8.09,10.57
22:04:39.208,85164,4.07,3.77,-4.58,0.0,-8.09,10.57
22:04:39.314,85270,4.07,3.77,-4.58,0.0,-8.09,10.57
22:04:39.414,85370,4.07,3.77,-4.58,0.0,-8.09,10.57
22:04:39.518,85474,4.07,3.77,-4.58,0.0,-8.09,10.57
22:04:39.619,85575,4.07,3.77,-4.58,0.0,-8.09,10.57
22:04:39.724,85680,4.07,3.77,-4.58,0.0,-8.09,10.57
22:04:39.824,85780,4.07,3.77,-4.58,0.0,-8.09,10.57
22:04:39.924,85880,4.07,3.77,-4.58,0.0,-8.09,10.57
22:04:40.029,85985,4.07,3.77,-4.58,0.0,-8.09,10.57
22:04:40.129,86085,4.07,3.77,-4.58,0.0,-8.09,10.57
22:04:40.234,86190,4.07,3.77,-4.58,0.0,-8.09,10.57
22:04:40.334,86290,4.07,3.77,-4.58,0.0,-8.09,10.57
22:04:40.439,86395,4.07,3.77,-4.58,0.0,-8.09,10.57
22:04:40.539,86495,4.07,3.77,-4.58,0.0,-8.09,10.57
22:04:40.639,86595,4.07,3.77,-4.58,0.0,-8.09,10.57
22:04:40.739,86695,4.07,3.77,-4.58,0.0,-8.09,10.57
22:04:40.839,86795,4.07,3.77,-4.58,0.0,-8.09,10.57
22:04:40.939,86895,4.07,3.77,-4.58,0.0,-8.09,10.57
22:04:41.039,86995,4.07,3.77,-4.58,0.0,-8.09,10.57
22:04:41.139,87095,4.07,3.77,-4.58,0.0,-8.09,10.57
22:04:41.244,87200,4.07,3.77,-4.58,0.0,-8.09,10.57
22:04:41.344,87301,4.07,3.77,-4.58,0.0,-8.09,10.57
22:04:41.445,87401,4.07,3.77,-4.58,0.0,-8.09,10.57
22:04:41.545,87501,4.07,3.77,-4.58,0.0,-8.09,10.57
22:04:41.644,87600,4.07,3.77,-4.58,0.0,-8.09,10.57
22:04:41.750,87706,4.07,3.77,-4.58,0.0,-8.09,10.57
22:04:41.850,87806,4.07,3.77,-4.58,0.0,-8.09,10.57
22:04:41.955,87911,4.07,3.77,-4.58,0.0,-8.09,10.57
22:04:42.055,88011,4.07,3.77,-4.58,0.0,-8.09,10.57
22:04:42.160,88116,4.07,3.77,-4.58,0.0,-8.09,10.57
22:04:42.261,88217,4.07,3.77,-4.58,0.0,-8.09,10.57
22:04:42.360,88316,4.07,3.77,-4.58,0.0,-8.09,10.57
22:04:42.465,88421,4.07,3.77,-4.58,0.0,-8.09,10.57
22:04:42.565,88521,4.07,3.77,-4.58,0.0,-8.09,10.57
22:04:42.670,88626,4.07,3.77,-4.58,0.0,-8.09,10.57
22:04:42.770,88726,4.07,3.77,-4.58,0.0,-8.09,10.57
22:04:42.870,88826,4.07,3.77,-4.58,0.0,-8.09,10.57
22:04:42.976,88932,4.07,3.77,-4.58,0.0,-8.09,10.57
22:04:43.075,89031,4.07,3.77,-4.58,0.0,-8.09,10.57
22:04:43.181,89137,4.07,3.77,-4.58,0.0,-8.09,10.57
22:04:43.281,89237,4.07,3.77,-4.58,0.0,-8.09,10.57
22:04:43.386,89342,4.07,3.77,-4.58,0.0,-8.09,10.57
22:04:43.486,89442,4.07,3.77,-4.58,0.0,-8.09,10.57
22:04:43.586,89542,4.07,3.77,-4.58,0.0,-8.09,10.57
22:04:43.691,89647,4.07,3.77,-4.58,0.0,-8.09,10.57
22:04:43.791,89747,4.07,3.77,-4.58,0.0,-8.09,10.57
22:04:43.891,89847,4.07,3.77,-4.58,0.0,-8.09,10.57
22:04:43.996,89952,4.07,3.77,-4.58,0.0,-8.09,10.57
22:04:44.096,90052,4.07,3.77,-4.58,0.0,-8.09,10.57
22:04:44.196,90152,4.07,3.77,-4.58,0.0,-8.09,10.57
22:04:44.296,90252,4.07,3.77,-4.58,0.0,-8.09,10.57
22:04:44.397,90353,4.07,3.77,-4.58,0.0,-8.09,10.57
22:04:44.497,90453,4.07,3.77,-4.58,0.0,-8.09,10.57
22:04:44.602,90558,4.07,3.77,-4.58,0.0,-8.09,10.57
22:04:44.702,90658,4.07,3.77,-4.58,0.0,-8.09,10.57
22:04:44.807,90763,4.07,3.77,-4.58,0.0,-8.09,10.57
22:04:44.907,90863,4.07,3.77,-4.58,0.0,-8.09,10.57
22:04:45.012,90968,4.07,3.77,-4.58,0.0,-8.09,10.57
22:04:45.112,91068,4.07,3.77,-4.58,0.0,-8.09,10.57
22:04:45.212,91168,4.07,3.77,-4.58,0.0,-8.09,10.57
22:04:45.317,91273,4.07,3.77,-4.58,0.0,-8.09,10.57
22:04:45.417,91373,4.07,3.77,-4.58,0.0,-8.09,10.57
22:04:45.516,91472,4.07,3.78,-4.57,0.0,-8.21,10.44
22:04:45.623,91579,4.07,3.77,-4.57,0.0,-7.87,10.66
22:04:45.722,91678,4.05,3.75,-4.58,0.0,-8.03,10.51
22:04:45.827,91783,4.04,3.75,-4.57,0.0,-7.99,10.49
22:04:45.927,91883,4.04,3.76,-4.56,0.0,-8.12,10.47
22:04:46.032,91988,4.04,3.76,-4.56,0.0,-8.02,10.51
22:04:46.133,92089,4.04,3.76,-4.56,0.0,-8.08,10.52
22:04:46.233,92189,4.05,3.76,-4.56,0.0,-8.07,10.51
22:04:46.338,92294,4.05,3.77,-4.56,0.0,-8.19,10.52
22:04:46.443,92399,4.05,3.77,-4.55,0.0,-8.08,10.61
22:04:46.542,92498,4.05,3.77,-4.56,0.0,-8.09,10.52
22:04:46.643,92599,4.05,3.77,-4.56,0.0,-8.09,10.51
22:04:46.748,92704,4.05,3.77,-4.56,0.0,-8.09,10.51
22:04:46.848,92804,4.05,3.77,-4.56,0.0,-8.09,10.51
22:04:46.948,92904,4.05,3.77,-4.56,0.0,-8.09,10.51
22:04:47.048,93004,4.05,3.77,-4.56,0.0,-8.09,10.51
22:04:47.148,93104,4.05,3.77,-4.56,0.0,-8.09,10.51
22:04:47.252,93208,4.05,3.77,-4.56,0.0,-8.09,10.51
22:04:47.353,93309,4.05,3.77,-4.56,0.0,-8.09,10.51
22:04:47.454,93410,4.05,3.77,-4.56,0.0,-8.09,10.51
22:04:47.559,93515,4.05,3.77,-4.56,0.0,-8.09,10.51
22:04:47.658,93614,4.05,3.77,-4.56,0.0,-8.09,10.51
22:04:47.759,93715,4.05,3.77,-4.56,0.0,-8.09,10.51
22:04:47.859,93815,4.05,3.77,-4.56,0.0,-8.08,10.46
22:04:47.959,93915,4.05,3.76,-4.56,0.0,-8.02,10.51
22:04:48.064,94020,4.06,3.77,-4.55,0.0,-8.14,10.50
22:04:48.163,94119,4.06,3.77,-4.55,0.0,-8.15,10.56
22:04:48.264,94220,4.08,3.78,-4.55,0.0,-8.06,10.56
22:04:48.363,94319,4.08,3.77,-4.56,0.0,-8.03,10.64
22:04:48.463,94419,4.08,3.76,-4.57,0.0,-8.05,10.43
22:04:48.569,94525,4.07,3.75,-4.58,0.0,-7.98,10.61
22:04:48.673,94629,4.07,3.75,-4.57,0.0,-8.09,10.59
22:04:48.774,94730,4.07,3.75,-4.56,0.0,-8.09,10.53
22:04:48.875,94831,4.07,3.75,-4.56,0.0,-8.04,10.53
22:04:48.975,94931,4.07,3.75,-4.56,0.0,-8.04,10.53
22:04:49.080,95036,4.07,3.75,-4.56,0.0,-8.04,10.53
22:04:49.180,95136,4.07,3.75,-4.56,0.0,-8.04,10.53
22:04:49.285,95241,4.07,3.75,-4.56,0.0,-8.04,10.53
22:04:49.390,95346,4.07,3.75,-4.56,0.0,-8.04,10.53
22:04:49.490,95446,4.07,3.75,-4.56,0.0,-8.04,10.53
22:04:49.590,95546,4.07,3.75,-4.56,0.0,-8.04,10.53
22:04:49.689,95645,4.07,3.75,-4.56,0.0,-8.04,10.53
22:04:49.790,95746,4.07,3.75,-4.56,0.0,-8.04,10.53
22:04:49.889,95845,4.07,3.75,-4.56,0.0,-8.04,10.53
22:04:49.995,95951,4.07,3.75,-4.56,0.0,-8.04,10.53
22:04:50.095,96051,4.07,3.75,-4.56,0.0,-8.04,10.53
22:04:50.195,96151,4.07,3.75,-4.56,0.0,-8.04,10.53
22:04:50.300,96256,4.07,3.75,-4.56,0.0,-8.04,10.53
22:04:50.400,96356,4.07,3.75,-4.56,0.0,-8.04,10.53
22:04:50.501,96457,4.07,3.75,-4.56,0.0,-8.04,10.53
22:04:50.600,96556,4.07,3.75,-4.56,0.0,-8.04,10.53
22:04:50.700,96656,4.07,3.75,-4.56,0.0,-8.04,10.53
22:04:50.800,96756,4.07,3.75,-4.56,0.0,-8.04,10.53
22:04:50.901,96857,4.07,3.75,-4.56,0.0,-8.04,10.53
22:04:51.001,96957,4.07,3.75,-4.56,0.0,-8.04,10.53
22:04:51.101,97057,4.07,3.75,-4.56,0.0,-8.04,10.53
22:04:51.201,97157,4.07,3.75,-4.56,0.0,-8.04,10.53
22:04:51.306,97262,4.07,3.75,-4.56,0.0,-8.04,10.53
22:04:51.406,97362,4.07,3.75,-4.56,0.0,-8.04,10.53
22:04:51.506,97462,4.07,3.75,-4.56,0.0,-8.04,10.53
22:04:51.607,97563,4.07,3.75,-4.56,0.0,-8.04,10.53
22:04:51.712,97668,4.07,3.75,-4.56,0.0,-8.04,10.53
22:04:51.813,97769,4.07,3.75,-4.56,0.0,-8.04,10.53
22:04:51.917,97873,4.07,3.75,-4.56,0.0,-8.10,10.47
22:04:52.017,97973,4.07,3.75,-4.57,0.0,-8.20,10.48
22:04:52.123,98079,4.08,3.76,-4.56,0.0,-8.17,10.47
22:04:52.323,98279,4.07,3.78,-4.54,0.0,-8.05,10.48
22:04:52.428,98384,4.06,3.77,-4.56,0.0,-8.09,10.62
22:04:52.528,98484,4.04,3.77,-4.58,0.0,-8.09,10.61
22:04:52.633,98589,4.05,3.77,-4.58,0.0,-8.09,10.61
22:04:52.734,98690,4.06,3.76,-4.57,0.0,-8.02,10.49
22:04:52.833,98789,4.06,3.76,-4.56,0.0,-8.12,10.47
22:04:52.939,98895,4.07,3.76,-4.56,0.0,-8.06,10.52
22:04:53.038,98994,4.07,3.76,-4.56,0.0,-8.06,10.52
22:04:53.143,99099,4.07,3.76,-4.56,0.0,-8.06,10.52
22:04:53.243,99199,4.07,3.76,-4.56,0.0,-8.06,10.52
22:04:53.343,99299,4.07,3.76,-4.56,0.0,-8.06,10.52
22:04:53.449,99405,4.07,3.76,-4.56,0.0,-8.06,10.52
22:04:53.548,99504,4.07,3.76,-4.56,0.0,-8.06,10.52
22:04:53.654,99610,4.07,3.76,-4.56,0.0,-8.06,10.52
22:04:53.753,99709,4.07,3.76,-4.56,0.0,-8.06,10.52
22:04:53.854,99810,4.07,3.76,-4.56,0.0,-8.06,10.52
22:04:53.954,99910,4.07,3.76,-4.56,0.0,-8.06,10.52
22:04:54.258,100214,4.07,3.76,-4.56,0.0,-8.06,10.52
22:04:54.359,100315,4.07,3.76,-4.56,0.0,-8.06,10.52
22:04:54.459,100415,4.07,3.76,-4.56,0.0,-8.06,10.52
22:04:54.559,100515,4.07,3.76,-4.56,0.0,-8.06,10.52
22:04:54.664,100620,4.07,3.76,-4.56,0.0,-8.06,10.52
22:04:54.759,100715,4.07,3.76,-4.56,0.0,-8.06,10.52
22:04:54.865,100821,4.07,3.76,-4.56,0.0,-8.06,10.52
22:04:54.964,100920,4.07,3.76,-4.56,0.0,-8.06,10.52
22:04:55.065,101021,4.07,3.76,-4.56,0.0,-8.06,10.52
22:04:55.169,101125,4.07,3.76,-4.56,0.0,-8.06,10.52
22:04:55.269,101225,4.07,3.76,-4.56,0.0,-8.06,10.52
22:04:55.369,101325,4.07,3.76,-4.56,0.0,-8.06,10.52
22:04:55.469,101425,4.07,3.76,-4.56,0.0,-8.06,10.52
22:04:55.569,101525,4.07,3.76,-4.56,0.0,-8.06,10.52
22:04:55.674,101630,4.07,3.76,-4.56,0.0,-8.06,10.52
22:04:55.775,101731,4.07,3.76,-4.56,0.0,-8.06,10.52
22:04:55.875,101831,4.07,3.76,-4.56,0.0,-8.06,10.52
22:04:55.976,101932,4.07,3.76,-4.56,0.0,-8.06,10.52
22:04:56.081,102037,4.07,3.76,-4.56,0.0,-8.06,10.52
22:04:56.186,102142,4.07,3.76,-4.56,0.0,-8.06,10.52
22:04:56.286,102242,4.07,3.76,-4.56,0.0,-8.06,10.52
22:04:56.386,102342,4.07,3.76,-4.56,0.0,-8.06,10.52
22:04:56.491,102447,4.07,3.76,-4.56,0.0,-8.06,10.52
22:04:56.590,102546,4.07,3.76,-4.56,0.0,-8.06,10.52
22:04:56.691,102647,4.07,3.76,-4.56,0.0,-8.06,10.52
22:04:56.795,102751,4.07,3.76,-4.56,0.0,-8.06,10.52
22:04:56.901,102857,4.07,3.76,-4.56,0.0,-8.06,10.52
22:04:57.001,102957,4.07,3.76,-4.56,0.0,-8.06,10.52
22:04:57.101,103057,4.07,3.76,-4.56,0.0,-8.06,10.52
22:04:57.202,103158,4.07,3.76,-4.56,0.0,-8.06,10.52
22:04:57.306,103262,4.07,3.76,-4.56,0.0,-8.06,10.52
22:04:57.406,103362,4.07,3.76,-4.56,0.0,-8.06,10.52
22:04:57.506,103462,4.07,3.76,-4.56,0.0,-8.06,10.52
22:04:57.607,103563,4.07,3.76,-4.56,0.0,-8.06,10.52
22:04:57.707,103663,4.07,3.76,-4.56,0.0,-8.06,10.52
22:04:57.811,103767,4.07,3.76,-4.56,0.0,-8.06,10.52
22:04:57.912,103868,4.07,3.76,-4.56,0.0,-8.06,10.52
22:04:58.011,103967,4.07,3.76,-4.56,0.0,-8.06,10.52
22:04:58.117,104073,4.07,3.76,-4.56,0.0,-8.06,10.52
22:04:58.217,104173,4.07,3.76,-4.56,0.0,-8.06,10.52
22:04:58.322,104278,4.07,3.76,-4.56,0.0,-8.06,10.52
22:04:58.422,104378,4.07,3.76,-4.56,0.0,-8.06,10.52
22:04:58.522,104478,4.07,3.76,-4.56,0.0,-8.06,10.52
22:04:58.627,104583,4.07,3.76,-4.56,0.0,-8.06,10.52
22:04:58.727,104683,4.07,3.76,-4.56,0.0,-8.06,10.52
22:04:58.832,104788,4.07,3.76,-4.56,0.0,-8.06,10.52
22:04:58.932,104888,4.07,3.76,-4.56,0.0,-8.06,10.52
22:04:59.032,104988,4.07,3.76,-4.56,0.0,-8.06,10.52
22:04:59.137,105093,4.07,3.76,-4.56,0.0,-8.06,10.52
22:04:59.238,105194,4.07,3.76,-4.56,0.0,-8.06,10.47
22:04:59.343,105299,4.07,3.76,-4.56,0.0,-8.05,10.51
22:04:59.443,105399,4.08,3.75,-4.55,0.0,-7.99,10.45
22:04:59.543,105499,4.08,3.75,-4.54,0.0,-8.04,10.43
22:04:59.648,105604,4.09,3.75,-4.54,0.0,-8.04,10.47
22:04:59.753,105709,4.08,3.74,-4.54,0.0,-8.08,10.43
22:04:59.953,105909,4.08,3.74,-4.55,0.0,-7.97,10.49
22:05:00.053,106009,4.08,3.74,-4.55,0.0,-8.07,10.49
22:05:00.153,106109,4.08,3.74,-4.55,0.0,-8.03,10.49
22:05:00.254,106210,4.08,3.74,-4.55,0.0,-8.03,10.50
22:05:00.458,106414,4.08,3.74,-4.55,0.0,-8.03,10.50
22:05:00.558,106514,4.08,3.74,-4.55,0.0,-8.03,10.50
