Timestamp,ElapsedMillis,Yaw,Pitch,Roll,Altitude,YawServo,PitchServo,Pyro1,Pyro2
16:57:21.695,8630,3.77,-1.40,-1.68,-1.2,86.78,84.09,1,1
16:57:21.696,8631,3.77,-1.40,-1.68,-1.2,86.78,84.09,1,1
16:57:21.697,8632,3.77,-1.40,-1.68,-1.2,86.78,84.09,1,1
16:57:21.698,8633,3.77,-1.40,-1.68,-1.2,86.78,84.09,1,1
16:57:21.699,8634,-0.12,-1.50,0.00,0.0,86.87,92.76,1,1
16:57:21.895,8830,-0.12,-1.50,0.03,0.0,86.82,92.77,1,1
16:57:22.099,9034,-0.11,-1.50,0.04,0.0,86.87,92.74,1,1
16:57:22.300,9235,-0.10,-1.50,0.05,0.0,86.87,92.73,1,1
16:57:22.500,9436,-0.10,-1.50,0.05,0.0,86.86,92.73,1,1
16:57:22.705,9640,-0.10,-1.50,0.05,0.0,86.86,92.73,1,1
16:57:22.905,9840,-0.10,-1.50,0.05,0.0,86.86,92.73,1,1
16:57:23.105,10040,-0.10,-1.50,0.05,0.0,86.86,92.73,1,1
16:57:23.311,10246,-0.10,-1.50,0.05,0.0,86.86,92.73,1,1
16:57:23.511,10446,-0.10,-1.50,0.05,0.0,86.86,92.73,1,1
16:57:23.711,10646,-0.10,-1.50,0.05,0.0,86.86,92.73,1,1
16:57:23.917,10852,-0.10,-1.50,0.05,0.0,86.86,92.73,1,1
16:57:24.116,11052,-0.10,-1.50,0.05,0.0,86.86,92.73,1,1
16:57:24.317,11252,-0.10,-1.50,0.05,0.0,86.86,92.73,1,1
16:57:24.522,11457,-0.10,-1.50,0.05,0.0,86.86,92.73,1,1
16:57:24.721,11656,-0.10,-1.50,0.05,0.0,86.86,92.73,1,1
16:57:24.927,11862,0.09,-1.57,-0.11,0.0,88.97,87.20,1,1
16:57:25.127,12062,3.81,-1.82,3.69,0.0,94.48,66.10,1,1
16:57:25.332,12267,19.88,-4.91,6.99,0.0,90.67,66.10,1,1
16:57:25.532,12467,32.24,-6.89,8.70,0.0,94.28,66.10,1,1
16:57:25.732,12667,25.90,-5.66,9.95,0.0,89.14,85.65,1,1
16:57:25.931,12866,5.88,-1.17,11.79,0.0,83.50,116.20,1,1
16:57:26.137,13072,-9.05,2.39,12.70,0.0,82.28,118.90,1,1
16:57:26.338,13273,-19.41,4.21,12.59,0.0,82.41,118.90,1,1
16:57:26.537,13472,-25.05,4.91,11.68,0.0,82.53,118.90,1,1
16:57:26.737,13672,-24.85,4.08,11.95,0.0,82.74,118.90,1,1
16:57:26.942,13877,-7.33,-1.68,14.59,0.0,87.69,70.24,1,1
16:57:27.143,14078,8.33,-6.11,15.14,0.0,92.48,66.10,1,1
16:57:27.349,14284,12.52,-7.54,14.21,0.0,96.72,66.10,1,1
16:57:27.553,14488,7.37,-5.82,13.01,0.0,92.93,87.58,1,1
16:57:27.754,14689,2.26,-5.89,11.48,0.0,99.42,92.94,1,1
16:57:27.953,14888,-1.15,-2.31,10.42,0.0,80.79,90.60,1,1
16:57:28.154,15089,-0.36,0.17,7.55,0.0,84.81,94.71,1,1
16:57:28.359,15294,-0.53,0.05,7.53,0.0,83.83,94.00,1,1
16:57:28.559,15494,-0.48,0.09,7.53,0.0,83.32,93.58,1,1
16:57:28.759,15694,-0.49,0.08,7.53,0.0,83.24,93.44,1,1
16:57:28.958,15893,-0.48,0.08,7.54,0.0,83.45,93.59,1,1
16:57:29.164,16099,-0.49,0.08,7.54,0.0,83.35,93.66,1,1
16:57:29.364,16300,-0.49,0.08,7.55,0.0,83.45,93.67,1,1
16:57:29.565,16500,-0.49,0.07,7.55,0.0,83.36,93.60,1,1
16:57:29.769,16704,-0.48,0.07,7.55,0.0,83.46,93.53,1,1
16:57:29.975,16910,-0.48,0.07,7.55,0.0,83.41,93.58,1,1
16:57:30.175,17110,-0.48,0.07,7.55,0.0,83.41,93.58,1,1
16:57:30.379,17314,-0.47,0.08,7.54,0.0,83.34,93.56,1,1
16:57:30.580,17515,-0.46,0.07,7.55,0.0,83.36,93.54,1,1
16:57:30.780,17715,-0.45,0.07,7.56,0.0,83.35,93.46,1,1
16:57:30.980,17915,-0.45,0.08,7.56,0.0,83.38,93.57,1,1
16:57:31.180,18115,-0.45,0.09,7.56,0.0,83.32,93.56,1,1
16:57:31.380,18315,-0.45,0.08,7.57,0.0,83.38,93.53,1,1
16:57:31.580,18516,-0.45,0.08,7.57,0.0,83.38,93.53,1,1
16:57:31.782,18717,-0.45,0.08,7.57,0.0,83.38,93.53,1,1
16:57:31.987,18922,-0.45,0.08,7.57,0.0,83.38,93.53,1,1
16:57:32.187,19122,-0.45,0.08,7.57,0.0,83.38,93.53,1,1
16:57:32.392,19327,-0.45,0.08,7.57,0.0,83.38,93.53,1,1
16:57:32.591,19526,-0.45,0.08,7.57,0.0,83.38,93.53,1,1
16:57:32.792,19727,-0.45,0.08,7.57,0.0,83.38,93.53,1,1
16:57:32.997,19932,-0.45,0.08,7.57,0.0,83.38,93.53,1,1
16:57:33.202,20137,-0.45,0.08,7.57,0.0,83.38,93.53,1,1
16:57:33.402,20337,-0.45,0.08,7.57,0.0,83.38,93.53,1,1
16:57:33.602,20537,-0.45,0.08,7.58,0.0,83.34,93.46,1,1
16:57:33.808,20743,-0.44,0.09,7.58,0.0,83.30,93.45,1,1
16:57:34.007,20942,-0.44,0.09,7.60,0.0,83.32,93.44,1,1
16:57:34.207,21142,-0.42,0.08,7.60,0.0,83.39,93.46,1,1
16:57:34.412,21347,-0.42,0.08,7.59,0.0,83.39,93.46,1,1
16:57:34.612,21547,-0.42,0.08,7.61,0.0,83.39,93.44,1,1
16:57:34.818,21753,-0.42,0.08,7.61,0.0,83.39,93.44,1,1
16:57:35.018,21953,-0.42,0.08,7.61,0.0,83.39,93.44,1,1
16:57:35.218,22153,-0.42,0.08,7.61,0.0,83.39,93.44,1,1
16:57:35.418,22353,-0.42,0.08,7.61,0.0,83.39,93.44,1,1
16:57:35.623,22558,-0.42,0.08,7.61,0.0,83.39,93.44,1,1
16:57:35.823,22758,-0.42,0.08,7.61,0.0,83.39,93.44,1,1
16:57:36.029,22964,-0.42,0.08,7.61,0.0,83.39,93.44,1,1
16:57:36.229,23164,-0.42,0.08,7.61,0.0,83.39,93.44,1,1
16:57:36.428,23363,-0.42,0.08,7.61,0.0,83.39,93.44,1,1
16:57:36.629,23564,-0.42,0.08,7.61,0.0,83.39,93.44,1,1
16:57:36.833,23768,-0.42,0.08,7.61,0.0,83.39,93.44,1,1
16:57:37.034,23969,-0.42,0.08,7.61,0.0,83.39,93.44,1,1
16:57:37.234,24169,-0.42,0.08,7.61,0.0,83.39,93.44,1,1
16:57:37.434,24369,-0.42,0.08,7.61,0.0,83.39,93.44,1,1
16:57:37.635,24570,-0.42,0.08,7.61,0.0,83.39,93.44,1,1
16:57:37.840,24775,-0.42,0.08,7.61,0.0,83.39,93.44,1,1
16:57:38.044,24979,-0.42,0.08,7.61,0.0,83.39,93.44,1,1
16:57:38.249,25184,-0.42,0.08,7.61,0.0,83.39,93.44,1,1
16:57:38.449,25384,-0.42,0.08,7.61,0.0,83.39,93.44,1,1
16:57:38.649,25584,-0.42,0.08,7.61,0.0,83.39,93.44,1,1
16:57:38.850,25785,-0.42,0.08,7.61,0.0,83.39,93.44,1,1
16:57:39.055,25990,-0.42,0.08,7.61,0.0,83.39,93.44,1,1
16:57:39.255,26190,-0.42,0.08,7.61,0.0,83.39,93.44,1,1
16:57:39.459,26394,-0.42,0.08,7.61,0.0,83.39,93.44,1,1
16:57:39.660,26595,-0.42,0.08,7.61,0.0,83.39,93.44,1,1
16:57:39.865,26800,-0.42,0.08,7.61,0.0,83.39,93.44,1,1
16:57:40.070,27006,-0.42,0.08,7.61,0.0,83.39,93.51,1,1
16:57:40.270,27206,-0.42,0.07,7.61,0.0,83.46,93.46,1,1
16:57:40.470,27405,-0.42,0.07,7.64,0.0,83.34,93.45,1,1
16:57:40.675,27610,-0.32,0.20,7.14,0.0,83.10,93.25,1,1
16:57:40.876,27811,-0.53,0.05,1.72,0.0,83.40,93.86,1,1
16:57:41.076,28011,-0.47,0.12,1.07,0.0,82.81,93.40,1,1
16:57:41.281,28216,-0.53,0.06,1.30,0.0,83.49,93.70,1,1
16:57:41.480,28415,-0.52,0.07,1.76,0.0,83.73,94.05,1,1
16:57:41.681,28616,-0.56,-0.05,1.15,0.0,84.84,93.92,1,1
16:57:41.881,28816,-0.61,-0.04,0.92,0.0,83.51,93.81,1,1
16:57:42.080,29015,-0.59,-0.08,1.07,0.0,83.64,93.77,1,1
16:57:42.286,29221,-0.59,-0.08,1.21,0.0,83.86,93.77,1,1
16:57:42.491,29426,-0.50,-0.00,1.22,0.0,84.36,94.10,1,1
16:57:42.690,29625,-0.50,-0.00,1.87,0.0,83.84,93.84,1,1
16:57:42.896,29831,-0.51,-0.01,1.75,0.0,83.43,93.86,1,1
16:57:43.096,30032,-0.53,-0.26,0.84,0.0,85.26,93.69,1,1
16:58:14.923,61858,0.60,-0.26,-0.00,0.0,84.09,91.15,0,0
16:58:15.123,62058,0.60,-0.26,0.02,0.0,84.08,91.10,1,0
16:58:15.323,62258,0.60,-0.26,0.02,0.0,84.08,91.10,1,1
16:58:15.522,62457,0.60,-0.27,0.03,0.0,84.15,91.14,1,1
16:58:15.728,62663,0.61,-0.27,0.05,0.0,84.15,91.09,1,1
16:58:15.928,62863,0.61,-0.28,0.07,0.0,84.13,91.14,1,1
16:58:16.128,63063,0.60,-0.29,0.06,0.0,84.20,91.15,1,1
16:58:16.328,63263,0.61,-0.29,0.07,0.0,84.11,91.13,1,1
16:58:16.533,63468,0.62,-0.30,0.08,0.0,84.16,91.11,1,1
16:58:16.734,63669,0.62,-0.30,0.08,0.0,84.16,91.11,1,1
16:58:16.939,63874,0.62,-0.30,0.08,0.0,84.16,91.11,1,1
16:58:17.139,64074,0.62,-0.30,0.08,0.0,84.16,91.11,1,1
16:58:17.339,64274,0.62,-0.30,0.08,0.0,84.16,91.11,1,1
16:58:17.540,64475,0.62,-0.30,0.08,0.0,84.16,91.11,1,1
16:58:17.749,64684,0.62,-0.30,0.08,0.0,84.16,91.11,1,1
16:58:17.949,64884,0.62,-0.30,0.08,0.0,84.16,91.11,1,1
16:58:18.150,65085,0.63,-0.30,0.08,0.0,84.22,91.04,1,1
16:58:18.355,65290,0.63,-0.30,0.07,0.0,84.11,91.15,1,1
16:58:18.555,65490,0.62,-0.30,0.06,0.0,84.17,91.05,1,1
16:58:18.759,65694,0.63,-0.30,0.05,0.0,84.17,91.09,1,1
16:58:18.960,65895,0.63,-0.30,0.06,0.0,84.17,91.09,1,1
16:58:19.159,66094,0.63,-0.30,0.06,0.0,84.17,91.09,1,1
16:58:19.360,66295,0.63,-0.30,0.05,0.0,84.17,91.04,1,1
16:58:19.565,66500,0.63,-0.30,0.04,0.0,84.22,91.08,1,1
16:58:19.765,66700,0.63,-0.30,0.06,0.0,84.17,91.08,1,1
16:58:19.965,66900,0.63,-0.30,0.05,0.0,84.18,91.08,1,1
16:58:20.165,67100,0.63,-0.32,0.07,0.0,84.22,91.03,1,1
16:58:20.370,67305,0.63,-0.32,0.06,0.0,84.22,91.08,1,1
16:58:20.570,67505,0.63,-0.32,0.06,0.0,84.22,91.08,1,1
16:58:20.775,67710,0.63,-0.32,0.06,0.0,84.22,91.08,1,1
16:58:20.976,67911,0.63,-0.32,0.06,0.0,84.22,91.08,1,1
16:58:21.181,68116,0.64,-0.32,0.07,0.0,84.22,91.01,1,1
16:58:21.381,68316,0.64,-0.33,0.09,0.0,84.18,91.00,1,1
16:58:21.580,68515,0.65,-0.33,0.08,0.0,84.24,91.04,1,1
16:58:21.786,68721,0.64,-0.33,0.09,0.0,84.24,91.01,1,1
16:58:21.987,68922,0.65,-0.33,0.10,0.0,84.25,91.05,1,1
16:58:22.186,69121,0.65,-0.33,0.09,0.0,84.25,91.04,1,1
16:58:22.386,69321,0.65,-0.33,0.10,0.0,84.24,91.04,1,1
16:58:22.586,69521,0.64,-0.33,0.11,0.0,84.34,91.10,1,1
16:58:22.791,69726,0.65,-0.31,0.10,0.0,84.20,91.04,1,1
16:58:22.996,69931,0.65,-0.32,0.09,0.0,84.26,91.04,1,1
16:58:23.197,70132,0.66,-0.32,0.10,0.0,84.21,90.96,1,1
16:58:23.392,70327,0.67,-0.32,0.11,0.0,84.21,91.00,1,1
16:58:23.593,70528,0.67,-0.32,0.11,0.0,84.21,91.00,1,1
16:58:23.794,70729,0.67,-0.32,0.11,0.0,84.21,91.00,1,1
16:58:23.994,70929,0.67,-0.32,0.11,0.0,84.21,91.00,1,1
16:58:24.194,71129,0.67,-0.32,0.11,0.0,84.21,91.00,1,1
16:58:24.399,71334,0.67,-0.32,0.11,0.0,84.21,91.00,1,1
16:58:24.600,71535,0.67,-0.32,0.11,0.0,84.21,91.00,1,1
16:58:24.799,71734,0.67,-0.32,0.11,0.0,84.21,91.00,1,1
16:58:25.000,71935,0.67,-0.32,0.11,0.0,84.21,91.00,1,1
16:58:25.205,72140,0.67,-0.32,0.11,0.0,84.21,91.00,1,1
16:58:25.405,72340,0.67,-0.32,0.11,0.0,84.21,91.00,1,1
16:58:25.605,72540,0.67,-0.32,0.11,0.0,84.21,91.00,1,1
16:58:25.810,72745,0.67,-0.32,0.11,0.0,84.21,91.00,1,1
16:58:26.010,72945,0.67,-0.32,0.11,0.0,84.21,91.00,1,1
16:58:26.210,73145,0.67,-0.32,0.11,0.0,84.21,91.00,1,1
16:58:26.410,73345,0.67,-0.32,0.11,0.0,84.21,91.00,1,1
16:58:26.610,73545,0.67,-0.32,0.11,0.0,84.21,91.00,1,1
16:58:26.810,73745,0.67,-0.32,0.11,0.0,84.21,91.00,1,1
16:58:27.016,73951,0.67,-0.32,0.11,0.0,84.21,91.00,1,1
16:58:27.216,74151,0.67,-0.32,0.11,0.0,84.21,91.00,1,1
16:58:27.415,74350,0.67,-0.32,0.11,0.0,84.21,91.00,1,1
16:58:27.621,74556,0.68,-0.33,0.10,0.0,84.29,90.98,1,1
16:58:27.820,74755,0.68,-0.34,0.11,0.0,84.26,90.98,1,1
16:58:28.021,74956,0.67,-0.33,0.10,0.0,84.12,91.04,1,1
16:58:28.226,75161,0.67,-0.34,0.10,0.0,84.36,91.06,1,1
16:58:28.426,75361,0.68,-0.34,0.10,0.0,84.37,91.02,1,1
16:58:28.632,75567,0.68,-0.34,0.10,0.0,84.20,91.02,1,1
16:58:28.832,75767,0.68,-0.35,0.10,0.0,84.33,90.97,1,1
16:58:29.033,75968,0.68,-0.35,0.10,0.0,84.27,90.92,1,1
16:58:29.238,76173,0.68,-0.35,0.10,0.0,84.29,90.97,1,1
16:58:29.438,76373,0.68,-0.35,0.10,0.0,84.29,90.97,1,1
16:58:29.638,76573,0.68,-0.35,0.10,0.0,84.29,90.97,1,1
16:58:29.838,76773,0.68,-0.35,0.10,0.0,84.29,90.97,1,1
16:58:30.043,76978,0.68,-0.35,0.09,0.0,84.28,91.02,1,1
16:58:30.243,77178,0.67,-0.35,0.08,0.0,84.29,90.94,1,1
16:58:30.443,77378,0.67,-0.35,0.09,0.0,84.28,91.04,1,1
16:58:30.643,77578,0.66,-0.33,0.08,0.0,84.25,90.96,1,1
16:58:30.848,77783,0.67,-0.33,0.08,0.0,84.24,91.00,1,1
16:58:31.049,77984,0.67,-0.33,0.09,0.0,84.24,91.00,1,1
16:58:31.249,78184,0.67,-0.33,0.09,0.0,84.24,91.00,1,1
16:58:31.448,78383,0.67,-0.33,0.09,0.0,84.24,91.00,1,1
16:58:31.648,78583,0.67,-0.33,0.09,0.0,84.24,91.00,1,1
16:58:31.849,78784,0.67,-0.33,0.09,0.0,84.24,91.00,1,1
16:58:32.049,78984,0.67,-0.33,0.09,0.0,84.24,91.00,1,1
16:58:32.249,79184,0.67,-0.33,0.09,0.0,84.24,91.00,1,1
16:58:32.454,79389,0.67,-0.33,0.09,0.0,84.24,91.00,1,1
16:58:32.659,79594,0.67,-0.33,0.09,0.0,84.24,91.00,1,1
16:58:32.859,79794,0.67,-0.33,0.09,0.0,84.24,91.00,1,1
16:58:33.059,79994,0.67,-0.33,0.09,0.0,84.24,91.00,1,1
16:58:33.259,80194,0.67,-0.33,0.09,0.0,84.24,91.00,1,1
16:58:33.464,80399,0.67,-0.33,0.09,0.0,84.24,91.00,1,1
16:58:33.664,80599,0.67,-0.33,0.09,0.0,84.24,91.00,1,1
16:58:33.864,80799,0.67,-0.33,0.09,0.0,84.24,91.00,1,1
16:58:34.070,81005,0.67,-0.33,0.09,0.0,84.24,91.00,1,1
16:58:34.270,81205,0.67,-0.33,0.09,0.0,84.24,91.00,1,1
16:58:34.469,81404,0.67,-0.33,0.09,0.0,84.24,91.00,1,1
16:58:34.670,81605,0.67,-0.33,0.09,0.0,84.24,91.00,1,1
16:58:34.875,81810,0.67,-0.33,0.09,0.0,84.24,91.00,1,1
16:58:35.075,82011,0.67,-0.33,0.09,0.0,84.24,91.00,1,1
16:58:35.275,82210,0.67,-0.33,0.09,0.0,84.24,91.00,1,1
16:58:35.480,82415,0.67,-0.33,0.10,0.0,83.65,90.83,1,1
16:58:35.680,82616,0.66,-0.32,0.10,0.0,83.58,90.61,1,1
16:58:35.881,82816,0.74,-0.18,0.10,0.0,83.84,90.73,1,1
16:58:36.080,83015,0.76,-0.16,0.10,0.0,83.69,90.69,1,1
16:58:36.285,83220,0.77,-0.14,0.12,0.0,83.87,90.76,1,1
16:58:36.485,83420,0.78,-0.14,0.14,0.0,83.87,90.75,1,1
16:58:36.686,83621,0.76,-0.15,0.16,0.0,83.83,90.89,1,1
16:58:36.885,83820,0.77,-0.15,0.16,0.0,83.83,90.77,1,1
16:58:37.091,84026,0.77,-0.13,0.16,0.0,83.78,90.76,1,1
16:58:37.291,84226,0.78,-0.11,0.17,0.0,83.74,90.74,1,1
16:58:37.496,84431,0.78,-0.11,0.17,0.0,83.74,90.74,1,1
16:58:37.696,84631,0.78,-0.11,0.17,0.0,83.74,90.74,1,1
16:58:37.896,84831,0.78,-0.11,0.17,0.0,83.74,90.74,1,1
16:58:38.101,85036,0.78,-0.11,0.17,0.0,83.74,90.74,1,1
16:58:38.306,85241,0.78,-0.11,0.17,0.0,83.74,90.74,1,1
16:58:38.506,85441,0.78,-0.11,0.17,0.0,83.74,90.74,1,1
16:58:38.706,85641,0.78,-0.11,0.17,0.0,83.74,90.74,1,1
16:58:38.911,85846,0.78,-0.11,0.17,0.0,83.74,90.74,1,1
16:58:39.111,86046,0.78,-0.11,0.17,0.0,83.74,90.74,1,1
16:58:39.312,86248,0.78,-0.11,0.17,0.0,83.74,90.74,1,1
16:58:39.511,86446,0.78,-0.11,0.17,0.0,83.74,90.74,1,1
16:58:39.712,86647,0.78,-0.11,0.17,0.0,83.74,90.74,1,1
16:58:39.911,86846,0.78,-0.11,0.17,0.0,83.74,90.74,1,1
16:58:40.112,87048,0.78,-0.11,0.17,0.0,83.74,90.74,1,1
16:58:40.313,87248,0.78,-0.11,0.17,0.0,83.74,90.74,1,1
16:58:40.517,87452,0.78,-0.11,0.17,0.0,83.74,90.74,1,1
16:58:40.717,87652,0.78,-0.11,0.17,0.0,83.74,90.74,1,1
16:58:40.918,87853,0.78,-0.11,0.17,0.0,83.74,90.74,1,1
16:58:41.122,88057,0.78,-0.11,0.17,0.0,83.74,90.74,1,1
16:58:41.323,88258,0.78,-0.11,0.17,0.0,83.74,90.74,1,1
16:58:41.522,88457,0.78,-0.11,0.17,0.0,83.74,90.74,1,1
16:58:41.723,88658,0.78,-0.11,0.17,0.0,83.74,90.74,1,1
16:58:41.922,88857,0.78,-0.11,0.17,0.0,83.74,90.74,1,1
16:58:42.127,89062,0.78,-0.11,0.17,0.0,83.74,90.74,1,1
16:58:42.328,89263,0.78,-0.11,0.17,0.0,83.74,90.74,1,1
16:58:42.532,89467,0.78,-0.11,0.17,0.0,83.74,90.74,1,1
16:58:42.732,89667,0.78,-0.11,0.17,0.0,83.74,90.74,1,1
16:58:42.938,89873,0.78,-0.11,0.17,0.0,83.74,90.74,1,1
16:58:43.137,90072,0.78,-0.11,0.17,0.0,83.74,90.74,1,1
16:58:43.344,90279,0.78,-0.11,0.17,0.0,83.74,90.74,1,1
16:58:43.543,90478,0.78,-0.11,0.17,0.0,83.74,90.74,1,1
16:58:43.744,90679,0.78,-0.11,0.17,0.0,83.74,90.74,1,1
16:58:43.949,90884,0.78,-0.11,0.17,0.0,83.74,90.74,1,1
16:58:44.149,91084,0.78,-0.11,0.17,0.0,83.74,90.74,1,1
16:58:44.348,91283,0.78,-0.11,0.17,0.0,83.74,90.74,1,1
16:58:44.554,91489,0.78,-0.11,0.17,0.0,83.74,90.74,1,1
16:58:44.754,91689,0.78,-0.11,0.17,0.0,83.74,90.74,1,1
16:58:44.959,91894,0.78,-0.11,0.17,0.0,83.74,90.74,1,1
16:58:45.164,92099,0.78,-0.11,0.17,0.0,83.74,90.74,1,1
16:58:45.364,92299,0.78,-0.11,0.17,0.0,83.74,90.74,1,1
16:58:45.564,92499,0.78,-0.11,0.17,0.0,83.74,90.74,1,1
16:58:45.764,92699,0.78,-0.11,0.17,0.0,83.74,90.74,1,1
16:58:45.965,92900,0.78,-0.11,0.17,0.0,83.74,90.74,1,1
16:58:46.170,93105,0.79,-0.10,0.18,0.0,83.73,90.68,1,1
16:58:46.369,93304,0.78,-0.10,0.18,0.0,83.72,90.80,1,1
16:58:46.569,93504,0.79,-0.10,0.20,0.0,83.67,90.67,1,1
16:58:46.775,93710,0.80,-0.10,0.22,0.0,83.73,90.71,1,1
16:58:46.974,93909,0.80,-0.11,0.21,0.0,83.74,90.66,1,1
16:58:47.174,94109,0.80,-0.11,0.21,0.0,83.74,90.70,1,1
16:58:47.380,94315,0.80,-0.11,0.21,0.0,83.74,90.70,1,1
16:58:47.579,94514,0.80,-0.11,0.21,0.0,83.74,90.70,1,1
16:58:47.780,94715,0.80,-0.11,0.21,0.0,83.74,90.70,1,1
16:58:47.980,94915,0.80,-0.11,0.21,0.0,83.74,90.70,1,1
16:58:48.180,95115,0.80,-0.11,0.21,0.0,83.74,90.70,1,1
16:58:48.381,95316,0.80,-0.11,0.21,0.0,83.74,90.70,1,1
16:58:48.580,95515,0.80,-0.11,0.21,0.0,83.74,90.70,1,1
16:58:48.780,95715,0.80,-0.11,0.21,0.0,83.74,90.70,1,1
16:58:48.981,95916,0.80,-0.11,0.21,0.0,83.74,90.70,1,1
16:58:49.181,96116,0.80,-0.11,0.21,0.0,83.74,90.70,1,1
16:58:49.381,96316,0.80,-0.11,0.21,0.0,83.74,90.70,1,1
16:58:49.581,96516,0.80,-0.11,0.21,0.0,83.74,90.70,1,1
16:58:49.787,96722,0.80,-0.11,0.21,0.0,83.74,90.70,1,1
16:58:49.987,96922,0.80,-0.11,0.21,0.0,83.74,90.70,1,1
16:58:50.192,97127,0.80,-0.11,0.21,0.0,83.74,90.70,1,1
16:58:50.392,97327,0.80,-0.11,0.21,0.0,83.74,90.70,1,1
16:58:50.597,97532,0.79,-0.13,0.23,0.0,83.88,90.77,1,1
16:58:50.797,97732,0.80,-0.13,0.23,0.0,83.83,90.66,1,1
16:58:51.197,98132,0.81,-0.15,0.22,0.0,83.82,90.63,1,1
16:58:51.398,98333,0.82,-0.14,0.22,0.0,83.82,90.66,1,1
16:58:51.602,98537,0.82,-0.15,0.23,0.0,83.88,90.60,1,1
16:58:51.802,98737,0.83,-0.15,0.24,0.0,83.83,90.64,1,1
16:58:52.003,98938,0.83,-0.15,0.24,0.0,83.83,90.64,1,1
16:58:52.207,99142,0.83,-0.15,0.24,0.0,83.83,90.64,1,1
16:58:52.407,99342,0.83,-0.15,0.24,0.0,83.83,90.64,1,1
16:58:52.612,99547,0.83,-0.15,0.24,0.0,83.83,90.64,1,1
16:58:52.813,99748,0.83,-0.15,0.24,0.0,83.83,90.64,1,1
16:58:53.013,99948,0.83,-0.15,0.24,0.0,83.83,90.64,1,1
16:58:53.218,100153,0.83,-0.15,0.24,0.0,83.83,90.64,1,1
16:58:53.417,100352,0.83,-0.15,0.24,0.0,83.83,90.64,1,1
16:58:53.618,100553,0.83,-0.15,0.24,0.0,83.83,90.64,1,1
16:58:53.818,100753,0.83,-0.15,0.24,0.0,83.83,90.64,1,1
16:58:54.023,100958,0.83,-0.15,0.24,0.0,83.83,90.64,1,1
16:58:54.223,101158,0.83,-0.15,0.24,0.0,83.83,90.64,1,1
16:58:54.423,101358,0.83,-0.15,0.24,0.0,83.83,90.64,1,1
16:58:54.623,101558,0.83,-0.15,0.24,0.0,83.83,90.64,1,1
16:58:54.823,101758,0.84,-0.15,0.24,0.0,83.83,90.68,1,1
16:58:55.028,101963,0.84,-0.15,0.24,0.0,83.84,90.62,1,1
16:58:55.229,102164,0.84,-0.16,0.24,0.0,83.86,90.61,1,1
16:58:55.428,102363,0.84,-0.16,0.24,0.0,83.91,90.61,1,1
16:58:55.628,102563,0.85,-0.17,0.22,0.0,83.89,90.54,1,1
16:58:55.829,102764,0.85,-0.17,0.21,0.0,83.93,90.59,1,1
16:58:56.034,102969,0.85,-0.17,0.19,0.0,83.89,90.60,1,1
16:58:56.234,103169,0.85,-0.18,0.20,0.0,84.00,90.64,1,1
16:58:56.434,103369,0.85,-0.18,0.19,0.0,83.94,90.58,1,1
16:58:56.639,103574,0.84,-0.19,0.18,0.0,83.91,90.61,1,1
16:58:56.839,103774,0.84,-0.19,0.18,0.0,83.91,90.61,1,1
16:58:57.040,103975,0.84,-0.19,0.18,0.0,83.91,90.61,1,1
16:58:57.240,104175,0.84,-0.19,0.18,0.0,83.91,90.61,1,1
16:58:57.440,104375,0.84,-0.19,0.18,0.0,83.91,90.61,1,1
16:58:57.641,104576,0.84,-0.19,0.18,0.0,83.91,90.61,1,1
16:58:57.846,104781,0.84,-0.19,0.18,0.0,83.91,90.61,1,1
16:58:58.046,104981,0.84,-0.19,0.18,0.0,83.91,90.61,1,1
16:58:58.246,105181,0.84,-0.19,0.18,0.0,83.91,90.61,1,1
16:58:58.451,105386,0.84,-0.19,0.18,0.0,83.91,90.61,1,1
16:58:58.651,105586,0.84,-0.19,0.18,0.0,83.91,90.61,1,1
16:58:58.852,105787,0.84,-0.19,0.18,0.0,83.91,90.61,1,1
16:58:59.056,105991,0.84,-0.19,0.16,0.0,83.87,90.62,1,1
16:58:59.262,106197,0.85,-0.15,0.17,0.0,83.84,90.48,1,1
16:58:59.462,106397,0.88,-0.12,0.16,0.0,83.72,90.57,1,1
16:58:59.662,106598,0.89,-0.11,0.16,0.0,83.69,90.51,1,1
16:58:59.863,106798,0.88,-0.10,0.17,0.0,83.67,90.52,1,1
16:59:00.068,107004,0.89,-0.09,0.17,0.0,83.65,90.51,1,1
16:59:00.268,107203,0.89,-0.09,0.17,0.0,83.70,90.49,1,1
16:59:00.468,107403,0.89,-0.09,0.17,0.0,83.70,90.49,1,1
16:59:00.673,107608,0.89,-0.09,0.17,0.0,83.70,90.49,1,1
16:59:00.874,107809,0.90,-0.09,0.16,0.0,83.64,90.49,1,1
16:59:01.079,108014,0.90,-0.09,0.17,0.0,83.76,90.42,1,1
16:59:01.278,108213,0.91,-0.09,0.15,0.0,83.64,90.46,1,1
16:59:01.478,108413,0.91,-0.08,0.16,0.0,83.63,90.41,1,1
16:59:01.679,108614,0.91,-0.08,0.16,0.0,83.61,90.40,1,1
16:59:01.884,108819,0.92,-0.08,0.16,0.0,83.67,90.42,1,1
16:59:02.084,109019,0.92,-0.08,0.16,0.0,83.67,90.42,1,1
16:59:02.284,109219,0.92,-0.08,0.16,0.0,83.67,90.42,1,1
16:59:02.489,109424,0.92,-0.08,0.16,0.0,83.67,90.42,1,1
16:59:02.689,109624,0.92,-0.08,0.16,0.0,83.67,90.42,1,1
16:59:02.889,109824,0.92,-0.08,0.16,0.0,83.67,90.42,1,1
16:59:03.090,110025,0.92,-0.08,0.16,0.0,83.67,90.42,1,1
16:59:03.290,110225,0.92,-0.08,0.16,0.0,83.67,90.42,1,1
16:59:03.495,110430,0.92,-0.08,0.16,0.0,83.67,90.42,1,1
16:59:03.695,110630,0.92,-0.08,0.16,0.0,83.67,90.42,1,1
16:59:03.896,110831,0.92,-0.08,0.16,0.0,83.67,90.42,1,1
16:59:04.100,111035,0.92,-0.08,0.16,0.0,83.67,90.42,1,1
16:59:04.301,111236,0.92,-0.08,0.16,0.0,83.67,90.42,1,1
16:59:04.501,111436,0.92,-0.08,0.16,0.0,83.67,90.42,1,1
16:59:04.700,111635,0.92,-0.08,0.16,0.0,83.67,90.42,1,1
16:59:04.901,111836,0.92,-0.08,0.16,0.0,83.67,90.42,1,1
16:59:05.102,112037,0.92,-0.08,0.16,0.0,83.67,90.42,1,1
16:59:05.301,112236,0.92,-0.08,0.16,0.0,83.67,90.42,1,1
16:59:05.502,112437,0.92,-0.08,0.16,0.0,83.67,90.42,1,1
16:59:05.708,112643,0.92,-0.08,0.16,0.0,83.67,90.42,1,1
16:59:05.913,112848,0.92,-0.08,0.16,0.0,83.67,90.42,1,1
16:59:06.112,113047,0.92,-0.08,0.16,0.0,83.67,90.42,1,1
16:59:06.313,113248,0.92,-0.08,0.16,0.0,83.67,90.42,1,1
16:59:06.513,113448,0.92,-0.08,0.16,0.0,83.67,90.42,1,1
16:59:06.717,113652,0.92,-0.08,0.16,0.0,83.67,90.42,1,1
16:59:06.917,113852,0.92,-0.08,0.16,0.0,83.67,90.42,1,1
16:59:07.118,114053,0.92,-0.08,0.16,0.0,83.67,90.42,1,1
16:59:07.318,114253,0.92,-0.08,0.16,0.0,83.67,90.42,1,1
16:59:07.518,114453,0.92,-0.08,0.16,0.0,83.67,90.42,1,1
16:59:07.719,114654,0.92,-0.08,0.16,0.0,83.67,90.42,1,1
16:59:07.923,114858,0.92,-0.08,0.16,0.0,83.67,90.42,1,1
16:59:08.123,115058,0.92,-0.08,0.16,0.0,83.67,90.42,1,1
16:59:08.323,115258,0.92,-0.08,0.16,0.0,83.67,90.42,1,1
16:59:08.528,115463,0.92,-0.08,0.16,0.0,83.67,90.42,1,1
16:59:08.730,115665,0.92,-0.08,0.16,0.0,83.67,90.42,1,1
16:59:08.934,115869,0.93,-0.06,0.17,0.0,83.63,90.35,1,1
16:59:09.134,116069,0.93,-0.04,0.17,0.0,83.54,90.46,1,1
16:59:09.334,116269,0.91,-0.07,0.16,0.0,83.65,90.51,1,1
16:59:09.533,116468,0.89,-0.08,0.15,0.0,83.67,90.45,1,1
16:59:09.735,116670,0.85,-0.15,0.16,0.0,83.93,90.65,1,1
16:59:09.939,116875,0.84,-0.18,0.16,0.0,84.01,90.62,1,1
16:59:10.140,117075,0.81,-0.20,0.16,0.0,84.00,90.74,1,1
16:59:10.340,117275,0.81,-0.19,0.15,0.0,83.87,90.63,1,1
16:59:10.539,117474,0.82,-0.17,0.15,0.0,83.89,90.65,1,1
16:59:10.740,117675,0.82,-0.20,0.16,0.0,83.83,90.66,1,1
16:59:10.939,117874,0.82,-0.19,0.15,0.0,83.92,90.65,1,1
16:59:11.145,118080,0.83,-0.19,0.15,0.0,83.92,90.64,1,1
16:59:11.350,118285,0.84,-0.18,0.15,0.0,83.95,90.56,1,1
16:59:11.550,118485,0.85,-0.18,0.17,0.0,83.94,90.54,1,1
16:59:11.750,118685,0.85,-0.17,0.15,0.0,83.83,90.58,1,1
16:59:11.955,118890,0.86,-0.17,0.16,0.0,83.98,90.62,1,1
16:59:12.156,119091,0.85,-0.17,0.15,0.0,83.88,90.53,1,1
16:59:12.355,119290,0.85,-0.17,0.15,0.0,83.88,90.58,1,1
16:59:12.560,119495,0.85,-0.17,0.15,0.0,83.88,90.58,1,1
16:59:12.760,119695,0.85,-0.17,0.15,0.0,83.88,90.58,1,1
16:59:12.965,119900,0.85,-0.17,0.15,0.0,83.88,90.58,1,1
16:59:13.165,120100,0.85,-0.17,0.15,0.0,83.88,90.58,1,1
16:59:13.370,120305,0.85,-0.17,0.15,0.0,83.88,90.58,1,1
16:59:13.571,120506,0.85,-0.17,0.15,0.0,83.88,90.58,1,1
16:59:13.776,120711,0.85,-0.17,0.15,0.0,83.88,90.58,1,1
16:59:13.976,120911,0.85,-0.17,0.15,0.0,83.88,90.58,1,1
16:59:14.175,121110,0.85,-0.17,0.15,0.0,83.88,90.58,1,1
16:59:14.377,121312,0.85,-0.17,0.15,0.0,83.88,90.58,1,1
16:59:14.581,121516,0.85,-0.17,0.15,0.0,83.88,90.58,1,1
16:59:14.781,121716,0.86,-0.16,0.16,0.0,83.91,90.57,1,1
16:59:14.986,121921,0.85,-0.16,0.17,0.0,83.86,90.64,1,1
16:59:15.186,122121,0.85,-0.17,0.15,0.0,83.88,90.59,1,1
16:59:15.387,122322,0.86,-0.18,0.15,0.0,83.85,90.57,1,1
16:59:15.587,122522,0.87,-0.18,0.16,0.0,83.95,90.56,1,1
16:59:15.791,122726,0.86,-0.16,0.15,0.0,83.81,90.56,1,1
16:59:15.991,122926,0.86,-0.16,0.13,0.0,83.91,90.52,1,1
16:59:16.192,123127,0.87,-0.16,0.13,0.0,83.81,90.50,1,1
16:59:16.392,123327,0.87,-0.15,0.13,0.0,83.90,90.54,1,1
16:59:16.597,123532,0.87,-0.13,0.13,0.0,83.58,90.49,1,1
16:59:16.797,123732,0.87,-0.13,0.13,0.0,83.89,90.54,1,1
16:59:16.997,123932,0.88,-0.12,0.12,0.0,83.77,90.47,1,1
16:59:17.197,124132,0.88,-0.12,0.12,0.0,83.82,90.52,1,1
16:59:17.397,124332,0.88,-0.14,0.13,0.0,83.80,90.47,1,1
16:59:17.597,124532,0.88,-0.14,0.12,0.0,83.87,90.52,1,1
16:59:17.797,124732,0.89,-0.16,0.12,0.0,83.85,90.51,1,1
16:59:17.998,124933,0.89,-0.15,0.10,0.0,83.73,90.50,1,1
16:59:18.198,125133,0.89,-0.14,0.12,0.0,83.82,90.50,1,1
16:59:18.398,125333,0.89,-0.14,0.13,0.0,83.82,90.50,1,1
16:59:18.603,125538,0.89,-0.14,0.13,0.0,83.82,90.50,1,1
16:59:18.802,125737,0.89,-0.14,0.13,0.0,83.82,90.50,1,1
16:59:19.002,125937,0.89,-0.14,0.13,0.0,83.82,90.50,1,1
16:59:19.208,126143,0.89,-0.14,0.13,0.0,83.82,90.50,1,1
16:59:19.408,126343,0.89,-0.14,0.13,0.0,83.82,90.50,1,1
16:59:19.613,126548,0.89,-0.14,0.13,0.0,83.82,90.50,1,1
16:59:19.813,126748,0.89,-0.14,0.13,0.0,83.82,90.50,1,1
16:59:20.013,126948,0.89,-0.14,0.13,0.0,83.82,90.50,1,1
16:59:20.218,127153,0.89,-0.14,0.13,0.0,83.82,90.50,1,1
16:59:20.418,127353,0.89,-0.14,0.13,0.0,83.82,90.50,1,1
16:59:20.623,127558,0.89,-0.14,0.13,0.0,83.82,90.50,1,1
16:59:20.824,127759,0.89,-0.14,0.13,0.0,83.82,90.50,1,1
16:59:21.024,127959,0.89,-0.14,0.13,0.0,83.82,90.50,1,1
16:59:21.229,128164,0.89,-0.14,0.13,0.0,83.82,90.50,1,1
16:59:21.429,128364,0.89,-0.14,0.13,0.0,83.82,90.50,1,1
16:59:21.634,128569,0.89,-0.14,0.13,0.0,83.82,90.50,1,1
16:59:21.834,128769,0.89,-0.14,0.13,0.0,83.82,90.50,1,1
16:59:22.034,128969,0.89,-0.14,0.13,0.0,83.82,90.50,1,1
16:59:22.235,129170,0.92,-0.11,1.06,0.0,82.53,89.27,1,1
16:59:22.434,129369,0.07,1.57,-3.21,0.0,67.13,100.40,1,1
16:59:22.635,129570,-8.38,8.19,-25.26,0.0,57.10,118.90,1,1
16:59:22.834,129769,-14.60,8.47,-39.40,0.0,57.10,115.58,1,1
16:59:23.035,129970,-12.92,7.39,-42.96,0.0,69.93,114.78,1,1
16:59:23.239,130174,-9.39,7.57,-44.22,0.0,71.72,98.76,1,1
16:59:23.439,130374,0.23,5.34,-49.76,0.0,98.71,75.45,1,1
16:59:40.740,147675,0.37,-0.58,0.00,0.0,84.80,91.68,0,0
16:59:40.941,147876,0.35,-0.58,0.01,0.0,84.75,91.76,1,1
16:59:41.141,148077,0.35,-0.59,0.01,0.0,84.84,91.72,1,1
16:59:41.341,148276,0.36,-0.60,0.01,0.0,84.78,91.70,1,1
16:59:41.545,148480,0.35,-0.59,0.03,0.0,84.82,91.65,1,1
16:59:41.751,148686,0.36,-0.59,0.04,0.0,84.82,91.64,1,1
16:59:41.951,148886,0.36,-0.59,0.04,0.0,84.83,91.69,1,1
16:59:42.150,149085,0.36,-0.59,0.04,0.0,84.82,91.69,1,1
16:59:42.351,149286,0.36,-0.59,0.04,0.0,84.82,91.69,1,1
16:59:42.557,149492,0.36,-0.59,0.04,0.0,84.82,91.69,1,1
16:59:42.757,149692,0.36,-0.59,0.04,0.0,84.82,91.69,1,1
16:59:42.962,149897,0.36,-0.59,0.04,0.0,84.82,91.69,1,1
16:59:43.161,150096,0.36,-0.59,0.04,0.0,84.82,91.69,1,1
16:59:43.361,150296,0.36,-0.59,0.04,0.0,84.82,91.69,1,1
16:59:43.562,150497,0.36,-0.59,0.04,0.0,84.82,91.69,1,1
16:59:43.762,150697,0.36,-0.59,0.04,0.0,84.82,91.69,1,1
16:59:43.968,150903,0.36,-0.59,0.04,0.0,84.82,91.69,1,1
16:59:44.168,151103,0.36,-0.59,0.04,0.0,84.82,91.69,1,1
16:59:44.368,151303,0.36,-0.59,0.04,0.0,84.82,91.69,1,1
16:59:44.568,151503,0.36,-0.59,0.04,0.0,84.82,91.69,1,1
16:59:44.768,151703,0.36,-0.59,0.04,0.0,84.82,91.69,1,1
16:59:44.968,151903,0.36,-0.59,0.04,0.0,84.82,91.69,1,1
16:59:45.169,152104,0.36,-0.59,0.04,0.0,84.82,91.69,1,1
16:59:45.369,152304,0.36,-0.59,0.04,0.0,84.82,91.69,1,1
16:59:45.569,152504,0.36,-0.59,0.04,0.0,84.82,91.69,1,1
16:59:45.774,152709,0.36,-0.59,0.04,0.0,84.82,91.69,1,1
16:59:45.974,152909,0.36,-0.59,0.04,0.0,84.82,91.69,1,1
16:59:46.173,153108,0.36,-0.59,0.04,0.0,84.82,91.69,1,1
16:59:46.379,153314,0.36,-0.59,0.04,0.0,84.82,91.69,1,1
17:00:01.445,168380,0.44,-1.82,0.00,0.0,87.64,91.52,0,0
17:00:01.645,168580,0.43,-1.83,0.01,0.0,87.60,91.53,1,1
17:00:01.846,168781,0.44,-1.82,0.00,0.0,87.64,91.46,1,1
17:00:02.045,168980,0.44,-1.82,0.01,0.0,87.60,91.51,1,1
17:00:02.246,169181,0.44,-1.82,-0.00,0.0,87.59,91.51,1,1
17:00:02.451,169386,0.45,-1.82,-0.02,0.0,87.59,91.49,1,1
17:00:02.856,169791,0.46,-1.83,-0.01,0.0,87.67,91.47,1,1
17:00:03.056,169991,0.47,-1.84,-0.02,0.0,87.63,91.45,1,1
17:00:03.255,170190,0.47,-1.85,-0.01,0.0,87.64,91.40,1,1
17:00:03.456,170391,0.48,-1.85,-0.00,0.0,87.70,91.32,1,1
17:00:03.656,170591,0.49,-1.85,-0.00,0.0,87.65,91.40,1,1
17:00:03.856,170791,0.49,-1.86,0.01,0.0,87.68,91.39,1,1
17:00:04.056,170991,0.49,-1.86,0.01,0.0,87.68,91.39,1,1
17:00:04.256,171191,0.49,-1.86,0.01,0.0,87.68,91.39,1,1
17:00:04.462,171397,0.49,-1.86,0.01,0.0,87.68,91.39,1,1
17:00:04.667,171602,0.49,-1.86,0.01,0.0,87.68,91.39,1,1
17:00:04.866,171801,0.49,-1.86,0.01,0.0,87.67,91.39,1,1
17:00:05.066,172001,0.50,-1.85,0.00,0.0,87.65,91.33,1,1
17:00:05.266,172201,0.49,-1.85,-0.01,0.0,87.60,91.40,1,1
17:00:05.466,172401,0.49,-1.85,-0.01,0.0,87.65,91.34,1,1
17:00:05.666,172601,0.50,-1.85,-0.03,0.0,87.59,91.38,1,1
17:00:05.867,172802,0.50,-1.85,-0.04,0.0,87.65,91.38,1,1
17:00:06.267,173202,0.50,-1.85,-0.04,0.0,87.66,91.32,1,1
17:00:06.467,173402,0.51,-1.85,-0.04,0.0,87.66,91.36,1,1
17:00:06.667,173602,0.51,-1.86,-0.03,0.0,87.67,91.37,1,1
17:00:06.872,173807,0.51,-1.86,-0.02,0.0,87.68,91.36,1,1
17:00:07.072,174007,0.50,-1.87,-0.02,0.0,87.69,91.39,1,1
17:00:07.272,174207,0.48,-1.87,-0.02,0.0,87.75,91.49,1,1
17:00:07.472,174407,0.46,-1.88,-0.01,0.0,87.72,91.53,1,1
17:00:07.678,174613,0.45,-1.89,-0.01,0.0,87.79,91.49,1,1
17:00:07.877,174812,0.46,-1.88,-0.01,0.0,87.82,91.53,1,1
17:00:08.079,175014,0.48,-1.87,-0.01,0.0,87.70,91.43,1,1
17:00:08.283,175218,0.48,-1.89,0.00,0.0,87.85,91.47,1,1
17:00:08.484,175419,0.50,-1.89,0.01,0.0,87.80,91.43,1,1
17:00:08.684,175619,0.51,-1.90,0.00,0.0,87.81,91.30,1,1
17:00:08.888,175823,0.51,-1.89,0.00,0.0,87.74,91.35,1,1
17:00:09.089,176024,0.52,-1.89,0.02,0.0,87.70,91.28,1,1
17:00:09.288,176223,0.52,-1.90,0.02,0.0,87.71,91.34,1,1
17:00:09.489,176424,0.52,-1.91,0.02,0.0,87.78,91.28,1,1
17:00:09.690,176625,0.52,-1.91,0.02,0.0,87.78,91.33,1,1
17:00:09.895,176830,0.52,-1.91,0.02,0.0,87.78,91.33,1,1
17:00:10.094,177029,0.52,-1.91,0.02,0.0,87.78,91.33,1,1
17:00:10.295,177230,0.52,-1.91,0.02,0.0,87.78,91.33,1,1
17:00:10.495,177430,0.52,-1.91,0.02,0.0,87.78,91.33,1,1
17:00:10.699,177634,0.52,-1.91,0.02,0.0,87.78,91.33,1,1
17:00:10.900,177835,0.52,-1.91,0.02,0.0,87.78,91.33,1,1
17:00:11.105,178040,0.52,-1.91,0.02,0.0,87.78,91.33,1,1
17:00:11.305,178240,0.52,-1.91,0.02,0.0,87.78,91.33,1,1
17:00:11.505,178440,0.52,-1.91,0.02,0.0,87.78,91.33,1,1
17:00:11.705,178640,0.52,-1.91,0.02,0.0,87.78,91.33,1,1
17:00:11.910,178845,0.52,-1.91,0.02,0.0,87.78,91.33,1,1
17:00:12.111,179046,0.52,-1.91,0.02,0.0,87.78,91.33,1,1
17:00:12.311,179246,0.52,-1.91,0.02,0.0,87.78,91.33,1,1
17:00:12.511,179446,0.52,-1.91,0.02,0.0,87.78,91.33,1,1
17:00:12.711,179646,0.52,-1.91,0.02,0.0,87.78,91.33,1,1
17:00:12.916,179851,0.52,-1.91,0.02,0.0,87.78,91.33,1,1
17:00:13.116,180051,0.52,-1.91,0.02,0.0,87.78,91.33,1,1
17:00:13.316,180251,0.52,-1.91,0.02,0.0,87.78,91.33,1,1
17:00:13.522,180457,0.52,-1.91,0.02,0.0,87.78,91.33,1,1
17:00:13.722,180657,0.52,-1.91,0.02,0.0,87.78,91.33,1,1
17:00:13.921,180856,0.52,-1.91,0.02,0.0,87.78,91.33,1,1
17:00:14.122,181057,0.52,-1.91,0.02,0.0,87.78,91.33,1,1
17:00:14.327,181262,0.52,-1.91,0.02,0.0,87.78,91.33,1,1
17:00:14.527,181462,0.52,-1.91,0.02,0.0,87.78,91.33,1,1
17:00:14.726,181661,0.52,-1.91,0.02,0.0,87.78,91.33,1,1
17:00:14.928,181863,0.52,-1.91,0.02,0.0,87.78,91.33,1,1
17:00:15.128,182063,0.52,-1.91,0.02,0.0,87.78,91.33,1,1
17:00:15.328,182263,0.52,-1.91,0.02,0.0,87.78,91.33,1,1
17:00:15.528,182463,0.52,-1.91,0.02,0.0,87.78,91.33,1,1
17:00:15.734,182669,0.52,-1.91,0.02,0.0,87.78,91.33,1,1
17:00:15.934,182869,0.52,-1.91,0.02,0.0,87.78,91.33,1,1
17:00:16.134,183069,0.52,-1.91,0.02,0.0,87.78,91.33,1,1
17:00:16.335,183270,0.52,-1.91,0.02,0.0,87.78,91.33,1,1
17:00:16.539,183474,0.52,-1.91,0.02,0.0,87.78,91.33,1,1
17:00:16.739,183675,0.52,-1.91,0.02,0.0,87.78,91.33,1,1
17:00:16.939,183874,0.52,-1.91,0.02,0.0,87.78,91.33,1,1
17:00:17.140,184075,0.52,-1.91,0.02,0.0,87.78,91.33,1,1
17:00:17.344,184279,0.52,-1.91,0.02,0.0,87.78,91.33,1,1
17:00:17.545,184481,0.52,-1.91,0.02,0.0,87.78,91.33,1,1
17:00:17.745,184680,0.52,-1.91,0.02,0.0,87.78,91.33,1,1
17:00:17.945,184880,0.52,-1.91,0.02,0.0,87.78,91.33,1,1
17:00:18.149,185084,0.52,-1.91,0.02,0.0,87.78,91.33,1,1
17:00:18.350,185285,0.52,-1.91,0.02,0.0,87.78,91.33,1,1
17:00:18.556,185491,0.52,-1.91,0.02,0.0,87.78,91.33,1,1
17:00:18.755,185690,0.52,-1.91,0.02,0.0,87.78,91.33,1,1
17:00:18.955,185890,0.52,-1.91,0.02,0.0,87.78,91.33,1,1
17:00:19.156,186091,0.52,-1.91,0.02,0.0,87.78,91.33,1,1
17:00:19.360,186295,0.52,-1.91,0.02,0.0,87.78,91.33,1,1
17:00:19.562,186497,0.52,-1.91,0.02,0.0,87.78,91.33,1,1
17:00:19.765,186700,0.52,-1.91,0.02,0.0,87.78,91.33,1,1
17:00:19.966,186901,0.52,-1.91,0.02,0.0,87.78,91.33,1,1
17:00:20.166,187101,0.52,-1.91,0.02,0.0,87.78,91.33,1,1
17:00:20.365,187300,0.52,-1.91,0.02,0.0,87.78,91.33,1,1
17:00:20.566,187501,0.52,-1.91,0.02,0.0,87.78,91.33,1,1
17:00:20.766,187701,0.52,-1.91,0.02,0.0,87.78,91.33,1,1
17:00:20.966,187901,0.52,-1.91,0.02,0.0,87.78,91.33,1,1
17:00:21.167,188102,0.52,-1.91,0.02,0.0,87.78,91.33,1,1
17:00:21.372,188307,0.52,-1.91,0.02,0.0,87.78,91.33,1,1
17:00:21.572,188507,0.52,-1.91,0.02,0.0,87.78,91.33,1,1
17:00:21.773,188708,0.52,-1.91,0.02,0.0,87.78,91.33,1,1
17:00:21.974,188909,0.52,-1.91,0.02,0.0,87.78,91.33,1,1
17:00:22.179,189114,0.52,-1.91,0.02,0.0,87.78,91.33,1,1
17:00:22.379,189314,0.52,-1.91,0.02,0.0,87.78,91.33,1,1
17:00:22.584,189519,0.52,-1.91,0.02,0.0,87.78,91.33,1,1
17:00:22.784,189719,0.52,-1.91,0.02,0.0,87.78,91.33,1,1
17:00:22.989,189924,0.52,-1.91,0.01,0.0,87.84,91.39,1,1
17:00:23.189,190124,0.52,-1.91,0.01,0.0,87.63,91.18,1,1
17:00:23.389,190324,0.51,-1.94,0.01,0.0,87.97,91.36,1,1
17:00:23.594,190529,0.51,-1.94,0.01,0.0,87.91,91.36,1,1
17:00:23.794,190729,0.51,-1.95,0.03,0.0,87.93,91.34,1,1
17:00:23.995,190930,0.52,-1.96,0.03,0.0,87.84,91.27,1,1
17:00:24.195,191130,0.52,-1.95,0.04,0.0,87.87,91.34,1,1
17:00:24.394,191329,0.51,-1.95,0.04,0.0,87.87,91.35,1,1
17:00:24.599,191534,0.53,-1.94,0.04,0.0,87.80,91.31,1,1
17:00:24.805,191740,0.53,-1.95,0.06,0.0,88.08,91.46,1,1
17:00:25.004,191939,0.53,-1.95,0.06,0.0,87.87,91.30,1,1
17:00:25.204,192139,0.53,-1.95,0.06,0.0,87.87,91.30,1,1
17:00:25.411,192346,0.53,-1.95,0.06,0.0,87.87,91.30,1,1
17:00:25.610,192545,0.53,-1.95,0.06,0.0,87.87,91.30,1,1
17:00:25.810,192745,0.53,-1.95,0.06,0.0,87.87,91.30,1,1
17:00:26.011,192946,0.53,-1.95,0.06,0.0,87.87,91.30,1,1
17:00:26.215,193150,0.53,-1.95,0.06,0.0,87.87,91.30,1,1
17:00:26.415,193350,0.53,-1.95,0.06,0.0,87.87,91.30,1,1
17:00:26.615,193550,0.53,-1.95,0.06,0.0,87.87,91.30,1,1
17:00:26.816,193751,0.53,-1.95,0.06,0.0,87.87,91.30,1,1
17:00:27.016,193951,0.53,-1.95,0.06,0.0,87.87,91.30,1,1
17:00:27.221,194156,0.56,-1.94,0.06,0.0,87.86,91.14,1,1
17:00:27.421,194356,0.58,-1.92,0.06,0.0,87.76,91.15,1,1
17:00:27.626,194561,0.57,-1.94,0.05,0.0,87.85,91.23,1,1
17:00:27.826,194761,0.58,-1.93,0.06,0.0,87.84,91.20,1,1
17:00:28.026,194961,0.59,-1.93,0.06,0.0,87.83,91.18,1,1
17:00:28.226,195161,0.59,-1.93,0.05,0.0,87.88,91.12,1,1
17:00:28.431,195366,0.60,-1.92,0.06,0.0,87.77,91.11,1,1
17:00:28.631,195566,0.60,-1.95,0.07,0.0,87.93,91.10,1,1
17:00:28.836,195771,0.61,-1.95,0.06,0.0,87.88,91.13,1,1
17:00:29.036,195971,0.62,-1.96,0.06,0.0,87.96,91.06,1,1
17:00:29.236,196171,0.62,-1.96,0.07,0.0,87.91,91.10,1,1
17:00:29.441,196376,0.62,-1.96,0.07,0.0,87.91,91.10,1,1
17:00:29.641,196576,0.62,-1.96,0.07,0.0,87.91,91.10,1,1
17:00:29.842,196777,0.62,-1.96,0.07,0.0,87.91,91.10,1,1
17:00:30.047,196982,0.62,-1.96,0.07,0.0,87.91,91.10,1,1
17:00:30.247,197182,0.62,-1.96,0.07,0.0,87.91,91.10,1,1
17:00:30.447,197382,0.62,-1.96,0.07,0.0,87.91,91.10,1,1
17:00:30.652,197587,0.62,-1.96,0.07,0.0,87.91,91.10,1,1
17:00:30.853,197788,0.62,-1.96,0.07,0.0,87.91,91.10,1,1
17:00:31.052,197987,0.62,-1.96,0.07,0.0,87.91,91.10,1,1
17:00:31.253,198188,0.62,-1.96,0.07,0.0,87.91,91.10,1,1
17:00:31.458,198393,0.62,-1.96,0.07,0.0,87.91,91.10,1,1
17:00:31.658,198593,0.62,-1.96,0.07,0.0,87.91,91.10,1,1
17:00:31.863,198798,0.62,-1.96,0.07,0.0,87.91,91.10,1,1
17:00:32.063,198998,0.62,-1.96,0.07,0.0,87.91,91.10,1,1
17:00:32.262,199197,0.62,-1.96,0.07,0.0,87.91,91.10,1,1
17:00:32.463,199398,0.62,-1.96,0.07,0.0,87.91,91.10,1,1
17:00:32.663,199598,0.62,-1.96,0.07,0.0,87.91,91.10,1,1
17:00:32.868,199803,0.62,-1.96,0.07,0.0,87.91,91.10,1,1
17:00:33.068,200003,0.62,-1.96,0.07,0.0,87.91,91.10,1,1
17:00:33.268,200203,0.62,-1.96,0.07,0.0,87.91,91.10,1,1
17:00:33.474,200409,0.62,-1.96,0.07,0.0,87.91,91.10,1,1
17:00:33.674,200609,0.62,-1.96,0.07,0.0,87.91,91.10,1,1
17:00:33.879,200814,0.62,-1.96,0.07,0.0,87.91,91.10,1,1
17:00:34.079,201014,0.62,-1.96,0.07,0.0,87.91,91.10,1,1
17:00:34.283,201218,0.62,-1.96,0.07,0.0,87.91,91.10,1,1
17:00:34.484,201419,0.62,-1.96,0.07,0.0,87.91,91.10,1,1
17:00:34.685,201620,0.62,-1.96,0.07,0.0,87.91,91.10,1,1
17:00:34.885,201820,0.62,-1.96,0.07,0.0,87.91,91.10,1,1
17:00:35.085,202020,0.62,-1.96,0.07,0.0,87.91,91.10,1,1
17:00:35.289,202225,0.62,-1.96,0.07,0.0,87.91,91.10,1,1
17:00:35.495,202430,0.62,-1.96,0.07,0.0,87.91,91.10,1,1
17:00:35.694,202629,0.62,-1.96,0.07,0.0,87.91,91.10,1,1
17:00:35.900,202835,0.62,-1.96,0.07,0.0,87.91,91.10,1,1
17:00:36.100,203035,0.62,-1.96,0.07,0.0,87.91,91.10,1,1
17:00:36.305,203240,0.62,-1.96,0.07,0.0,87.91,91.10,1,1
17:00:36.505,203440,0.62,-1.96,0.07,0.0,87.91,91.10,1,1
17:00:36.709,203644,0.62,-1.96,0.07,0.0,87.91,91.10,1,1
17:00:36.915,203850,0.62,-1.96,0.07,0.0,87.91,91.10,1,1
17:00:37.115,204050,0.62,-1.96,0.07,0.0,87.91,91.10,1,1
17:00:37.315,204250,0.62,-1.96,0.07,0.0,87.91,91.10,1,1
17:00:37.520,204455,0.62,-1.96,0.07,0.0,87.91,91.10,1,1
17:00:37.720,204655,0.62,-1.96,0.07,0.0,87.91,91.10,1,1
17:00:37.920,204855,0.62,-1.96,0.07,0.0,87.91,91.10,1,1
17:00:38.121,205056,0.62,-1.96,0.07,0.0,87.91,91.10,1,1
17:00:38.320,205255,0.62,-1.96,0.07,0.0,87.91,91.10,1,1
17:00:38.521,205456,0.62,-1.96,0.07,0.0,87.91,91.10,1,1
17:00:38.721,205656,0.62,-1.96,0.07,0.0,87.91,91.10,1,1
17:00:38.921,205856,0.62,-1.96,0.07,0.0,87.91,91.10,1,1
17:00:39.120,206055,0.62,-1.96,0.07,0.0,87.91,91.10,1,1
17:00:39.326,206261,0.62,-1.96,0.07,0.0,87.91,91.10,1,1
17:00:39.526,206461,0.62,-1.96,0.07,0.0,87.91,91.10,1,1
17:00:39.726,206661,0.62,-1.96,0.07,0.0,87.91,91.10,1,1
17:00:39.926,206861,0.62,-1.96,0.07,0.0,87.91,91.10,1,1
17:00:40.131,207066,0.62,-1.96,0.07,0.0,87.91,91.10,1,1
17:00:40.331,207266,0.62,-1.96,0.07,0.0,87.91,91.10,1,1
17:00:40.537,207472,0.62,-1.96,0.07,0.0,87.91,91.10,1,1
17:00:40.736,207671,0.62,-1.96,0.07,0.0,87.91,91.10,1,1
17:00:40.941,207876,0.62,-1.96,0.07,0.0,87.91,91.10,1,1
17:00:41.141,208076,0.62,-1.96,0.07,0.0,87.91,91.10,1,1
17:00:41.342,208277,0.62,-1.96,0.07,0.0,87.91,91.10,1,1
17:00:41.542,208477,0.62,-1.96,0.07,0.0,87.91,91.10,1,1
17:00:56.643,223578,0.43,-0.61,-0.00,0.0,84.87,91.53,0,0
17:00:56.847,223782,0.44,-0.61,0.00,0.0,84.88,91.46,0,0
17:00:57.047,223982,0.44,-0.62,-0.01,0.0,84.90,91.51,0,0
17:00:57.248,224183,0.45,-0.63,-0.00,0.0,84.97,91.50,0,0
17:00:57.448,224383,0.44,-0.62,0.02,0.0,84.85,91.50,0,0
17:00:57.653,224588,0.44,-0.63,-0.00,0.0,84.86,91.51,0,0
17:00:57.853,224788,0.44,-0.62,0.00,0.0,84.90,91.46,0,0
17:00:58.059,224994,0.44,-0.63,-0.00,0.0,84.91,91.51,0,0
17:00:58.258,225193,0.44,-0.63,-0.00,0.0,84.91,91.51,0,0
17:00:58.459,225394,0.44,-0.63,-0.00,0.0,84.91,91.51,0,0
17:00:58.659,225594,0.44,-0.63,-0.00,0.0,84.91,91.51,0,1
17:00:58.863,225798,0.44,-0.63,-0.00,0.0,84.91,91.51,0,0
17:00:59.065,226000,0.44,-0.63,-0.00,0.0,84.91,91.51,0,0
17:00:59.269,226204,0.44,-0.63,-0.00,0.0,84.91,91.51,0,1
17:00:59.469,226404,0.44,-0.63,-0.00,0.0,84.91,91.51,0,0
17:00:59.669,226604,0.44,-0.64,-0.00,0.0,84.93,91.40,0,1
17:00:59.869,226804,0.44,-0.64,-0.01,0.0,84.77,91.41,0,0
17:01:00.069,227004,0.44,-0.64,-0.01,0.0,84.94,91.57,0,0
17:01:00.269,227204,0.44,-0.64,-0.01,0.0,84.83,91.52,0,0
17:01:00.470,227405,0.44,-0.63,-0.01,0.0,84.92,91.56,0,0
17:01:00.670,227605,0.44,-0.63,-0.01,0.0,84.92,91.51,0,0
17:01:00.870,227805,0.44,-0.63,-0.01,0.0,84.92,91.51,0,0
17:01:01.071,228006,0.44,-0.63,-0.01,0.0,84.92,91.51,0,0
17:01:01.276,228211,0.44,-0.63,-0.01,0.0,84.92,91.51,1,0
17:01:01.481,228416,0.44,-0.63,-0.01,0.0,84.92,91.51,0,0
17:01:01.681,228616,0.44,-0.63,-0.01,0.0,84.92,91.51,0,0
17:01:01.881,228816,0.44,-0.63,-0.01,0.0,84.92,91.51,0,0
17:01:02.081,229016,0.44,-0.63,-0.01,0.0,84.92,91.51,0,0
17:01:02.281,229216,0.44,-0.63,-0.01,0.0,84.92,91.51,0,0
17:01:02.482,229417,0.44,-0.63,-0.01,0.0,84.92,91.51,0,0
17:01:02.686,229622,0.44,-0.63,-0.01,0.0,84.92,91.51,0,0
17:01:02.892,229827,0.44,-0.63,-0.01,0.0,84.92,91.51,0,0
17:01:03.092,230027,0.44,-0.63,-0.01,0.0,84.92,91.51,0,0
17:01:03.292,230227,0.44,-0.63,-0.01,0.0,84.92,91.51,0,0
17:01:03.497,230432,0.44,-0.63,-0.01,0.0,84.92,91.51,0,0
17:01:03.698,230633,0.44,-0.63,-0.01,0.0,84.92,91.51,0,0
17:01:03.902,230837,0.44,-0.63,-0.01,0.0,84.92,91.51,0,1
17:01:04.102,231037,0.44,-0.63,-0.01,0.0,84.92,91.51,0,0
17:01:04.302,231237,0.44,-0.63,-0.01,0.0,84.92,91.51,0,0
17:01:04.507,231442,0.44,-0.63,-0.01,0.0,84.92,91.51,0,0
17:01:04.713,231648,0.44,-0.63,-0.01,0.0,84.92,91.51,0,0
17:01:04.913,231848,0.44,-0.63,-0.01,0.0,84.92,91.51,0,0
17:01:05.112,232047,0.44,-0.63,-0.01,0.0,84.92,91.51,0,0
17:01:05.313,232248,0.44,-0.63,-0.01,0.0,84.92,91.51,0,0
17:01:05.518,232453,0.44,-0.63,-0.01,0.0,84.92,91.51,0,1
17:01:05.718,232653,0.44,-0.63,-0.01,0.0,84.92,91.51,0,0
17:01:05.918,232853,0.45,-0.63,-0.00,0.0,84.75,91.39,0,0
17:01:06.118,233053,0.43,-0.63,-0.04,0.0,84.91,91.54,0,0
17:01:06.318,233253,0.43,-0.62,-0.03,0.0,85.00,91.54,0,0
17:01:06.518,233453,0.44,-0.62,-0.01,0.0,84.88,91.46,0,0
17:01:06.718,233653,0.44,-0.62,-0.01,0.0,84.83,91.51,0,0
17:01:06.923,233858,0.46,-0.62,-0.02,0.0,84.95,91.53,0,0
17:01:07.129,234064,0.45,-0.63,-0.03,0.0,84.92,91.50,0,0
17:01:07.329,234264,0.45,-0.63,-0.03,0.0,84.92,91.50,0,0
17:01:07.529,234464,0.45,-0.63,-0.03,0.0,84.92,91.50,0,0
17:01:07.729,234664,0.45,-0.63,-0.03,0.0,84.92,91.50,0,0
17:01:07.929,234864,0.45,-0.63,-0.03,0.0,84.92,91.50,0,1
17:01:08.129,235064,0.45,-0.63,-0.03,0.0,84.92,91.50,0,0
17:01:08.334,235269,0.45,-0.63,-0.03,0.0,84.92,91.50,0,0
17:01:08.540,235475,0.43,-0.64,-0.03,0.0,84.88,91.59,0,1
17:01:08.740,235675,0.40,-0.68,-0.04,0.0,85.45,91.82,0,0
17:01:08.945,235880,0.39,-0.69,-0.04,0.0,84.94,91.57,0,0
17:01:09.144,236079,0.40,-0.68,-0.04,0.0,85.08,91.61,0,0
17:01:09.350,236285,0.40,-0.69,-0.04,0.0,85.09,91.55,0,0
17:01:09.550,236485,0.41,-0.69,-0.05,0.0,85.06,91.59,0,0
17:01:09.750,236685,0.41,-0.70,-0.06,0.0,85.06,91.53,0,0
17:01:09.950,236885,0.42,-0.70,-0.07,0.0,85.06,91.51,0,0
17:01:10.150,237085,0.43,-0.70,-0.06,0.0,85.02,91.47,0,0
17:01:10.350,237285,0.43,-0.70,-0.06,0.0,85.14,91.64,0,0
17:01:10.550,237485,0.42,-0.72,-0.05,0.0,85.12,91.60,0,0
17:01:10.750,237685,0.43,-0.72,-0.06,0.0,85.12,91.55,0,0
17:01:10.950,237885,0.44,-0.70,-0.07,0.0,85.12,91.51,0,0
17:01:11.150,238085,0.43,-0.69,-0.06,0.0,85.05,91.54,0,0
17:01:11.355,238290,0.44,-0.70,-0.06,0.0,85.08,91.57,0,0
17:01:11.555,238490,0.46,-0.70,-0.05,0.0,85.13,91.42,0,0
17:01:11.755,238690,0.46,-0.70,-0.03,0.0,84.97,91.47,0,0
17:01:11.956,238891,0.46,-0.70,-0.04,0.0,85.07,91.41,0,0
17:01:12.156,239091,0.47,-0.69,-0.06,0.0,85.04,91.45,0,1
17:01:12.356,239291,0.46,-0.69,-0.07,0.0,84.99,91.41,0,0
17:01:12.561,239496,0.46,-0.67,-0.08,0.0,84.96,91.46,0,0
17:01:12.760,239695,0.45,-0.68,-0.09,0.0,85.08,91.54,0,0
17:01:12.960,239895,0.46,-0.69,-0.09,0.0,85.04,91.43,0,0
17:01:13.166,240101,0.46,-0.69,-0.09,0.0,85.04,91.47,0,0
17:01:13.366,240301,0.46,-0.69,-0.07,0.0,85.05,91.47,1,0
17:01:13.565,240500,0.46,-0.69,-0.07,0.0,85.05,91.47,0,0
17:01:13.771,240706,0.46,-0.69,-0.07,0.0,85.05,91.47,0,0
17:01:13.971,240906,0.57,-0.49,0.11,0.0,84.08,91.12,0,0
17:01:14.171,241106,0.45,-0.57,0.11,0.0,85.51,92.39,0,0
17:01:14.371,241306,0.53,-0.48,0.11,0.0,84.74,91.53,0,0
17:01:14.576,241511,0.50,-0.49,0.11,0.0,84.71,91.48,0,0
17:01:14.777,241712,0.50,-0.51,0.11,0.0,84.59,91.32,1,0
17:01:14.981,241916,0.50,-0.52,0.11,0.0,84.71,91.37,1,0
17:01:15.182,242117,0.50,-0.51,0.10,0.0,84.59,91.38,1,0
17:02:08.155,295090,0.15,0.58,-0.00,0.0,82.19,92.15,1,0
17:02:08.354,295289,0.15,0.57,0.01,0.0,82.26,92.17,1,0
17:02:08.559,295494,0.14,0.59,0.00,0.0,82.08,92.18,1,0
17:02:08.759,295694,0.15,0.58,0.01,0.0,82.10,92.06,1,0
17:02:08.959,295894,0.14,0.57,0.00,0.0,82.28,92.19,1,0
17:02:09.159,296094,0.14,0.56,-0.01,0.0,82.29,92.20,1,0
17:02:09.365,296300,0.13,0.56,-0.01,0.0,82.30,92.20,1,0
17:02:09.565,296500,0.14,0.55,-0.01,0.0,82.26,92.19,1,0
17:02:09.769,296704,0.14,0.55,-0.01,0.0,82.26,92.19,1,0
17:02:09.970,296905,0.14,0.55,-0.01,0.0,82.26,92.19,1,0
17:02:10.375,297310,0.14,0.55,-0.01,0.0,82.26,92.19,1,0
17:02:10.580,297515,0.14,0.55,-0.01,0.0,82.26,92.19,1,0
17:02:10.779,297714,0.14,0.55,-0.01,0.0,82.26,92.19,1,0
17:02:10.980,297915,0.14,0.55,-0.01,0.0,82.26,92.19,1,0
17:02:11.180,298115,0.14,0.55,-0.01,0.0,82.26,92.19,1,0
17:02:11.380,298315,0.14,0.55,-0.01,0.0,82.26,92.19,1,0
17:02:11.580,298515,0.14,0.55,-0.01,0.0,82.26,92.19,1,0
17:02:11.780,298715,0.14,0.55,-0.01,0.0,82.26,92.19,1,0
17:02:11.985,298920,0.14,0.55,-0.01,0.0,82.26,92.19,1,0
17:02:12.185,299120,0.14,0.55,-0.01,0.0,82.26,92.19,1,0
17:02:12.390,299325,0.14,0.55,-0.01,0.0,82.26,92.19,1,0
17:02:12.591,299526,0.14,0.55,-0.01,0.0,82.26,92.19,1,0
17:02:12.791,299726,0.14,0.55,-0.01,0.0,82.26,92.19,1,0
17:02:12.991,299926,0.14,0.54,-0.02,0.0,82.39,92.19,1,0
17:02:13.196,300131,0.15,0.54,-0.02,0.0,82.28,92.12,1,0
17:02:13.400,300335,0.15,0.55,-0.01,0.0,82.38,92.17,1,0
17:02:13.605,300540,0.15,0.55,-0.02,0.0,82.17,92.06,1,0
17:02:13.806,300741,0.16,0.55,-0.03,0.0,82.32,92.30,1,0
17:02:14.006,300941,0.18,0.55,-0.03,0.0,82.27,92.09,1,0
17:02:14.212,301147,0.16,0.52,-0.02,0.0,82.33,92.08,1,0
17:02:14.412,301347,0.17,0.52,-0.01,0.0,82.22,92.12,1,0
17:02:14.611,301546,0.17,0.53,-0.00,0.0,82.25,92.08,1,0
17:02:14.816,301751,0.16,0.52,-0.00,0.0,82.34,92.15,1,0
17:02:15.017,301952,0.16,0.51,-0.00,0.0,82.35,92.14,1,0
17:02:15.217,302152,0.16,0.51,-0.00,0.0,82.35,92.14,1,0
17:02:15.417,302352,0.16,0.51,-0.00,0.0,82.35,92.14,1,0
17:02:15.617,302552,0.16,0.51,-0.00,0.0,82.35,92.14,1,0
17:02:15.823,302758,0.16,0.51,-0.00,0.0,82.35,92.14,1,0
17:02:16.022,302957,0.16,0.51,-0.00,0.0,82.35,92.14,1,0
17:02:16.222,303157,0.16,0.51,-0.00,0.0,82.35,92.14,1,0
17:02:16.427,303362,0.16,0.51,-0.00,0.0,82.35,92.14,1,0
17:02:16.628,303563,0.16,0.51,-0.00,0.0,82.35,92.14,1,0
17:02:16.827,303762,0.16,0.51,-0.00,0.0,82.35,92.14,1,0
17:02:17.027,303962,0.16,0.51,-0.00,0.0,82.35,92.14,1,0
17:02:17.228,304163,0.16,0.51,-0.00,0.0,82.35,92.14,1,0
17:02:17.432,304367,0.16,0.51,-0.00,0.0,82.35,92.14,1,0
17:02:17.633,304568,0.16,0.51,-0.00,0.0,82.35,92.14,1,0
17:02:17.837,304772,0.16,0.51,-0.00,0.0,82.35,92.14,1,0
17:02:18.038,304973,0.16,0.51,-0.00,0.0,82.35,92.14,1,0
17:02:18.238,305173,0.16,0.51,-0.00,0.0,82.35,92.14,1,0
17:02:18.438,305373,0.16,0.51,-0.00,0.0,82.35,92.14,1,0
17:02:18.643,305578,0.16,0.51,-0.00,0.0,82.35,92.14,1,0
17:02:18.848,305783,0.16,0.51,-0.00,0.0,82.35,92.14,1,0
17:02:19.053,305988,0.16,0.51,-0.00,0.0,82.35,92.14,1,0
17:02:19.253,306188,0.16,0.51,-0.00,0.0,82.35,92.14,1,0
17:02:19.453,306388,0.14,0.50,-0.01,0.0,82.38,92.07,1,0
17:02:19.653,306588,0.16,0.51,-0.01,0.0,82.36,92.14,1,0
17:02:19.854,306789,0.15,0.53,-0.02,0.0,82.00,92.17,1,0
17:02:20.059,306994,0.16,0.55,-0.02,0.0,82.37,92.15,1,0
17:02:20.264,307199,0.14,0.55,-0.01,0.0,82.32,92.13,1,0
17:02:20.464,307399,0.14,0.53,-0.02,0.0,82.46,92.18,1,0
17:02:20.669,307604,0.15,0.58,-0.02,0.0,82.25,92.33,1,0
17:02:20.869,307804,0.14,0.56,-0.05,0.0,82.19,92.03,1,0
17:02:21.069,308004,0.15,0.57,-0.04,0.0,82.32,92.21,1,0
17:02:21.275,308210,0.14,0.54,-0.05,0.0,82.28,92.18,1,0
17:02:21.475,308410,0.15,0.54,-0.72,0.0,82.30,92.15,0,0
17:02:21.675,308610,0.11,0.48,-0.89,0.0,82.57,92.29,0,0
17:02:21.880,308815,0.10,0.47,-0.99,0.0,82.23,92.10,0,0
17:02:22.080,309015,0.14,0.52,-0.87,0.0,81.96,92.03,0,0
17:02:22.280,309215,0.11,0.50,-0.92,0.0,82.23,92.15,0,0
17:02:22.480,309415,0.13,0.57,-1.23,0.0,81.69,91.78,0,0
17:02:22.681,309616,0.16,0.61,-1.87,0.0,82.18,92.11,0,0
17:02:22.881,309816,0.11,0.54,-3.85,0.0,82.34,92.26,0,0
17:02:23.086,310021,0.11,0.53,-4.59,0.0,82.54,92.26,0,0
17:02:23.286,310221,0.11,0.52,-4.57,0.0,82.28,92.21,0,0
17:02:23.490,310425,0.12,0.51,-4.57,0.0,82.58,92.34,0,0
17:02:23.691,310626,0.13,0.51,-4.57,0.0,82.31,92.05,0,0
17:02:23.896,310831,0.15,0.51,-4.57,0.0,82.41,92.08,0,0
17:02:24.095,311030,0.16,0.52,-4.56,0.0,82.35,92.10,0,0
17:02:24.296,311231,0.16,0.52,-4.56,0.0,82.35,92.09,0,0
17:02:24.496,311431,0.16,0.51,-4.57,0.0,82.36,92.09,0,0
17:02:24.701,311636,0.16,0.51,-4.57,0.0,82.42,92.10,0,0
17:02:24.901,311836,0.16,0.49,-4.55,0.0,82.40,92.09,0,0
17:02:25.101,312036,0.16,0.50,-4.55,0.0,82.40,92.03,0,0
17:02:25.301,312236,0.17,0.50,-4.53,0.0,82.33,92.08,0,0
17:02:25.501,312436,0.16,0.51,-4.52,0.0,82.36,92.09,0,0
17:02:25.701,312636,0.01,0.53,-5.25,0.0,84.37,94.54,0,0
17:02:25.906,312841,0.89,1.02,2.74,0.0,77.94,87.56,0,0
17:02:26.111,313046,-3.36,5.14,6.24,0.0,65.61,118.90,0,0
17:02:26.311,313246,-5.28,0.85,6.45,0.0,100.81,99.70,0,0
17:02:26.517,313452,-1.66,-3.50,1.72,0.0,98.46,90.63,0,0
17:02:26.717,313652,-0.13,-5.93,-5.32,0.0,87.55,103.84,0,0
17:02:26.918,313853,0.03,-2.55,-13.41,0.0,76.44,94.84,0,0
17:02:27.118,314053,0.31,-0.26,-13.26,0.0,83.06,90.94,0,0
17:02:27.322,314257,0.29,-0.26,-13.25,0.0,84.10,91.87,0,0
17:02:27.522,314457,0.27,-0.28,-13.25,0.0,84.14,91.97,0,0
17:02:27.923,314858,0.28,-0.29,-13.25,0.0,84.26,91.90,0,0
17:02:28.122,315057,0.26,-0.55,-22.70,0.0,84.72,91.38,0,0
17:02:28.327,315262,0.72,-1.41,-73.22,0.0,87.16,93.68,0,0
17:02:28.528,315463,0.72,-1.46,-78.32,0.0,87.00,93.31,0,0
17:02:28.733,315668,0.92,-1.67,-111.83,0.0,88.10,95.40,0,0
17:02:28.932,315867,1.08,-1.73,-130.28,0.0,87.39,95.05,0,0
17:02:29.138,316073,1.24,-1.71,-161.87,0.0,88.49,97.02,0,0
17:02:29.338,316273,1.59,-1.66,171.92,0.0,87.26,96.78,0,0
17:02:29.538,316473,1.64,-1.49,167.33,0.0,87.20,96.49,0,0
17:02:29.743,316679,1.63,-1.50,163.70,0.0,86.65,96.57,0,0
17:02:29.943,316878,1.63,-1.48,163.26,0.0,86.64,96.22,0,0
17:02:30.143,317078,1.70,-1.41,145.61,0.0,88.99,99.87,0,0
17:02:30.343,317278,1.58,-1.15,141.11,0.0,86.98,95.37,0,0
17:02:30.543,317478,1.56,-0.87,156.55,0.0,90.70,95.93,0,0
17:02:30.744,317679,1.55,-0.94,157.65,0.0,85.45,91.45,0,0
17:02:30.944,317879,1.37,-0.80,157.31,0.0,85.85,94.01,0,0
17:02:31.149,318084,1.36,-0.83,157.31,0.0,86.12,94.87,0,0
17:02:31.349,318284,1.36,-0.81,157.31,0.0,86.18,95.05,0,0
17:02:31.550,318485,1.34,-0.83,157.31,0.0,86.04,94.96,0,0
17:02:31.749,318684,1.34,-0.82,157.31,0.0,86.09,94.90,0,0
17:02:31.949,318884,1.33,-0.82,157.32,0.0,86.13,94.89,0,0
17:02:32.150,319085,1.33,-0.81,157.32,0.0,86.13,94.86,0,0
17:02:32.350,319285,1.33,-0.81,157.31,0.0,86.07,94.81,1,0
17:02:32.549,319484,1.33,-0.81,157.30,0.0,86.08,94.86,0,0
17:02:32.749,319684,1.33,-0.81,157.30,0.0,86.08,94.86,0,0
17:02:32.950,319885,1.33,-0.81,157.30,0.0,86.08,94.86,0,0
17:02:33.150,320085,1.33,-0.81,157.30,0.0,86.08,94.86,0,0
17:02:33.356,320291,1.33,-0.81,157.30,0.0,86.08,94.86,0,0
17:02:33.556,320491,1.33,-0.81,157.30,0.0,86.08,94.86,0,0
17:02:33.755,320690,1.33,-0.81,157.30,0.0,86.08,94.86,0,0
17:02:33.956,320891,1.33,-0.81,157.30,0.0,86.08,94.86,0,0
17:02:34.161,321096,1.33,-0.81,157.30,0.0,86.08,94.86,0,0
17:02:34.360,321295,1.33,-0.81,157.30,0.0,86.08,94.86,0,0
17:02:34.561,321496,1.33,-0.81,157.30,0.0,86.08,94.86,0,0
17:02:34.761,321696,1.33,-0.81,157.30,0.0,86.08,94.86,0,0
17:02:34.966,321901,1.33,-0.81,157.30,0.0,86.08,94.86,0,0
17:02:35.166,322101,1.33,-0.81,157.30,0.0,86.08,94.86,0,0
17:02:35.367,322302,1.33,-0.81,157.30,0.0,86.08,94.86,0,0
17:02:35.572,322507,1.33,-0.80,157.30,0.0,86.08,94.86,0,0
17:02:35.772,322707,1.33,-0.81,157.31,0.0,86.08,94.86,0,0
17:02:35.971,322906,1.34,-0.82,157.30,0.0,86.03,94.89,0,0
17:02:36.171,323106,1.32,-0.81,157.31,0.0,85.99,94.77,0,1
17:02:36.372,323307,1.32,-0.83,157.28,0.0,85.98,94.90,0,0
17:02:36.572,323507,1.32,-0.82,157.28,0.0,86.04,94.90,0,0
17:02:36.972,323907,1.32,-0.82,157.28,0.0,86.04,94.90,0,0
17:02:37.172,324107,1.32,-0.82,157.28,0.0,86.04,94.90,0,0
17:02:37.372,324307,1.32,-0.82,157.28,0.0,86.04,94.90,0,0
17:02:37.578,324513,1.32,-0.82,157.28,0.0,86.04,94.90,0,0
17:02:37.778,324713,1.32,-0.82,157.28,0.0,86.04,94.90,0,0
17:02:37.979,324914,1.32,-0.82,157.28,0.0,86.04,94.90,0,0
17:02:38.178,325113,1.32,-0.82,157.28,0.0,86.04,94.90,1,0
17:02:38.383,325318,1.32,-0.82,157.28,0.0,86.04,94.90,0,0
17:02:38.583,325518,1.32,-0.82,157.28,0.0,86.04,94.90,0,0
17:02:45.011,331946,1.32,-0.82,157.28,0.0,84.64,92.89,0,0
17:02:45.215,332150,-0.17,-0.51,0.00,0.0,84.64,92.89,0,0
17:02:45.415,332350,-0.17,-0.51,0.00,0.0,84.64,92.89,0,0
17:02:45.615,332550,-0.17,-0.51,0.00,0.0,84.64,92.89,0,0
17:02:45.815,332750,-0.17,-0.51,0.00,0.0,84.64,92.89,0,0
17:02:46.021,332956,-0.19,-0.52,-0.01,0.0,84.71,92.93,0,0
17:02:46.221,333156,-0.20,-0.52,-0.01,0.0,84.67,92.95,0,0
17:02:46.426,333361,-0.21,-0.52,-0.00,0.0,84.62,92.91,0,0
17:02:46.627,333562,-0.20,-0.51,-0.01,0.0,84.66,92.95,0,0
17:02:46.831,333767,-0.20,-0.52,-0.02,0.0,84.72,92.90,0,0
17:02:47.032,333967,-0.21,-0.52,-0.03,0.0,84.66,92.97,0,0
17:02:47.231,334166,-0.21,-0.52,-0.03,0.0,84.66,92.97,0,1
17:02:47.431,334366,-0.21,-0.52,-0.03,0.0,84.66,92.97,0,0
17:02:47.632,334567,-0.21,-0.52,-0.03,0.0,84.66,92.97,0,0
17:02:47.832,334767,-0.21,-0.52,-0.03,0.0,84.66,92.97,0,0
17:02:48.031,334966,-0.21,-0.52,-0.03,0.0,84.66,92.97,0,0
17:02:48.232,335167,-0.21,-0.52,-0.03,0.0,84.66,92.97,0,0
17:02:48.437,335372,-0.21,-0.52,-0.03,0.0,84.66,92.97,0,0
17:02:48.642,335577,-0.21,-0.52,-0.03,0.0,84.66,92.97,0,0
17:02:48.842,335777,-0.21,-0.52,-0.03,0.0,84.66,92.97,0,0
17:02:49.042,335977,-0.21,-0.52,-0.03,0.0,84.66,92.97,0,0
17:02:49.242,336177,-0.21,-0.52,-0.03,0.0,84.66,92.97,0,0
17:02:49.448,336383,-0.21,-0.52,-0.03,0.0,84.66,92.97,0,0
17:02:49.652,336587,-0.21,-0.52,-0.03,0.0,84.66,92.97,0,0
17:02:49.852,336787,-0.21,-0.52,-0.03,0.0,84.66,92.97,0,1
17:02:50.257,337192,-0.21,-0.52,-0.03,0.0,84.66,92.97,0,0
17:02:50.457,337392,-0.10,-0.41,-0.07,0.0,83.94,91.79,0,0
17:02:50.657,337592,1.48,4.43,-1.63,0.0,57.10,85.87,1,0
17:02:50.858,337793,5.39,1.25,-1.19,0.0,93.11,67.85,0,0
17:02:51.063,337998,7.12,-0.25,-4.68,0.0,79.71,80.36,0,0
17:02:51.263,338198,-4.09,-10.55,-11.47,0.0,109.90,118.90,0,0
17:02:51.463,338398,5.54,-20.46,-14.98,0.0,109.90,66.10,0,0
17:02:51.663,338598,19.24,-12.57,-12.61,0.0,86.87,66.10,0,1
17:02:51.863,338798,21.45,0.46,-8.32,0.0,57.10,66.10,0,0
17:02:52.063,338998,15.96,13.22,-6.95,0.0,57.10,66.10,0,0
17:02:52.269,339204,2.48,14.68,-11.73,0.0,57.10,118.90,0,0
17:02:52.468,339403,-10.10,10.73,-15.94,0.0,64.39,118.90,0,0
17:02:52.668,339603,-11.99,0.14,-15.96,0.0,100.80,118.90,0,0
17:02:52.868,339803,-9.15,-6.49,-10.08,0.0,98.85,111.24,0,0
17:02:53.069,340004,-5.80,-5.78,11.33,0.0,93.89,94.77,0,0
17:02:53.270,340205,-1.11,-3.02,27.73,0.0,82.56,88.71,0,0
17:02:53.474,340409,4.36,-3.65,24.80,0.0,81.12,66.10,0,1
17:02:53.674,340609,11.55,2.36,15.34,0.0,57.10,66.10,0,0
17:02:53.874,340809,10.54,8.46,7.31,0.0,57.10,80.00,0,0
17:02:54.075,341010,5.64,4.49,1.87,0.0,107.27,84.02,0,0
17:02:54.280,341215,-4.70,-27.07,2.77,0.0,109.90,118.90,0,0
17:02:54.479,341414,-59.44,-81.40,52.99,0.0,109.90,105.55,0,0
17:02:54.684,341619,-76.69,-87.23,69.71,0.0,109.90,102.30,0,0
17:02:54.890,341825,-5.09,-48.05,5.30,0.0,95.28,98.41,0,0
17:02:55.089,342024,-0.17,-13.59,2.45,0.0,67.56,85.91,0,0
17:02:55.290,342225,2.59,-1.37,0.85,0.0,73.79,85.03,0,0
17:02:55.489,342424,2.23,0.18,-0.14,0.0,82.88,92.56,0,0
17:02:55.690,342625,2.11,1.02,-1.72,0.0,77.02,90.94,0,0
17:02:55.890,342825,-0.73,2.51,-1.14,0.0,76.39,98.47,0,0
17:02:56.095,343030,-1.04,1.20,-2.03,0.0,83.98,94.62,0,1
17:02:56.295,343230,-1.25,2.30,-2.56,0.0,75.02,97.92,0,0
17:02:56.501,343436,-2.28,3.34,1.37,0.0,76.38,96.12,0,0
17:02:56.700,343636,-1.37,1.18,5.96,0.0,82.69,92.77,0,0
17:02:56.900,343835,-0.45,0.68,10.41,0.0,82.97,89.37,0,0
17:02:57.100,344035,0.19,0.39,14.91,0.0,77.24,95.98,0,0
17:02:57.300,344235,0.35,0.95,20.61,0.0,87.74,90.21,0,0
17:02:57.501,344436,-0.99,-0.15,21.72,0.0,84.67,96.53,0,0
17:02:57.701,344636,-1.29,0.85,21.06,0.0,79.15,98.28,0,0
17:02:57.901,344836,-1.12,2.47,19.61,0.0,75.26,93.24,0,0
17:02:58.102,345037,-0.04,2.76,18.61,0.0,78.13,90.64,0,0
17:02:58.306,345241,-0.19,2.53,17.94,0.0,76.58,96.54,0,0
17:02:58.507,345442,-0.27,2.98,18.36,0.0,79.20,95.18,0,1
17:02:58.707,345642,-0.66,2.30,18.57,0.0,79.69,94.75,0,0
17:02:58.907,345842,-0.61,1.86,18.87,0.0,77.81,95.74,0,0
17:02:59.108,346043,-0.82,3.09,19.68,0.0,74.35,96.14,0,0
17:02:59.306,346241,-0.78,2.79,21.65,0.0,79.30,97.50,0,0
17:02:59.512,346447,-1.29,2.19,22.85,0.0,76.83,94.63,0,0
17:02:59.713,346648,-0.86,2.65,24.00,0.0,78.25,95.05,0,0
17:02:59.918,346853,-1.08,2.97,23.95,0.0,77.27,96.77,1,0
17:03:00.117,347052,-1.76,3.19,22.91,0.0,77.05,100.11,0,0
17:03:00.318,347253,-3.24,4.44,22.54,0.0,72.36,104.37,0,0
17:03:00.522,347457,-4.32,6.39,22.56,0.0,67.23,110.23,0,0
17:03:00.727,347662,-4.98,8.50,23.06,0.0,64.85,109.92,0,0
17:03:00.927,347862,-5.06,7.73,23.45,0.0,70.21,104.23,0,0
17:03:01.128,348063,-4.47,7.22,23.62,0.0,70.70,104.35,0,0
17:03:01.329,348264,-4.01,7.20,23.46,0.0,68.78,103.20,0,0
17:03:01.534,348469,-3.42,6.79,23.11,0.0,68.38,103.54,0,0
17:03:01.734,348669,-3.16,7.13,23.06,0.0,67.66,102.57,0,0
17:03:01.939,348874,-3.08,7.17,22.89,0.0,70.52,101.56,0,0
17:03:02.139,349074,-3.04,7.05,22.59,0.0,69.38,101.95,0,0
17:03:02.339,349274,-3.16,6.88,22.00,0.0,71.76,103.18,0,0
17:03:02.540,349475,-4.17,6.63,17.56,0.0,75.60,102.26,0,0
17:03:02.739,349674,-4.13,5.82,14.67,0.0,76.22,102.13,0,0
17:03:02.940,349875,-1.02,0.66,11.17,0.0,94.47,70.47,0,0
17:03:03.140,350075,0.61,1.19,9.24,0.0,84.62,94.66,0,0
17:03:03.345,350280,-0.57,1.77,5.97,0.0,70.01,108.37,0,0
17:03:03.546,350481,-1.99,1.40,2.66,0.0,78.52,95.30,0,0
17:03:03.751,350686,-2.04,1.38,2.67,0.0,80.94,97.79,0,0
17:03:03.951,350886,-2.08,1.38,2.65,0.0,80.45,97.23,0,0
17:03:04.151,351086,-2.08,1.39,2.63,0.0,80.43,97.24,0,0
17:03:04.351,351286,-2.07,1.40,2.64,0.0,80.52,97.21,0,0
17:03:04.552,351487,-2.07,1.39,2.65,0.0,80.48,97.21,0,0
17:03:04.756,351691,-2.06,1.39,2.62,0.0,80.48,97.20,0,0
17:03:04.956,351891,-2.07,1.40,2.62,0.0,80.47,97.21,0,0
17:03:05.157,352092,-2.06,1.39,2.61,0.0,80.48,97.15,0,0
17:03:05.361,352296,-2.06,1.39,2.60,0.0,80.43,97.14,0,0
17:03:05.562,352497,-2.06,1.39,2.59,0.0,80.48,97.19,0,0
17:03:05.762,352697,-2.07,1.40,2.59,0.0,80.47,97.15,0,0
17:03:05.968,352903,-2.07,1.40,2.59,0.0,80.46,97.16,0,0
17:03:06.167,353102,-2.07,1.40,2.58,0.0,80.41,97.27,0,0
17:03:06.368,353303,-2.05,1.41,2.58,0.0,80.44,97.07,0,0
17:03:07.178,354113,-2.05,1.41,2.58,0.0,80.44,97.18,0,0
17:03:07.383,354318,-2.05,1.41,2.58,0.0,80.44,97.18,0,0
17:03:07.583,354518,-2.05,1.41,2.58,0.0,80.44,97.18,0,0
17:03:07.783,354718,-2.05,1.41,2.58,0.0,80.44,97.18,0,0
17:03:07.988,354923,-2.05,1.41,2.58,0.0,80.44,97.18,0,0
17:03:08.188,355123,-2.05,1.41,2.58,0.0,80.44,97.18,0,0
17:03:08.393,355328,-2.05,1.42,2.58,0.0,80.43,97.17,0,0
17:03:08.593,355528,-2.05,1.42,2.56,0.0,80.48,97.18,0,0
17:03:08.793,355728,-2.05,1.41,2.57,0.0,80.38,97.11,0,0
17:03:08.994,355929,-2.04,1.41,2.58,0.0,80.50,97.15,0,0
17:03:09.199,356134,-1.95,1.56,2.98,0.0,77.16,95.92,0,1
17:03:09.399,356334,-1.95,1.56,2.81,0.0,79.94,96.54,0,0
17:03:09.603,356538,-1.60,2.40,3.60,0.0,77.48,96.25,0,0
17:03:09.804,356739,-1.88,1.90,3.52,0.0,80.94,97.94,0,0
17:03:10.005,356940,-1.89,1.88,3.27,0.0,79.35,96.87,0,0
17:03:10.206,357141,-1.99,1.75,2.88,0.0,79.78,97.32,0,0
17:03:10.411,357346,-1.99,1.77,2.85,0.0,79.75,97.12,0,0
17:03:56.343,403278,0.17,-0.73,0.00,0.0,85.13,92.12,0,0
17:03:56.542,403477,0.17,-0.73,0.01,0.0,85.14,92.18,0,0
17:03:56.742,403677,0.16,-0.74,0.01,0.0,85.16,92.14,1,0
17:03:56.942,403877,0.16,-0.75,0.01,0.0,85.14,92.15,0,1
17:03:57.147,404082,0.14,-0.73,0.00,0.0,85.13,92.24,0,1
17:03:57.347,404282,0.13,-0.73,0.00,0.0,85.14,92.21,0,0
17:03:57.553,404488,0.14,-0.74,0.02,0.0,85.21,92.14,0,1
17:03:57.753,404688,0.15,-0.74,0.02,0.0,85.15,92.17,0,1
17:03:57.953,404888,0.14,-0.73,0.01,0.0,85.20,92.18,0,0
17:03:58.153,405088,0.15,-0.74,0.01,0.0,85.21,92.12,0,0
17:03:58.353,405288,0.15,-0.74,0.01,0.0,85.15,92.16,0,0
17:03:58.553,405488,0.15,-0.74,0.01,0.0,85.15,92.17,0,0
17:03:58.758,405693,0.15,-0.74,0.01,0.0,85.15,92.17,0,0
17:03:58.959,405894,0.15,-0.74,0.01,0.0,85.15,92.17,0,0
17:03:59.163,406098,0.15,-0.74,0.01,0.0,85.15,92.17,0,0
17:03:59.364,406299,0.15,-0.74,0.01,0.0,85.15,92.17,0,0
17:03:59.569,406504,0.15,-0.74,0.01,0.0,85.15,92.17,0,0
17:03:59.769,406704,0.15,-0.74,0.01,0.0,85.15,92.17,0,0
17:03:59.969,406904,0.15,-0.74,0.01,0.0,85.15,92.17,0,0
17:04:00.169,407104,0.15,-0.74,0.01,0.0,85.15,92.17,0,0
17:04:00.369,407304,0.15,-0.74,0.01,0.0,85.15,92.17,0,0
17:04:24.450,431385,-0.16,-0.52,-0.00,0.0,84.66,92.86,0,0
17:04:24.651,431586,-0.17,-0.54,-0.02,0.0,84.77,92.89,0,0
17:04:24.850,431785,-0.18,-0.54,-0.03,0.0,84.72,92.95,0,0
