Timestamp,ElapsedMillis,Yaw,Pitch,Roll,Altitude,YawServo,PitchServo
16:19:46.579,14505,1.20,2.08,1.62,-1.9,-7.51,-2.47
16:19:46.635,14561,0.34,3.69,0.00,-0.0,1.36,14.82
16:19:46.693,14619,0.29,3.66,0.00,-0.1,0.20,2.24
16:19:46.750,14676,0.20,3.59,-0.00,-0.2,-0.33,1.86
16:19:46.807,14733,0.21,3.64,-0.00,-0.2,0.23,2.47
16:19:46.865,14791,0.18,3.63,-0.02,-0.1,-0.00,2.21
16:19:46.922,14848,0.08,3.54,0.01,-0.1,-0.08,2.08
16:19:46.979,14905,-0.37,3.30,-0.01,-0.1,-1.26,1.54
16:19:47.036,14962,-1.11,2.87,-0.01,-0.1,-2.33,0.92
16:19:47.093,15019,-2.07,2.21,-0.04,-0.2,-3.42,0.05
16:19:47.150,15076,-3.07,1.27,-0.04,-0.2,-4.19,-1.14
16:19:47.207,15133,-3.81,0.32,-0.07,-0.1,-4.37,-2.14
16:19:47.264,15190,-4.27,-0.62,-0.08,-0.2,-3.92,-2.52
16:19:47.321,15247,-3.96,-1.41,-0.12,-0.2,-2.03,-2.63
16:19:47.378,15304,-2.88,-2.08,-0.08,-0.1,0.83,-2.77
16:19:47.437,15363,-1.13,-2.82,-0.12,-0.2,3.19,-3.24
16:19:47.492,15418,0.54,-3.39,-0.11,-0.1,4.43,-3.36
16:19:47.551,15477,1.77,-3.62,-0.14,-0.1,4.19,-2.75
16:19:47.608,15534,2.71,-3.42,-0.13,-0.2,3.83,-1.55
16:19:47.665,15591,3.08,-2.81,-0.16,-0.1,2.91,-0.29
16:19:47.722,15648,2.78,-1.66,-0.13,-0.1,1.01,1.73
16:19:47.779,15705,2.32,-0.59,-0.14,-0.1,0.58,2.46
16:19:47.836,15762,1.13,2.22,-0.11,-0.1,-1.47,6.29
16:19:47.893,15819,0.54,4.25,-0.09,-0.2,-1.42,7.91
16:19:47.950,15877,0.49,5.79,-0.04,-0.1,-0.08,7.63
16:19:48.007,15933,0.99,6.62,-0.09,-0.1,1.58,6.35
16:19:48.065,15991,1.72,6.56,-0.04,-0.1,2.77,4.22
16:19:48.123,16049,2.80,5.86,-0.06,-0.1,4.30,2.08
16:19:48.179,16105,3.99,4.89,-0.04,-0.1,5.36,0.87
16:19:48.237,16163,4.71,3.89,-0.01,-0.1,4.86,0.36
16:19:48.294,16220,4.57,3.09,0.01,-0.2,2.76,-0.00
16:19:48.351,16277,3.52,2.19,-0.03,-0.1,-0.13,-0.52
16:19:48.408,16334,1.77,1.38,-0.07,-0.2,-2.77,-0.77
16:19:48.465,16391,-0.12,0.77,-0.07,-0.2,-4.68,-0.77
16:19:48.523,16449,-1.61,0.36,-0.01,-0.1,-4.82,-0.52
16:19:48.580,16506,-2.41,0.18,-0.12,-0.0,-3.57,-0.10
16:19:48.637,16564,-1.98,0.33,-0.14,-0.1,-0.44,0.81
16:19:48.694,16620,-0.93,0.89,0.01,-0.2,2.07,2.17
16:19:48.752,16678,0.15,1.83,0.03,-0.1,2.95,3.47
16:19:48.808,16734,0.78,3.22,0.07,-0.3,2.17,5.36
16:19:48.865,16791,0.79,4.78,0.08,-0.1,0.72,7.26
16:19:48.923,16849,0.50,6.39,0.11,-0.3,-0.32,8.34
16:19:48.981,16907,0.19,7.53,0.12,-0.3,-0.60,7.90
16:19:49.037,16963,0.20,7.73,0.09,-0.2,0.07,5.95
16:19:49.095,17021,0.65,7.16,0.06,-0.2,1.43,3.64
16:19:49.151,17077,1.37,5.96,0.03,-0.2,2.52,1.63
16:19:49.209,17135,2.19,4.11,0.03,-0.2,3.29,-1.00
16:19:49.266,17192,2.85,2.17,0.03,-0.1,3.46,-2.66
16:19:49.324,17250,3.17,0.49,0.03,-0.1,2.99,-3.58
16:19:49.380,17306,3.54,-1.00,-0.00,-0.2,2.99,-3.61
16:19:49.438,17364,4.40,-1.78,-0.01,-0.1,4.83,-2.71
16:19:49.495,17421,5.71,-2.10,0.01,-0.1,6.61,-1.54
16:19:49.552,17478,7.06,-1.94,0.07,-0.2,7.75,-0.28
16:19:49.609,17535,7.72,-1.56,0.11,-0.1,6.78,0.53
16:19:49.666,17592,7.29,-1.12,0.08,-0.1,3.96,1.03
16:19:49.723,17649,6.08,-0.50,0.12,-0.1,1.32,1.79
16:19:49.780,17706,4.14,0.27,0.13,-0.1,-1.56,2.56
16:19:49.838,17764,2.01,0.96,0.08,-0.1,-3.85,2.96
16:19:49.896,17822,-0.42,1.67,0.04,-0.1,-5.61,3.23
16:19:49.952,17878,-2.16,2.30,-0.04,-0.2,-5.42,3.56
16:19:50.010,17936,-2.69,2.88,-0.05,-0.2,-3.03,3.73
16:19:50.123,18049,0.08,4.00,-0.00,-0.1,4.68,4.50
16:19:50.181,18107,2.44,4.55,0.03,-0.2,7.67,4.79
16:19:50.238,18164,4.22,4.96,0.08,-0.1,7.49,4.74
16:19:50.295,18221,5.48,5.15,0.10,-0.1,6.99,4.37
16:19:50.352,18279,5.58,4.96,0.10,-0.1,4.47,3.42
16:19:50.410,18336,4.68,4.43,0.01,0.1,1.31,2.20
16:19:50.467,18393,3.22,3.91,-0.03,0.0,-0.88,1.80
16:19:50.525,18451,1.77,3.88,-0.08,-0.1,-2.06,2.89
16:19:50.582,18508,0.68,4.50,-0.04,-0.1,-1.95,4.96
16:19:50.639,18565,-0.08,5.49,-0.05,-0.2,-1.43,6.60
16:19:50.696,18622,-0.41,6.35,-0.02,-0.0,-0.69,6.94
16:19:50.753,18679,-0.24,6.48,-0.03,0.0,0.65,5.44
16:19:50.810,18736,0.35,5.84,-0.04,-0.1,2.09,3.09
16:19:50.867,18793,1.18,4.50,-0.04,-0.0,3.15,0.83
16:19:50.925,18851,2.04,2.76,-0.04,-0.0,3.85,-1.47
16:19:50.982,18908,2.88,0.97,-0.06,-0.1,4.47,-2.93
16:19:51.039,18965,3.55,-0.77,-0.07,-0.1,4.42,-3.61
16:19:51.097,19023,3.78,-1.84,-0.09,-0.1,3.52,-2.99
16:19:51.153,19079,3.65,-1.91,-0.10,-0.3,2.59,-0.60
16:19:51.211,19137,3.28,-1.11,-0.08,-0.2,1.76,1.94
16:19:51.268,19194,2.86,0.61,-0.07,-0.2,1.35,5.23
16:19:51.325,19251,2.53,2.65,-0.06,-0.1,1.26,7.77
16:19:51.382,19308,2.54,4.93,-0.05,-0.1,2.01,9.33
16:19:51.440,19366,2.77,6.39,0.00,-0.1,2.91,9.05
16:19:51.496,19422,3.04,6.88,0.02,-0.0,3.26,6.91
16:19:51.554,19480,3.14,6.31,0.03,-0.0,2.89,3.92
16:19:51.611,19537,3.17,4.97,-0.02,-0.1,2.72,1.32
16:19:51.668,19594,3.19,3.04,-0.03,-0.2,2.74,-1.31
16:19:51.725,19651,3.19,1.19,-0.07,-0.2,2.71,-2.96
16:19:51.783,19709,3.11,-0.77,-0.06,-0.2,2.49,-4.02
16:19:51.840,19766,2.96,-2.42,-0.11,-0.2,2.22,-4.21
16:19:51.897,19823,2.91,-3.28,-0.10,-0.1,2.40,-3.23
16:19:51.954,19880,2.98,-3.42,-0.11,-0.2,2.76,-1.49
16:19:52.011,19938,3.08,-2.58,-0.11,-0.2,3.00,1.27
16:19:52.069,19995,3.00,-1.00,-0.07,-0.1,2.62,4.12
16:19:52.126,20052,2.75,0.58,-0.08,-0.1,1.78,5.68
16:19:52.183,20109,2.91,2.24,-0.11,-0.1,2.79,6.53
16:19:52.241,20167,3.82,3.70,-0.04,-0.1,5.23,7.00
16:19:52.298,20224,4.81,4.60,-0.02,-0.1,6.42,6.39
16:19:52.355,20281,5.48,5.08,0.02,-0.1,6.13,5.63
16:19:52.411,20337,5.09,4.97,0.01,-0.1,3.53,4.14
16:19:52.468,20395,3.94,4.59,-0.05,-0.1,0.74,3.17
16:19:52.526,20452,2.46,4.13,-0.10,-0.1,-0.98,2.68
16:19:52.583,20509,0.83,3.65,-0.11,-0.1,-2.40,2.35
16:19:52.640,20566,-0.36,3.23,-0.19,-0.1,-2.23,2.25
16:19:52.698,20624,-0.68,3.00,-0.21,0.0,-0.32,2.58
16:19:52.755,20681,0.01,2.90,-0.19,-0.0,2.30,2.88
16:19:52.812,20738,1.63,2.90,-0.18,-0.1,5.74,3.16
16:19:52.869,20795,3.89,2.95,-0.13,-0.1,8.91,3.35
16:19:52.927,20853,6.20,2.91,-0.06,-0.1,10.41,3.18
16:19:52.984,20910,7.56,2.67,0.06,-0.2,9.40,2.56
16:19:53.041,20967,7.62,2.15,0.05,-0.2,6.32,1.54
16:19:53.098,21024,6.69,1.50,0.03,-0.1,3.12,0.82
16:19:53.156,21082,5.28,0.84,0.02,-0.1,1.21,0.43
16:19:53.213,21139,3.80,0.31,0.02,-0.1,-0.23,0.27
16:19:53.269,21195,2.24,-0.18,-0.00,-0.2,-1.03,0.23
16:19:53.327,21253,0.80,-0.52,-0.01,-0.1,-1.63,0.34
16:19:53.385,21311,-0.28,-0.68,-0.01,-0.1,-1.62,0.65
16:19:53.442,21368,-1.08,-0.83,-0.03,-0.1,-1.39,0.60
16:19:53.499,21425,-1.67,-0.93,-0.05,-0.1,-1.21,0.63
16:19:53.555,21481,-1.80,-0.78,-0.05,-0.3,-0.20,1.30
16:19:53.612,21538,-1.79,-0.37,-0.04,-0.2,0.31,2.23
16:19:53.670,21596,-1.81,0.16,-0.05,-0.2,0.16,2.79
16:19:53.727,21653,-1.68,0.79,-0.06,-0.1,0.51,3.38
16:19:53.784,21710,-1.15,1.30,-0.04,-0.1,1.76,3.68
16:19:53.842,21768,-0.35,1.44,-0.04,-0.2,3.07,2.81
16:19:53.899,21825,0.61,1.07,-0.02,-0.1,3.90,1.46
16:19:53.956,21882,1.53,0.28,-0.02,-0.1,4.49,-0.23
16:19:54.013,21939,2.41,-0.68,-0.00,-0.1,4.88,-1.20
16:19:54.071,21997,3.21,-1.74,-0.00,-0.1,5.20,-2.00
16:19:54.127,22053,3.68,-2.86,-0.00,-0.2,4.78,-2.81
16:19:54.184,22111,3.76,-3.84,-0.02,-0.2,3.90,-3.43
16:19:54.242,22168,3.58,-4.84,-0.01,-0.2,3.11,-3.93
16:19:54.299,22225,3.22,-5.72,-0.01,-0.0,2.51,-4.14
16:19:54.356,22282,2.69,-6.30,-0.02,-0.1,1.72,-4.01
16:19:54.413,22340,1.96,-6.65,-0.02,-0.1,0.91,-3.57
16:19:54.471,22397,1.09,-6.63,-0.02,-0.0,0.08,-2.76
16:19:54.527,22453,0.12,-6.21,-0.03,-0.1,-0.76,-1.59
16:19:54.585,22511,-0.74,-5.49,-0.05,-0.1,-1.31,-0.29
16:19:54.643,22569,-1.67,-4.36,-0.05,-0.1,-1.82,1.21
16:19:54.699,22625,-2.53,-2.88,-0.07,-0.0,-2.22,2.82
16:19:54.756,22682,-3.22,-1.05,-0.08,-0.2,-2.17,4.46
16:19:54.813,22739,-3.34,0.82,-0.06,-0.2,-1.26,5.98
16:19:54.870,22796,-2.97,2.68,-0.03,-0.1,0.16,7.34
16:19:54.929,22855,-2.52,3.82,-0.01,-0.1,0.87,7.80
16:19:54.986,22912,-1.00,6.08,0.01,-0.2,3.44,9.05
16:19:55.042,22968,0.44,7.57,0.06,-0.2,5.01,9.48
16:19:55.099,23026,2.10,8.75,0.12,-0.2,6.47,9.53
16:19:55.157,23083,3.73,9.45,0.15,-0.1,7.73,8.93
16:19:55.214,23140,5.46,9.80,0.19,-0.1,8.68,8.25
16:19:55.271,23197,6.93,9.69,0.21,-0.0,9.24,7.19
16:19:55.329,23255,8.18,9.18,0.21,-0.1,9.54,5.92
16:19:55.386,23312,9.29,8.30,0.21,-0.1,9.75,4.64
16:19:55.442,23369,10.16,7.12,0.21,-0.1,9.84,3.11
16:19:55.500,23426,10.81,5.71,0.20,-0.1,9.83,1.60
16:19:55.557,23483,11.34,4.04,0.20,-0.2,9.78,0.11
16:19:55.614,23540,11.73,2.20,0.17,-0.2,9.77,-1.18
16:19:55.671,23597,11.96,0.51,0.15,-0.2,9.63,-2.33
16:19:55.729,23655,12.02,-1.21,0.15,-0.1,9.32,-3.13
16:19:55.786,23713,11.86,-2.90,0.15,-0.1,8.80,-3.98
16:19:55.844,23770,11.39,-4.29,0.16,-0.1,7.81,-4.39
16:19:55.901,23827,10.64,-5.39,0.16,-0.2,6.59,-4.47
16:19:55.957,23883,9.55,-6.31,0.17,-0.1,5.37,-4.41
16:19:56.015,23941,8.17,-6.87,0.17,-0.1,4.18,-3.92
16:19:56.072,23998,6.96,-7.07,0.17,-0.0,3.08,-3.37
16:19:56.129,24055,5.50,-7.07,0.19,-0.1,2.12,-2.80
16:19:56.187,24113,4.00,-6.81,0.18,-0.2,1.25,-2.11
16:19:56.244,24170,2.66,-6.36,0.19,-0.2,0.49,-1.32
16:19:56.300,24226,1.41,-5.74,0.18,-0.1,-0.00,-0.48
16:19:56.358,24284,0.21,-4.92,0.16,-0.1,-0.42,0.27
16:19:56.415,24341,-0.71,-4.04,0.14,-0.2,-0.50,1.11
16:19:56.472,24398,-1.47,-3.02,0.13,-0.1,-0.42,1.91
16:19:56.530,24456,-2.10,-1.94,0.13,0.0,-0.42,2.66
16:20:20.226,48152,9.79,1.78,-1.21,-0.1,-0.48,3.32
16:20:20.283,48209,2.55,2.12,0.01,-0.0,10.07,8.43
16:20:20.340,48266,2.47,2.16,-0.01,-0.1,1.38,1.39
16:20:20.398,48324,2.53,2.15,0.01,-0.1,1.68,1.25
16:20:20.454,48380,2.37,2.16,-0.01,-0.1,0.95,1.36
16:20:20.511,48437,2.33,2.21,0.00,-0.1,1.37,1.57
16:20:20.569,48495,2.32,2.21,-0.01,0.0,1.46,1.38
16:20:20.626,48552,2.33,2.20,-0.01,-0.1,1.49,1.39
16:20:20.684,48610,2.33,2.17,-0.02,0.0,1.54,1.30
16:20:20.740,48666,2.29,2.22,-0.01,-0.1,1.38,1.51
16:20:20.797,48723,2.27,2.59,-0.02,-0.0,1.43,2.39
16:20:20.854,48780,2.26,3.42,-0.01,0.0,1.49,4.13
16:20:20.912,48838,2.21,4.84,-0.02,0.0,1.38,6.29
16:20:20.970,48896,2.15,6.61,0.00,-0.0,1.33,8.24
16:20:21.027,48953,2.00,8.56,0.00,0.1,1.02,9.88
16:20:21.084,49010,1.97,10.07,0.02,-0.0,1.27,10.32
16:20:21.140,49067,1.98,11.30,0.03,-0.1,1.39,10.27
16:20:21.199,49125,2.00,12.10,0.03,-0.0,1.49,9.73
16:20:21.255,49181,2.01,12.54,0.04,-0.0,1.45,9.18
16:20:21.313,49239,2.10,12.77,0.05,-0.1,1.70,8.81
16:20:21.370,49296,2.17,12.86,0.05,-0.1,1.74,8.61
16:20:21.427,49353,2.19,12.90,0.05,0.1,1.63,8.55
16:20:21.485,49411,2.18,12.92,0.05,-0.0,1.56,8.58
16:20:21.542,49468,2.13,12.91,0.04,0.0,1.45,8.60
16:20:21.598,49524,2.12,12.89,0.04,-0.0,1.53,8.64
16:20:21.656,49582,2.17,12.84,0.05,0.1,1.73,8.62
16:20:21.713,49639,2.16,12.82,0.04,0.0,1.62,8.66
16:20:21.769,49695,2.14,12.83,0.04,0.0,1.55,8.85
16:20:21.827,49753,2.14,12.87,0.04,0.1,1.60,9.01
16:20:21.885,49811,2.13,12.93,0.04,0.1,1.64,9.19
16:20:21.942,49868,2.09,12.99,0.04,0.1,1.53,9.29
16:20:21.999,49925,2.09,13.04,0.03,0.1,1.64,9.41
16:20:22.056,49982,2.13,13.11,0.03,0.1,1.76,9.55
16:20:22.113,50039,2.16,13.19,0.03,0.1,1.79,9.68
16:20:22.171,50097,2.16,13.26,0.03,-0.1,1.72,9.82
16:20:22.228,50154,2.15,13.25,0.04,-0.1,1.70,9.69
16:20:22.284,50210,2.12,13.09,0.03,-0.1,1.64,9.40
16:20:22.342,50268,2.10,12.74,0.02,-0.1,1.66,8.75
16:20:22.399,50325,2.07,11.99,0.01,-0.1,1.62,7.62
16:20:22.456,50382,2.13,11.05,0.01,-0.0,1.88,6.32
16:20:22.514,50440,2.24,9.78,-0.01,-0.1,2.12,4.93
16:20:22.571,50497,2.30,8.30,-0.02,-0.1,2.02,3.57
16:20:22.628,50554,2.49,6.59,-0.03,0.0,2.46,2.14
16:20:22.685,50611,2.33,4.95,-0.04,0.0,1.72,1.44
16:20:22.743,50669,1.76,3.54,-0.05,0.1,0.28,0.71
16:20:22.799,50725,1.57,2.24,-0.04,0.1,0.96,0.48
16:20:22.857,50783,1.58,0.45,-0.05,0.1,1.47,-1.54
16:20:22.914,50840,1.72,-1.62,-0.06,-0.1,2.04,-3.96
16:20:22.971,50897,1.81,-4.03,-0.09,0.0,1.87,-5.84
16:20:23.028,50954,2.11,-6.47,-0.08,0.0,2.52,-7.40
16:20:23.086,51012,2.41,-8.72,-0.07,0.1,2.83,-8.33
16:20:23.143,51069,2.49,-10.19,-0.06,0.1,2.40,-8.13
16:20:23.200,51126,2.48,-11.34,-0.06,-0.0,2.13,-7.66
16:20:23.257,51183,2.52,-12.09,-0.07,0.0,2.21,-7.16
16:20:23.315,51241,2.64,-12.54,-0.07,-0.1,2.52,-6.63
16:20:23.371,51298,2.72,-12.77,-0.07,-0.0,2.52,-6.56
16:20:23.429,51355,2.78,-12.57,-0.07,-0.0,2.54,-5.59
16:20:23.486,51412,2.71,-11.46,-0.08,-0.0,2.25,-2.71
16:20:23.544,51470,2.42,-9.71,-0.09,-0.1,1.53,0.00
16:20:23.600,51526,2.01,-7.78,-0.08,-0.0,0.93,1.68
16:20:23.658,51584,1.68,-6.06,-0.09,-0.1,0.90,2.17
16:20:23.715,51641,1.54,-4.87,-0.10,-0.1,1.32,1.75
16:20:23.772,51698,1.54,-4.22,-0.10,-0.0,1.61,0.68
16:20:23.829,51755,1.64,-4.06,-0.10,0.1,2.08,-0.48
16:20:23.886,51812,1.71,-4.07,-0.11,0.0,2.01,-0.99
16:20:23.943,51869,1.75,-4.14,-0.11,0.0,1.97,-1.19
16:20:24.001,51927,1.77,-4.24,-0.11,0.0,1.87,-1.39
16:20:24.058,51984,1.89,-4.30,-0.12,0.1,2.22,-1.36
16:20:24.115,52041,2.02,-4.25,-0.11,0.0,2.38,-1.10
16:20:24.172,52098,2.23,-4.11,-0.12,0.0,2.64,-0.81
16:20:24.230,52156,2.67,-3.93,-0.12,0.0,3.46,-0.61
16:20:24.287,52213,3.47,-3.69,-0.12,0.1,4.68,-0.33
16:20:24.344,52270,4.65,-3.55,-0.13,-0.0,6.32,-0.48
16:20:24.400,52326,5.97,-3.55,-0.13,-0.0,7.75,-0.88
16:20:24.458,52384,7.35,-3.57,-0.15,-0.0,8.88,-0.95
16:20:24.515,52441,8.44,-3.52,-0.14,-0.1,8.83,-0.79
16:20:24.573,52499,9.16,-3.40,-0.15,-0.1,8.32,-0.61
16:20:24.630,52556,9.51,-3.29,-0.15,-0.1,7.86,-0.49
16:20:24.686,52612,9.80,-3.20,-0.15,-0.1,7.77,-0.52
16:20:24.744,52670,9.92,-3.11,-0.15,0.0,7.47,-0.53
16:20:24.801,52727,9.98,-3.04,-0.15,-0.1,7.42,-0.53
16:20:24.859,52785,10.04,-2.97,-0.16,-0.1,7.54,-0.51
16:20:24.915,52841,10.02,-2.93,-0.16,-0.1,7.37,-0.57
16:20:24.973,52899,9.93,-2.94,-0.16,-0.1,7.20,-0.72
16:20:25.030,52956,9.84,-2.96,-0.16,-0.1,7.22,-0.79
16:20:25.087,53013,9.72,-2.98,-0.16,-0.1,7.14,-0.80
16:20:25.145,53071,9.47,-2.97,-0.15,-0.1,6.76,-0.73
16:20:25.202,53128,9.17,-2.89,-0.15,-0.0,6.42,-0.57
16:20:25.258,53184,8.73,-2.69,-0.15,0.0,5.91,-0.17
16:20:25.316,53242,8.11,-2.48,-0.13,0.0,5.26,-0.04
16:20:25.374,53300,7.36,-2.31,-0.13,-0.1,4.38,0.02
16:20:25.431,53357,6.39,-2.08,-0.13,0.0,3.42,0.26
16:20:25.488,53414,5.19,-1.79,-0.12,-0.1,2.16,0.53
16:20:25.545,53472,4.04,-1.64,-0.12,-0.1,1.63,0.37
16:20:25.602,53528,3.44,-1.63,-0.12,-0.1,2.19,0.00
16:20:25.659,53585,3.17,-1.71,-0.13,-0.0,3.11,-0.28
16:20:25.717,53643,2.95,-1.85,-0.12,-0.1,3.32,-0.55
16:20:25.774,53700,2.36,-2.00,-0.11,-0.1,2.29,-0.65
16:20:25.831,53757,1.45,-2.06,-0.11,-0.1,1.11,-0.56
16:20:25.888,53814,-0.04,-2.00,-0.09,-0.1,-1.31,-0.37
16:20:25.946,53872,-2.05,-1.70,-0.09,-0.1,-3.83,0.46
16:20:26.002,53928,-4.14,-1.17,-0.09,-0.0,-6.04,1.43
16:20:26.060,53986,-6.10,-0.38,-0.10,-0.0,-6.63,2.51
16:20:26.117,54043,-7.34,0.32,-0.10,0.1,-5.78,2.82
16:20:26.173,54099,-7.63,0.64,-0.10,0.0,-3.59,2.12
16:20:26.231,54157,-7.15,0.59,-0.10,0.1,-1.51,1.23
16:20:26.288,54214,-6.26,0.17,-0.10,0.1,0.20,0.03
16:20:26.346,54272,-5.29,-0.35,-0.10,0.0,0.94,-0.69
16:20:26.403,54329,-4.24,-0.84,-0.08,0.1,1.66,-0.80
16:20:26.459,54385,-3.35,-1.12,-0.10,-0.0,1.93,-0.62
16:20:26.517,54443,-2.64,-1.22,-0.09,-0.0,1.98,-0.20
16:20:26.574,54500,-2.13,-1.25,-0.08,0.1,1.67,0.01
16:20:26.631,54557,-1.83,-1.18,-0.09,0.1,1.37,0.24
16:20:26.688,54615,-1.74,-1.13,-0.09,-0.0,0.89,0.25
16:20:26.746,54672,-1.72,-1.07,-0.09,-0.1,0.61,0.31
16:20:26.803,54729,-1.64,-1.04,-0.10,-0.0,0.82,0.28
16:20:26.861,54787,-1.44,-1.07,-0.10,-0.0,1.26,0.07
16:20:26.917,54843,-1.80,-1.22,-0.10,0.0,0.19,-0.26
16:20:26.975,54901,-2.93,-1.24,-0.11,-0.1,-3.06,-0.10
16:20:27.031,54957,-4.17,-1.00,-0.11,-0.1,-4.17,0.65
16:20:27.089,55015,-4.27,-0.77,-0.09,-0.1,-1.73,0.93
16:20:27.146,55072,-3.65,-0.56,-0.09,-0.1,0.77,0.96
16:20:27.203,55129,-3.00,-0.52,-0.10,-0.1,1.32,0.60
16:20:27.261,55187,-2.63,-0.77,-0.08,-0.0,1.03,-0.25
16:20:27.318,55244,-2.85,-1.11,-0.09,-0.0,-0.67,-0.83
16:20:27.374,55300,-3.50,-1.39,-0.10,0.0,-2.08,-0.81
16:20:27.432,55358,-3.95,-1.54,-0.10,-0.0,-2.33,-0.61
16:20:27.489,55415,-3.43,-1.58,-0.09,-0.0,0.54,-0.32
16:20:27.547,55473,-2.75,-1.66,-0.09,0.0,1.60,-0.42
16:20:27.604,55530,-2.90,-1.80,-0.08,-0.0,-0.44,-0.75
16:20:27.660,55586,-3.80,-1.76,-0.09,0.0,-3.12,-0.34
16:20:27.719,55645,-4.61,-1.52,-0.11,0.0,-3.51,0.37
16:20:27.776,55702,-4.73,-1.21,-0.08,0.1,-2.07,0.70
16:20:27.833,55759,-4.15,-1.08,-0.08,0.1,0.16,0.44
16:20:27.889,55815,-3.54,-1.26,-0.07,0.0,0.75,-0.45
16:20:27.946,55872,-3.43,-1.49,-0.04,-0.0,-0.33,-0.81
16:20:28.004,55930,-3.90,-1.66,-0.07,0.0,-2.13,-0.71
16:20:28.061,55987,-4.21,-1.73,-0.06,0.0,-2.29,-0.78
16:20:28.118,56044,-5.23,-1.45,-0.10,-0.1,-3.75,0.14
16:20:28.176,56102,-5.74,-1.07,-0.10,-0.1,-3.70,0.91
16:20:28.233,56159,-5.52,-1.01,-0.09,-0.1,-1.87,0.28
16:20:28.290,56216,-4.73,-1.20,-0.08,-0.1,-0.00,-0.45
16:20:28.347,56273,-3.82,-1.71,-0.08,-0.1,0.90,-1.57
16:20:28.405,56331,-3.63,-2.24,-0.08,-0.1,-0.28,-2.05
16:20:28.462,56388,-4.33,-2.40,-0.09,0.0,-3.29,-1.44
16:20:28.519,56445,-5.11,-2.23,-0.10,0.0,-4.13,-0.45
16:20:28.576,56502,-5.16,-2.05,-0.10,0.1,-2.42,-0.18
16:20:28.633,56559,-4.74,-2.05,-0.10,0.0,-0.96,-0.63
16:20:28.691,56617,-4.40,-2.10,-0.12,-0.0,-0.87,-0.85
16:20:28.748,56674,-3.57,-2.08,-0.12,-0.1,0.04,-0.83
16:20:28.805,56731,-1.86,-1.97,-0.12,-0.0,3.91,-0.38
16:20:28.861,56787,0.02,-2.00,-0.11,0.0,5.58,-0.72
16:20:28.918,56844,0.49,-2.17,-0.13,-0.1,2.82,-1.29
16:20:28.976,56902,-0.18,-2.16,-0.15,-0.1,-0.78,-0.82
16:20:29.034,56960,-0.53,-2.30,-0.15,-0.0,-0.57,-1.27
16:20:29.090,57016,-0.22,-2.04,-0.15,-0.0,1.33,-0.45
16:20:29.148,57074,-0.10,-1.13,-0.15,-0.1,1.40,1.91
16:20:29.205,57131,-0.44,-0.41,-0.14,-0.0,-0.28,2.15
16:20:29.262,57188,-0.52,-0.39,-0.14,0.1,0.18,0.48
16:20:29.320,57246,-0.19,-0.58,-0.15,0.0,1.53,-0.53
16:20:29.376,57302,-0.13,-0.40,-0.15,0.1,1.68,-0.21
16:20:29.433,57359,-0.62,-0.14,-0.15,0.1,-0.42,0.87
16:20:29.491,57417,-0.75,-0.81,-0.15,0.1,-0.16,-0.97
16:20:29.548,57474,-0.61,-2.02,-0.15,0.0,0.74,-3.95
16:20:29.605,57531,-0.32,-3.65,-0.15,-0.1,1.30,-5.66
16:20:29.662,57588,-0.01,-4.50,-0.17,-0.1,1.72,-4.73
16:20:29.719,57645,-0.13,-4.21,-0.18,-0.1,0.58,-1.59
16:20:29.777,57703,-0.40,-4.03,-0.18,-0.0,-0.10,-1.51
16:20:29.834,57760,-0.41,-4.40,-0.16,0.0,0.31,-3.13
16:20:29.891,57817,-0.08,-4.28,-0.16,-0.1,1.79,-2.34
16:20:29.949,57875,-0.53,-3.67,-0.17,0.0,-0.50,-0.32
16:20:30.006,57932,-1.01,-3.51,-0.17,0.0,-1.08,-1.20
16:20:30.063,57989,-0.70,-3.89,-0.16,0.0,0.89,-3.08
16:20:30.120,58046,-0.12,-3.54,-0.18,-0.1,2.37,-1.37
16:20:30.177,58103,-0.07,-2.46,-0.18,0.0,1.09,1.29
16:21:01.278,89204,8.68,-4.12,-1.84,0.2,-0.28,2.46
16:21:01.334,89260,2.27,-0.04,-0.00,0.0,5.21,-2.47
16:21:01.392,89318,1.93,0.49,0.00,0.0,0.63,1.19
16:21:01.449,89375,1.71,0.79,0.01,-0.0,0.39,1.23
16:21:01.506,89432,1.65,1.08,-0.00,-0.0,0.95,1.34
16:21:01.564,89490,0.99,1.10,0.00,-0.0,-0.50,0.85
16:21:01.621,89547,0.28,1.23,0.00,0.0,-1.85,0.90
16:21:01.679,89605,0.24,2.03,-0.05,-0.1,-0.12,3.02
16:21:01.736,89662,1.49,3.06,-0.03,-0.1,3.42,4.27
16:21:01.793,89719,3.36,3.97,-0.02,-0.1,6.72,4.84
16:21:01.850,89776,5.27,4.54,0.02,-0.1,8.14,4.33
16:21:01.907,89833,7.15,4.69,0.01,-0.1,8.88,3.47
16:21:01.964,89890,8.86,4.35,0.03,-0.0,9.74,2.02
16:21:02.022,89948,10.05,3.68,0.06,0.0,9.50,0.85
16:21:02.078,90004,10.26,2.67,0.04,0.0,7.44,-0.49
16:21:02.136,90062,9.03,1.52,-0.05,0.0,3.35,-1.54
16:21:02.193,90119,7.18,0.63,-0.08,-0.0,-0.04,-1.82
16:21:02.250,90176,4.94,-0.12,-0.08,0.0,-2.10,-1.74
16:21:02.307,90233,2.30,-0.77,-0.13,0.1,-4.25,-1.84
16:21:02.364,90290,-0.36,-1.21,-0.16,0.0,-6.54,-1.72
16:21:02.422,90348,-3.23,-1.48,-0.21,0.0,-8.22,-1.34
16:21:02.479,90405,-5.95,-1.55,-0.25,-0.0,-9.60,-0.97
16:21:02.536,90462,-8.37,-1.48,-0.29,-0.1,-10.29,-0.61
16:21:02.594,90520,-10.11,-1.32,-0.33,-0.1,-10.53,-0.27
16:21:02.651,90577,-11.57,-1.04,-0.34,-0.0,-10.47,0.18
16:21:02.707,90633,-11.91,-0.69,-0.35,0.0,-8.19,0.60
16:21:02.765,90691,-10.62,-0.35,-0.36,0.1,-4.04,0.62
16:21:02.822,90748,-8.28,-0.09,-0.33,0.2,0.32,0.81
16:21:02.879,90805,-5.49,0.02,-0.30,0.1,3.45,0.55
16:21:02.936,90862,-3.75,0.02,-0.28,0.1,4.29,0.30
16:21:02.993,90919,-0.40,0.07,-0.22,0.2,5.94,0.25
16:21:03.051,90977,1.62,0.12,-0.19,0.1,6.19,0.39
16:21:03.109,91035,2.59,-0.08,-0.06,-0.1,4.26,-0.24
16:21:03.165,91091,2.42,-0.73,-0.06,-0.1,1.23,-1.87
16:21:03.222,91148,1.47,-2.00,-0.06,0.1,-1.16,-3.80
16:21:03.279,91205,0.44,-3.73,-0.09,-0.0,-2.26,-6.24
16:21:03.337,91263,-0.36,-5.82,-0.13,0.0,-2.19,-8.42
16:21:03.393,91319,-0.95,-8.21,-0.14,0.1,-1.99,-10.40
16:21:03.451,91377,-1.27,-10.58,-0.14,0.1,-1.59,-12.14
16:21:03.508,91434,-1.48,-12.69,-0.15,0.1,-1.40,-13.07
16:21:03.565,91491,-1.57,-14.35,-0.15,0.2,-1.16,-12.91
16:21:03.622,91548,-1.62,-15.31,-0.13,0.0,-1.10,-11.99
16:21:03.680,91606,-1.54,-15.12,-0.14,0.1,-0.80,-9.37
16:21:03.737,91663,-1.31,-13.82,-0.13,0.1,-0.19,-5.65
16:21:03.794,91720,-1.10,-11.46,-0.15,0.0,-0.15,-2.24
16:21:03.851,91777,-0.98,-8.45,-0.14,-0.0,-0.30,1.68
16:21:03.908,91834,-0.89,-5.09,-0.15,0.0,-0.35,4.97
16:21:03.966,91892,-0.75,-1.29,-0.13,0.1,-0.18,7.56
16:21:04.023,91949,-0.53,2.26,-0.10,0.2,0.17,9.43
16:21:04.080,92006,-0.40,5.05,-0.11,0.1,0.11,9.78
16:21:04.137,92063,-0.35,7.37,-0.09,0.2,-0.12,9.60
16:21:04.194,92120,-0.35,8.78,-0.07,0.2,-0.23,8.36
16:21:04.252,92178,-0.24,9.11,-0.05,0.1,-0.01,6.15
16:21:04.309,92235,0.26,8.60,0.01,-0.0,1.30,3.63
16:21:04.366,92292,1.12,7.30,0.00,-0.0,2.65,1.26
16:21:04.423,92349,1.87,5.38,0.05,-0.0,3.06,-1.64
16:21:04.481,92407,2.22,2.84,0.03,-0.0,2.32,-4.53
16:21:04.538,92464,2.17,-0.14,0.01,0.1,1.35,-7.27
16:21:04.595,92521,1.65,-3.23,-0.02,0.0,-0.08,-9.33
16:21:04.652,92578,0.81,-5.64,-0.04,-0.0,-1.60,-10.21
16:21:04.709,92635,-0.55,-7.78,-0.11,0.0,-3.57,-10.30
16:21:04.767,92693,-2.40,-9.33,-0.12,0.1,-5.62,-9.85
16:21:04.823,92749,-4.33,-9.97,-0.15,0.1,-7.62,-8.35
16:21:04.881,92807,-6.56,-9.96,-0.17,0.1,-9.25,-6.72
16:21:04.938,92864,-8.74,-9.20,-0.21,0.0,-10.47,-4.56
16:21:04.995,92921,-10.66,-7.68,-0.24,0.0,-11.02,-1.99
16:21:05.053,92979,-11.95,-5.82,-0.26,0.1,-10.94,0.64
16:21:05.109,93035,-13.06,-3.40,-0.30,0.1,-10.92,3.03
16:21:05.166,93092,-13.63,-0.59,-0.31,0.1,-10.11,5.52
16:21:05.224,93150,-13.44,2.49,-0.27,0.1,-8.37,7.48
16:21:05.281,93207,-12.63,5.22,-0.19,0.0,-6.55,9.22
16:21:05.338,93264,-11.38,7.56,-0.12,0.1,-4.36,10.15
16:21:05.395,93321,-9.57,9.67,-0.04,0.1,-2.19,10.43
16:21:05.452,93378,-7.49,11.22,0.04,0.1,-0.03,10.17
16:21:05.509,93435,-5.14,12.34,0.11,0.0,1.86,9.81
16:21:05.567,93493,-2.63,12.94,0.21,0.1,3.73,9.03
16:21:05.624,93550,-0.13,13.06,0.30,0.2,5.44,7.91
16:21:05.682,93608,2.66,12.73,0.34,0.2,7.30,6.83
16:21:05.739,93665,5.32,11.99,0.39,0.2,9.08,5.34
16:21:05.796,93722,7.86,10.81,0.41,0.2,10.35,3.69
16:21:05.853,93779,10.18,9.17,0.41,0.1,11.04,1.79
16:21:05.910,93836,11.84,7.14,0.41,-0.0,10.73,-0.52
16:21:05.967,93893,12.59,5.58,0.41,-0.1,10.56,-1.29
16:21:06.025,93951,13.41,2.09,0.40,-0.1,9.20,-5.07
16:21:06.082,94008,13.54,-0.74,0.37,-0.0,8.26,-6.91
16:21:06.139,94065,13.17,-3.34,0.35,0.0,6.85,-8.68
16:21:06.196,94122,12.30,-6.13,0.35,0.1,5.24,-10.18
16:21:06.253,94179,11.11,-8.76,0.36,0.1,3.90,-11.42
16:21:06.311,94237,9.61,-10.96,0.35,0.1,2.09,-12.21
16:21:06.368,94294,7.83,-12.74,0.35,0.1,0.12,-12.43
16:21:06.425,94351,5.61,-14.28,0.35,0.1,-1.83,-12.57
16:21:06.482,94408,3.24,-15.25,0.35,0.0,-3.67,-11.96
16:21:06.539,94465,0.90,-15.71,0.33,0.0,-5.31,-11.12
16:21:06.597,94523,-1.67,-15.73,0.32,-0.0,-6.96,-10.14
16:21:06.654,94580,-4.25,-15.23,0.28,-0.1,-8.44,-8.74
16:21:06.711,94637,-6.51,-14.27,0.23,0.0,-9.76,-6.90
16:21:06.768,94694,-8.67,-12.82,0.17,0.1,-10.63,-4.87
16:21:06.826,94752,-10.72,-10.91,0.11,0.0,-11.44,-2.93
16:21:06.883,94809,-12.37,-8.75,0.07,0.1,-11.83,-0.78
16:21:06.939,94865,-13.78,-6.26,0.02,0.1,-11.99,1.27
16:21:06.997,94923,-14.86,-3.53,-0.02,0.1,-11.92,3.28
16:21:07.054,94980,-15.41,-0.65,-0.02,0.1,-11.09,5.25
16:21:07.112,95038,-15.30,1.85,-0.01,0.1,-9.59,6.86
16:21:07.169,95095,-14.74,4.50,0.00,0.1,-8.24,8.29
16:21:07.226,95152,-13.70,7.05,0.06,0.2,-6.55,9.37
16:21:07.282,95208,-12.34,9.14,0.13,0.0,-4.77,10.13
16:21:07.340,95266,-10.48,11.17,0.23,0.0,-2.88,10.79
16:21:07.397,95323,-8.21,12.82,0.33,0.2,-0.58,10.98
16:21:07.454,95380,-5.62,14.02,0.44,0.2,1.67,10.72
16:21:07.512,95438,-3.02,14.62,0.53,0.2,3.46,9.90
16:21:07.569,95495,-0.55,14.80,0.62,0.1,5.18,9.06
16:21:07.626,95552,2.14,14.51,0.69,0.0,6.78,7.78
16:21:07.684,95610,4.50,13.82,0.74,0.0,7.93,6.27
16:21:07.740,95666,6.92,12.68,0.79,0.2,8.94,4.91
16:21:07.798,95724,8.91,11.19,0.81,0.3,9.42,3.16
16:21:07.855,95781,10.38,9.43,0.81,0.2,9.34,1.23
16:21:07.912,95838,11.54,7.22,0.81,0.1,8.97,-0.83
16:21:07.969,95895,12.24,4.93,0.80,0.0,8.56,-2.58
16:21:08.026,95952,12.48,2.53,0.78,0.1,7.65,-4.30
16:21:08.083,96009,12.36,0.96,0.78,0.1,7.26,-4.77
16:21:08.141,96067,11.55,-2.30,0.74,0.1,5.16,-7.20
16:21:08.198,96124,10.61,-4.48,0.73,0.1,3.72,-8.30
16:21:08.256,96182,9.22,-6.64,0.71,0.1,1.99,-9.26
16:21:08.312,96238,7.47,-8.69,0.70,0.0,0.19,-10.11
16:21:08.370,96296,5.54,-10.40,0.71,0.0,-1.52,-10.65
16:21:08.426,96352,3.55,-11.75,0.68,0.0,-3.19,-10.79
16:21:08.484,96410,1.43,-12.76,0.66,-0.0,-4.40,-10.44
16:21:08.541,96467,-0.72,-13.36,0.64,0.1,-5.88,-9.99
16:21:08.599,96525,-2.83,-13.51,0.61,0.1,-7.12,-9.05
16:21:08.656,96582,-5.02,-13.16,0.54,0.1,-8.38,-7.64
16:21:08.713,96639,-7.17,-12.31,0.51,0.1,-9.54,-6.20
16:21:08.770,96696,-8.98,-11.03,0.45,0.2,-10.31,-4.19
16:21:08.826,96752,-10.47,-9.37,0.41,0.2,-10.53,-2.15
16:21:08.884,96811,-11.71,-7.24,0.38,0.2,-10.50,-0.15
16:21:08.941,96867,-12.39,-5.03,0.36,0.2,-9.78,1.70
16:21:08.998,96924,-12.63,-2.68,0.36,0.0,-8.86,3.25
16:21:09.055,96981,-12.41,-0.31,0.38,0.1,-7.64,4.62
16:21:09.113,97039,-11.68,2.00,0.39,0.1,-6.31,5.73
16:21:09.170,97096,-10.48,3.85,0.44,0.1,-4.12,6.41
16:21:09.227,97153,-8.87,5.53,0.48,0.1,-2.14,6.77
16:21:09.284,97210,-6.89,7.00,0.57,0.1,-0.44,7.06
16:21:09.342,97268,-4.85,7.99,0.64,0.0,1.41,6.78
16:21:09.399,97325,-2.60,8.67,0.72,0.1,2.85,6.32
16:21:09.456,97382,-0.66,8.95,0.78,0.2,3.52,5.58
16:21:09.513,97439,0.41,8.74,0.80,0.2,2.13,4.36
16:21:09.570,97496,0.47,8.26,0.74,0.2,-0.21,3.26
16:21:09.627,97553,-0.08,7.58,0.72,0.1,-2.15,2.48
16:21:09.685,97611,-1.16,6.76,0.69,0.2,-3.99,1.74
16:21:09.742,97668,-2.54,6.01,0.62,0.1,-5.97,1.29
16:21:09.799,97725,-4.32,5.21,0.57,0.1,-7.60,0.89
16:21:09.857,97783,-6.24,4.57,0.53,0.2,-9.22,0.84
16:21:09.914,97840,-8.19,4.09,0.50,0.2,-10.42,1.04
16:21:09.971,97897,-9.84,3.79,0.45,0.1,-11.33,1.18
16:21:10.028,97954,-11.54,3.54,0.41,0.0,-12.21,1.24
16:21:10.085,98011,-12.98,3.41,0.35,-0.0,-12.55,1.48
16:21:10.143,98069,-13.88,3.40,0.34,-0.0,-12.04,1.81
16:21:10.200,98126,-14.26,3.44,0.32,0.0,-11.08,1.96
16:21:10.257,98183,-13.74,3.50,0.33,0.1,-8.77,2.08
16:21:10.314,98240,-12.29,3.53,0.37,-0.0,-5.62,2.07
16:21:10.371,98297,-9.97,3.53,0.44,0.1,-2.26,2.00
16:21:10.429,98355,-7.23,3.46,0.52,0.2,0.53,1.83
16:21:10.486,98412,-4.15,3.34,0.61,0.0,3.32,1.66
16:21:10.543,98469,-1.02,3.11,0.67,0.1,5.46,1.22
16:21:10.600,98526,2.23,2.81,0.71,0.2,7.30,0.97
16:21:10.657,98583,4.89,2.44,0.76,0.2,8.16,0.51
16:21:10.714,98640,7.20,2.04,0.79,0.2,8.40,0.26
16:21:10.772,98698,9.07,1.58,0.81,0.2,8.41,-0.14
16:21:10.829,98755,10.03,1.15,0.82,0.1,7.16,-0.38
16:21:10.886,98812,10.04,0.78,0.81,0.1,4.76,-0.52
16:21:10.943,98869,9.22,0.45,0.81,0.1,2.42,-0.54
16:21:11.000,98926,7.53,0.23,0.78,0.2,-0.30,-0.39
16:21:11.057,98983,5.77,0.18,0.77,0.1,-2.56,-0.10
16:21:11.115,99041,3.51,0.22,0.73,0.1,-4.49,0.23
16:21:11.172,99098,1.03,0.39,0.70,0.2,-6.35,0.59
16:21:11.229,99155,-1.27,0.63,0.65,0.1,-7.84,0.96
16:22:03.236,151162,19.38,17.61,1.23,0.5,-8.94,1.43
16:22:03.293,151219,18.75,15.68,0.00,-0.0,75.43,63.12
16:22:03.350,151276,18.67,15.59,-0.00,0.0,11.27,9.34
16:22:03.408,151334,18.60,15.61,0.01,0.1,11.24,9.64
16:22:03.465,151391,18.75,15.64,0.01,0.0,12.01,9.79
16:22:03.522,151448,18.81,15.64,0.01,0.0,11.97,9.82
16:22:03.579,151505,18.75,15.60,0.01,-0.2,11.76,9.80
16:22:03.636,151562,18.68,15.56,0.00,-0.2,11.77,9.86
16:22:03.693,151619,18.63,15.53,0.00,-0.2,11.89,9.93
16:22:03.751,151677,18.50,15.48,0.00,-0.0,11.78,9.96
16:22:03.808,151734,18.10,15.36,0.01,-0.1,11.02,9.84
16:22:03.864,151790,17.37,15.09,0.01,-0.0,9.89,9.41
16:22:03.922,151848,16.48,14.67,0.01,0.0,9.12,8.92
16:22:03.979,151905,15.62,14.12,-0.00,-0.1,8.59,8.30
16:22:04.036,151962,14.82,13.45,-0.00,-0.1,8.24,7.58
16:22:04.094,152020,13.99,12.60,-0.01,0.0,7.94,6.83
16:22:04.151,152077,13.22,11.71,-0.01,0.0,7.62,6.17
16:22:04.208,152134,12.38,10.74,-0.02,0.2,7.06,5.49
16:22:04.265,152191,11.47,9.69,-0.04,0.1,6.47,4.82
16:22:04.323,152249,10.55,8.60,-0.04,-0.0,5.99,4.19
16:22:04.380,152306,9.74,7.61,-0.05,0.1,5.59,3.60
16:22:04.436,152362,8.98,6.67,-0.04,-0.2,5.35,3.23
16:22:04.494,152420,8.20,5.70,-0.04,-0.2,5.02,2.78
16:22:04.552,152478,7.50,4.86,-0.04,-0.2,4.70,2.42
16:22:04.608,152534,6.77,4.03,-0.04,-0.1,4.33,2.13
16:22:04.665,152591,6.08,3.25,-0.05,-0.1,4.12,1.86
16:22:04.722,152648,5.41,2.55,-0.06,-0.1,3.79,1.57
16:22:04.780,152706,4.84,2.04,-0.06,-0.1,3.53,1.62
16:22:04.836,152762,4.24,1.63,-0.05,-0.1,3.23,1.73
16:22:04.894,152820,3.63,1.34,-0.05,-0.1,2.92,1.84
16:22:04.952,152878,3.12,1.21,-0.05,-0.1,2.75,2.17
16:22:05.009,152935,2.67,1.16,-0.05,-0.0,2.70,2.32
16:22:05.066,152992,2.35,1.19,-0.04,-0.0,2.86,2.58
16:22:05.123,153049,2.24,1.22,-0.05,0.1,3.26,2.60
16:22:05.180,153106,2.30,1.27,-0.05,-0.0,3.77,2.70
16:22:05.237,153163,2.41,1.33,-0.06,0.0,3.98,2.73
16:22:05.295,153221,2.49,1.38,-0.05,-0.0,3.98,2.79
16:22:05.352,153278,2.52,1.40,-0.06,0.0,3.90,2.74
16:22:05.409,153335,2.55,1.37,-0.06,-0.1,3.90,2.59
16:22:05.465,153391,2.65,1.31,-0.07,-0.1,4.15,2.51
16:22:05.523,153449,2.79,1.22,-0.07,-0.1,4.36,2.37
16:22:05.581,153507,2.89,1.14,-0.07,0.0,4.34,2.31
16:22:05.637,153563,2.95,1.04,-0.08,-0.0,4.33,2.26
16:22:05.695,153621,2.86,0.95,-0.08,-0.0,3.95,2.21
16:22:05.752,153678,2.68,0.86,-0.08,-0.1,3.58,2.17
16:22:05.809,153735,2.46,0.75,-0.09,-0.1,3.35,2.11
16:22:05.867,153793,2.24,0.65,-0.08,-0.1,3.24,2.03
16:22:05.924,153850,2.11,0.52,-0.09,-0.0,3.35,1.89
16:22:05.981,153907,2.10,0.36,-0.09,-0.0,3.65,1.75
16:22:06.038,153964,2.18,0.22,-0.09,-0.0,4.00,1.68
16:22:06.095,154021,2.28,0.09,-0.10,-0.0,4.08,1.64
16:22:06.153,154079,2.32,0.03,-0.09,-0.0,4.10,1.63
16:22:06.209,154135,2.35,-0.04,-0.09,0.0,3.98,1.73
16:22:06.267,154193,2.35,-0.06,-0.09,-0.0,3.96,1.80
16:22:06.323,154249,2.31,-0.05,-0.09,-0.1,3.81,1.89
16:22:06.381,154307,2.28,-0.03,-0.09,0.0,3.85,1.91
16:22:06.438,154364,2.30,0.03,-0.09,-0.0,3.99,2.05
16:22:06.495,154421,2.51,0.17,-0.10,-0.0,4.50,2.33
16:22:06.553,154479,3.00,0.47,-0.10,-0.2,5.54,2.87
16:22:06.609,154535,3.81,0.97,-0.10,-0.2,6.71,3.58
16:22:06.667,154593,4.89,1.76,-0.10,-0.2,8.23,4.83
16:22:06.725,154651,6.25,2.86,-0.11,-0.0,9.55,6.17
16:22:06.781,154707,7.67,4.27,-0.09,-0.1,10.60,7.67
16:22:06.839,154765,8.95,5.82,-0.10,-0.0,11.34,9.24
16:22:06.896,154822,10.03,7.44,-0.09,-0.0,11.64,10.62
16:22:06.953,154879,11.09,9.16,-0.08,-0.0,12.11,11.66
16:22:07.010,154936,11.90,10.68,-0.06,-0.0,12.05,12.02
16:22:07.067,154993,12.20,11.54,-0.06,0.1,11.36,11.67
16:22:07.124,155051,12.04,12.00,-0.05,0.0,10.15,10.76
16:22:07.182,155108,11.23,11.67,-0.06,0.1,8.22,8.84
16:22:07.239,155165,10.07,10.68,-0.07,-0.2,6.38,6.47
16:22:07.296,155222,8.59,9.01,-0.09,-0.1,4.78,3.83
16:22:07.354,155280,6.95,6.82,-0.12,-0.1,3.56,1.47
16:22:07.411,155337,5.38,4.46,-0.14,-0.0,2.74,-0.60
16:22:07.468,155394,3.79,2.04,-0.15,-0.1,1.70,-2.19
16:22:07.525,155451,2.14,-0.37,-0.18,-0.2,0.75,-3.41
16:22:07.582,155508,0.49,-2.43,-0.18,-0.1,-0.09,-3.77
16:22:07.639,155565,-0.82,-3.74,-0.19,-0.1,-0.64,-3.43
16:22:07.696,155622,-2.14,-4.61,-0.19,-0.1,-1.15,-2.51
16:22:07.754,155680,-3.43,-4.91,-0.18,-0.0,-1.73,-1.39
16:22:07.811,155737,-4.55,-4.62,-0.18,-0.1,-2.33,0.23
16:22:07.869,155795,-5.60,-3.78,-0.19,-0.1,-2.56,2.00
16:22:07.925,155851,-6.38,-2.44,-0.19,-0.0,-2.47,3.94
16:22:07.982,155908,-6.67,-0.65,-0.19,0.0,-1.65,5.95
16:22:08.039,155965,-6.36,1.04,-0.20,-0.0,-0.01,7.52
16:22:08.097,156023,-5.48,2.98,-0.13,-0.1,1.84,8.86
16:22:08.155,156081,-4.05,4.89,-0.12,-0.1,3.94,9.92
16:22:08.212,156138,-2.13,6.48,-0.09,-0.0,5.89,9.97
16:22:08.268,156194,-0.17,7.48,-0.09,0.0,7.49,9.66
16:22:08.326,156252,1.78,7.92,-0.10,0.1,8.94,8.73
16:22:08.383,156309,3.00,7.94,-0.10,-0.0,9.52,8.10
16:22:08.440,156366,5.36,7.30,-0.12,-0.0,10.78,5.88
16:22:08.497,156423,6.95,6.43,-0.13,-0.1,11.29,4.53
16:22:08.554,156480,8.18,5.24,-0.16,-0.1,11.25,3.06
16:22:08.612,156538,8.87,3.91,-0.17,-0.0,10.46,1.71
16:22:08.669,156595,9.06,2.36,-0.19,0.0,9.44,0.58
16:22:08.726,156652,8.72,0.84,-0.19,-0.0,7.94,-0.46
16:22:08.783,156709,8.04,-0.52,-0.18,-0.0,6.69,-1.00
16:22:08.840,156766,6.96,-1.72,-0.17,-0.1,5.20,-1.16
16:22:08.898,156824,5.64,-2.62,-0.15,-0.0,3.78,-1.13
16:22:08.955,156881,4.11,-3.22,-0.13,-0.2,2.26,-0.81
16:22:09.012,156938,2.41,-3.54,-0.12,-0.1,1.45,-0.20
16:22:09.069,156995,1.23,-3.59,-0.12,-0.0,1.01,0.25
16:22:09.127,157053,0.38,-3.42,-0.11,-0.0,1.48,0.96
16:22:09.184,157110,0.03,-3.07,-0.11,-0.1,2.57,1.56
16:22:09.241,157167,0.05,-2.57,-0.11,-0.1,3.59,2.19
16:22:09.299,157225,0.31,-1.95,-0.11,-0.2,4.35,2.93
16:22:09.356,157282,0.50,-1.48,-0.11,-0.1,4.55,3.13
16:22:09.413,157339,0.80,-0.49,-0.11,-0.1,4.62,4.11
16:22:09.470,157396,0.94,0.24,-0.11,-0.0,4.53,4.38
16:22:09.527,157453,0.98,0.73,-0.11,-0.1,4.31,4.42
16:22:09.584,157510,0.97,1.18,-0.11,-0.2,4.17,4.41
16:22:09.641,157567,0.96,1.50,-0.12,-0.2,4.17,4.27
16:22:09.699,157625,0.89,1.63,-0.11,-0.1,4.03,3.96
16:22:09.755,157681,0.68,1.63,-0.11,-0.2,3.54,3.63
16:22:09.813,157739,0.36,1.53,-0.11,-0.2,3.11,3.32
16:22:09.870,157796,0.03,1.38,-0.12,-0.0,2.76,3.12
16:22:09.927,157853,-0.29,1.16,-0.11,0.0,2.70,2.84
16:22:09.984,157910,-0.60,0.94,-0.11,-0.0,2.53,2.71
16:22:10.041,157967,-0.83,0.75,-0.12,-0.1,2.55,2.64
16:22:10.099,158025,-0.91,0.65,-0.12,-0.1,2.83,2.77
16:22:10.155,158081,-0.91,0.65,-0.12,-0.1,3.05,3.06
16:22:10.213,158139,-0.94,0.76,-0.12,-0.2,3.03,3.37
16:22:10.270,158196,-1.10,0.98,-0.12,-0.1,2.57,3.80
16:22:10.328,158254,-1.44,1.38,-0.12,-0.1,1.98,4.43
16:22:10.384,158310,-1.97,1.89,-0.10,-0.1,1.23,4.96
16:22:10.442,158368,-2.66,2.53,-0.12,-0.1,0.44,5.68
16:22:10.500,158426,-3.25,3.15,-0.11,0.1,-0.02,6.21
16:22:10.556,158482,-3.76,3.78,-0.10,-0.0,-0.06,6.56
16:22:10.614,158540,-3.94,4.34,-0.09,-0.1,0.63,6.72
16:22:10.671,158597,-3.84,4.73,-0.08,-0.1,1.40,6.69
16:22:10.728,158654,-3.53,5.01,-0.09,-0.1,2.00,6.55
16:22:10.784,158711,-2.90,5.06,-0.08,0.0,3.05,6.08
16:22:10.842,158768,-1.79,4.88,-0.08,0.0,4.93,5.44
16:22:10.900,158826,-0.22,4.48,-0.07,-0.0,7.04,4.68
16:22:10.956,158882,1.51,3.90,-0.10,-0.1,8.55,3.96
16:22:11.014,158940,3.20,3.16,-0.11,-0.1,9.49,3.11
16:22:11.071,158997,4.46,2.34,-0.13,0.0,9.49,2.27
16:22:11.128,159054,5.61,1.19,-0.14,-0.1,9.57,1.12
16:22:11.185,159111,6.53,-0.19,-0.16,0.1,9.74,-0.33
16:22:11.243,159169,7.06,-1.74,-0.16,0.1,9.22,-1.78
16:22:11.299,159225,7.23,-3.21,-0.18,-0.1,8.43,-2.63
16:22:11.357,159283,7.08,-4.47,-0.19,-0.1,7.66,-2.95
16:22:11.414,159340,6.71,-5.24,-0.21,-0.0,6.84,-2.31
16:22:11.472,159398,6.42,-5.45,-0.20,-0.0,6.82,-1.01
16:22:11.529,159455,6.38,-5.19,-0.23,0.0,7.35,0.17
16:22:11.586,159512,6.69,-4.47,-0.21,0.1,8.47,1.73
16:22:11.642,159568,7.24,-3.30,-0.20,-0.0,9.53,3.53
16:22:11.700,159626,7.72,-1.77,-0.20,0.0,9.72,5.19
16:22:11.758,159684,7.71,-0.25,-0.20,0.0,8.72,6.31
16:22:11.814,159740,7.39,0.64,-0.18,-0.0,8.26,6.59
16:22:11.872,159798,6.25,2.02,-0.16,-0.1,5.68,6.57
16:22:11.929,159855,5.40,2.75,-0.15,-0.0,5.18,6.25
16:22:11.987,159913,4.79,2.97,-0.13,-0.0,5.31,5.32
16:22:12.043,159969,4.43,2.65,-0.13,-0.1,5.82,3.79
16:22:12.100,160026,4.17,2.12,-0.14,-0.0,6.01,2.90
16:22:12.157,160083,3.93,1.62,-0.16,-0.0,5.90,2.59
16:22:12.214,160140,3.69,1.15,-0.15,-0.1,5.77,2.32
16:22:12.273,160199,3.43,0.67,-0.17,-0.2,5.63,2.14
16:22:12.329,160255,3.16,0.20,-0.15,-0.0,5.51,1.93
16:22:12.386,160312,2.93,-0.15,-0.17,0.1,5.35,1.84
16:22:12.443,160369,2.66,-0.52,-0.15,0.2,5.20,1.65
16:22:12.501,160427,2.40,-0.86,-0.17,0.0,5.10,1.52
16:22:12.558,160484,2.18,-1.11,-0.16,0.0,4.97,1.53
16:22:12.615,160541,1.95,-1.34,-0.17,0.0,4.90,1.49
16:22:12.672,160598,1.71,-1.51,-0.17,-0.1,4.75,1.48
16:22:12.730,160656,1.51,-1.64,-0.17,-0.0,4.68,1.50
16:22:12.787,160713,1.31,-1.71,-0.16,0.0,4.60,1.61
16:22:12.844,160770,1.12,-1.76,-0.16,-0.1,4.54,1.60
16:22:12.901,160827,0.93,-1.76,-0.15,-0.1,4.46,1.75
16:22:12.958,160884,0.79,-1.70,-0.15,0.1,4.48,1.91
16:22:13.016,160942,0.66,-1.61,-0.14,0.0,4.38,2.05
16:22:13.072,160998,0.54,-1.47,-0.16,-0.0,4.38,2.22
16:22:13.130,161056,0.46,-1.32,-0.15,-0.0,4.38,2.36
16:22:13.187,161113,0.41,-1.04,-0.17,0.1,4.46,2.75
16:24:49.314,317240,4.77,1.12,-1.92,-1.3,4.48,3.05
16:24:49.371,317297,3.30,4.11,-0.02,0.1,13.28,16.54
16:24:49.428,317354,3.33,4.14,0.01,0.2,2.07,2.57
16:24:49.485,317411,3.31,4.08,-0.03,0.1,1.82,2.16
16:24:49.543,317469,3.29,4.07,-0.06,0.1,2.11,2.55
16:24:49.599,317525,3.32,4.09,-0.07,0.2,2.16,2.64
16:24:49.657,317583,3.31,4.08,-0.05,0.0,2.06,2.54
16:24:49.714,317640,3.33,4.08,-0.08,-0.0,2.17,2.61
16:24:49.771,317697,3.33,4.06,-0.05,-0.1,2.16,2.59
16:24:49.829,317755,3.34,4.06,-0.09,-0.0,2.20,2.62
16:24:49.885,317811,3.36,4.04,-0.08,-0.0,2.24,2.62
16:24:49.943,317869,3.37,4.04,-0.10,0.0,2.26,2.65
16:24:50.000,317926,3.37,4.04,-0.09,-0.1,2.25,2.70
16:24:50.057,317983,3.38,4.03,-0.11,-0.1,2.30,2.68
16:24:50.114,318040,3.39,4.04,-0.11,-0.1,2.31,2.76
16:24:50.171,318097,3.40,4.03,-0.11,0.0,2.34,2.74
16:24:50.228,318154,3.42,4.03,-0.11,-0.0,2.39,2.78
16:24:50.286,318212,3.43,4.04,-0.12,-0.1,2.40,2.81
16:24:50.343,318269,3.44,4.04,-0.12,0.0,2.43,2.85
16:24:50.400,318326,3.45,4.05,-0.14,-0.0,2.43,2.88
16:24:50.457,318383,3.46,4.04,-0.12,0.0,2.48,2.87
16:24:50.515,318441,3.46,4.05,-0.14,-0.0,2.48,2.91
16:24:50.572,318498,3.46,4.04,-0.12,0.0,2.52,2.93
16:24:50.628,318554,3.47,4.04,-0.15,0.1,2.53,2.98
16:24:50.686,318612,3.47,4.03,-0.15,0.2,2.55,2.96
16:24:50.743,318669,3.47,4.02,-0.17,0.2,2.57,2.93
16:24:50.801,318727,3.47,4.02,-0.16,0.2,2.58,3.03
16:24:50.857,318783,3.47,4.01,-0.17,0.1,2.60,3.01
16:24:50.915,318841,3.47,4.02,-0.17,0.1,2.62,3.08
16:24:50.972,318898,3.47,4.01,-0.19,0.0,2.63,3.03
16:24:51.029,318955,3.46,4.01,-0.19,-0.0,2.64,3.09
16:24:51.087,319013,3.45,4.02,-0.20,0.0,2.64,3.16
16:24:51.144,319070,3.45,4.02,-0.19,0.1,2.69,3.14
16:24:51.201,319127,3.45,4.02,-0.20,0.1,2.70,3.16
16:24:51.258,319184,3.45,4.02,-0.20,-0.0,2.71,3.19
16:24:51.315,319241,3.43,4.01,-0.22,0.0,2.70,3.20
16:24:51.373,319299,3.44,4.01,-0.21,0.0,2.77,3.23
16:24:51.429,319355,3.43,4.01,-0.21,-0.0,2.75,3.24
16:24:51.486,319412,3.42,4.01,-0.22,0.0,2.77,3.28
16:24:51.544,319470,3.42,4.01,-0.21,-0.0,2.80,3.31
16:24:51.602,319528,3.43,4.00,-0.23,-0.0,2.87,3.30
16:24:51.658,319584,3.45,3.97,-0.21,-0.0,2.90,3.25
16:24:51.716,319642,3.47,3.95,-0.24,-0.1,2.95,3.27
16:24:51.773,319699,3.48,3.95,-0.22,0.1,2.98,3.34
16:24:51.830,319756,3.50,3.94,-0.25,-0.1,3.00,3.31
16:24:51.887,319813,3.51,3.95,-0.25,-0.0,3.02,3.44
16:24:51.944,319870,3.52,3.96,-0.26,0.0,3.04,3.43
16:24:52.002,319928,3.54,3.97,-0.25,0.1,3.06,3.48
16:24:52.059,319985,3.58,4.02,-0.26,0.1,3.15,3.63
16:24:52.115,320041,3.80,3.93,-0.26,0.0,3.79,3.43
16:24:52.173,320099,3.79,3.38,-0.29,0.0,3.34,1.97
16:24:52.230,320156,3.57,2.68,-0.28,0.0,2.70,1.00
16:24:52.288,320214,3.19,1.88,-0.32,-0.1,1.98,0.42
16:24:52.345,320271,2.70,1.13,-0.30,0.1,1.52,0.01
16:24:52.402,320328,2.14,0.50,-0.34,0.1,0.88,-0.13
16:24:52.458,320384,1.54,-0.07,-0.32,0.0,0.57,-0.23
16:24:52.516,320442,0.96,-0.52,-0.35,-0.0,0.23,-0.22
16:24:52.574,320500,0.53,-0.95,-0.33,-0.0,0.29,-0.45
16:24:52.631,320557,0.08,-1.47,-0.36,-0.0,0.05,-0.91
16:24:52.688,320614,-0.35,-1.99,-0.36,-0.0,-0.15,-1.26
16:24:52.746,320672,-0.76,-2.43,-0.37,-0.0,-0.41,-1.45
16:24:52.802,320728,-1.09,-2.80,-0.37,0.0,-0.42,-1.45
16:24:52.859,320785,-1.24,-3.14,-0.39,0.1,-0.13,-1.58
16:24:52.917,320843,-1.20,-3.44,-0.38,-0.0,0.39,-1.71
16:24:52.973,320899,-1.09,-3.77,-0.41,0.0,0.63,-1.94
16:24:53.031,320957,-0.91,-4.09,-0.39,0.2,0.89,-2.16
16:24:53.088,321014,-0.73,-4.27,-0.43,0.1,1.05,-2.02
16:24:53.146,321072,-0.59,-4.37,-0.40,0.1,1.06,-1.89
16:24:53.202,321128,-0.39,-4.36,-0.43,0.1,1.24,-1.65
16:24:53.259,321185,-0.13,-4.29,-0.42,0.2,1.49,-1.41
16:24:53.317,321243,0.08,-4.29,-0.44,0.1,1.71,-1.61
16:24:53.374,321300,0.18,-4.35,-0.42,-0.0,1.42,-1.81
16:24:53.431,321357,0.13,-4.42,-0.44,0.0,1.04,-1.94
16:24:53.488,321414,0.02,-4.38,-0.43,0.0,0.74,-1.69
16:24:53.545,321471,-0.11,-4.32,-0.45,0.0,0.65,-1.59
16:24:53.604,321530,-0.21,-4.21,-0.45,-0.0,0.63,-1.48
16:24:53.660,321586,-0.29,-4.01,-0.47,0.0,0.65,-1.12
16:24:53.717,321643,-0.36,-3.77,-0.46,0.1,0.66,-0.89
16:24:53.775,321701,-0.44,-3.56,-0.49,0.1,0.57,-0.90
16:24:53.832,321758,-0.52,-3.42,-0.47,-0.0,0.52,-0.97
16:24:53.889,321815,-0.63,-3.30,-0.49,-0.0,0.35,-0.99
16:24:53.946,321872,-0.70,-3.21,-0.47,0.1,0.42,-1.01
16:24:54.003,321929,-0.71,-3.11,-0.50,0.1,0.54,-0.97
16:24:54.060,321986,-0.71,-3.02,-0.49,0.1,0.57,-0.89
16:24:54.118,322044,-0.65,-2.98,-0.50,0.0,0.75,-1.07
16:24:54.175,322101,-0.53,-2.82,-0.48,0.0,0.94,-0.81
16:24:54.232,322158,-0.35,-2.40,-0.50,-0.1,1.18,0.08
16:24:54.290,322216,-0.10,-1.89,-0.49,-0.0,1.57,0.81
16:24:54.347,322273,0.21,-1.27,-0.50,-0.0,1.84,1.30
16:24:54.404,322330,0.58,-0.66,-0.48,-0.1,2.19,1.66
16:24:54.461,322387,0.96,-0.17,-0.49,-0.0,2.54,1.73
16:24:54.518,322444,1.38,0.34,-0.48,-0.0,2.84,1.99
16:24:54.576,322502,1.69,0.82,-0.51,0.0,2.79,2.18
16:24:54.632,322558,1.94,1.35,-0.50,-0.0,2.81,2.69
16:24:54.690,322616,2.16,1.93,-0.52,0.1,2.87,3.15
16:24:54.747,322673,2.35,2.43,-0.50,0.1,2.93,3.33
16:24:54.804,322730,2.48,2.74,-0.51,-0.0,2.91,3.07
16:24:54.861,322787,2.54,2.99,-0.49,0.0,2.77,3.11
16:24:54.919,322845,2.55,3.14,-0.51,0.0,2.66,2.91
16:24:54.975,322901,2.56,3.15,-0.51,0.1,2.67,2.62
16:24:55.033,322959,2.53,3.13,-0.51,0.1,2.56,2.48
16:24:55.091,323017,2.47,3.17,-0.52,0.0,2.49,2.73
16:24:55.147,323073,2.39,3.19,-0.54,-0.0,2.40,2.71
16:24:55.204,323130,2.35,3.09,-0.55,0.0,2.47,2.35
16:24:55.261,323187,2.26,2.94,-0.56,0.1,2.31,2.16
16:24:55.319,323245,2.16,2.76,-0.56,0.0,2.27,2.03
16:24:55.376,323302,2.04,2.57,-0.57,0.1,2.16,1.84
16:24:55.433,323359,1.89,2.34,-0.57,0.2,1.98,1.66
16:24:55.490,323416,1.72,2.05,-0.59,0.1,1.85,1.40
16:24:55.547,323473,1.64,1.83,-0.58,0.1,1.97,1.30
16:24:55.605,323531,1.70,1.91,-0.59,0.1,2.35,2.06
16:24:55.662,323588,1.91,2.38,-0.60,0.1,2.89,3.37
16:24:55.719,323645,2.28,3.02,-0.61,0.0,3.45,4.16
16:24:55.776,323702,2.85,3.87,-0.60,0.0,4.34,5.25
16:24:55.834,323760,3.57,5.07,-0.59,0.1,5.12,6.73
16:24:55.891,323817,4.30,6.50,-0.59,0.1,5.56,8.12
16:24:55.948,323874,5.00,7.82,-0.59,0.2,6.10,9.01
16:24:56.005,323931,5.66,8.90,-0.58,0.2,6.47,9.23
16:24:56.062,323988,6.23,9.80,-0.57,0.2,6.55,9.21
16:24:56.119,324045,6.62,10.33,-0.56,0.2,6.47,8.78
16:24:56.177,324103,6.88,10.62,-0.56,0.0,6.25,8.33
16:24:56.234,324160,7.04,10.74,-0.56,0.0,6.16,8.05
16:24:56.291,324217,7.16,10.72,-0.55,-0.1,6.16,7.72
16:24:56.348,324274,7.22,10.68,-0.56,-0.0,6.10,7.71
16:24:56.406,324332,7.30,10.68,-0.56,0.1,6.22,7.83
16:24:56.463,324389,7.32,10.71,-0.57,0.1,6.16,8.01
16:24:56.520,324446,7.34,10.74,-0.57,0.0,6.19,8.09
16:24:56.577,324503,7.35,10.71,-0.59,-0.0,6.21,7.99
16:24:56.634,324560,7.37,10.63,-0.59,-0.1,6.26,7.91
16:24:56.692,324618,7.38,10.57,-0.59,0.0,6.32,7.92
16:24:56.749,324675,7.43,10.58,-0.60,0.0,6.45,8.18
16:24:56.806,324732,7.49,10.62,-0.60,-0.1,6.57,8.35
16:24:56.863,324789,7.53,10.65,-0.61,-0.1,6.63,8.40
16:24:56.920,324846,7.51,10.66,-0.62,0.0,6.49,8.44
16:24:56.977,324903,7.50,10.65,-0.62,0.1,6.50,8.42
16:24:57.034,324960,7.46,10.63,-0.63,0.1,6.49,8.46
16:24:57.091,325017,7.45,10.62,-0.63,0.1,6.59,8.53
16:24:57.149,325075,7.45,10.64,-0.63,0.1,6.65,8.55
16:24:57.206,325132,7.47,10.66,-0.64,-0.0,6.76,8.74
16:24:57.264,325190,7.48,10.69,-0.65,-0.1,6.79,8.87
16:24:57.321,325247,7.47,10.70,-0.64,-0.1,6.77,8.89
16:24:57.377,325303,7.43,10.68,-0.66,0.0,6.75,8.84
16:24:57.435,325361,7.37,10.66,-0.66,0.1,6.68,8.90
16:24:57.492,325418,7.34,10.66,-0.67,-0.1,6.77,8.99
16:24:57.549,325475,7.33,10.65,-0.67,-0.2,6.87,9.03
16:24:57.606,325532,7.33,10.64,-0.68,-0.1,6.93,9.08
16:24:57.664,325590,7.36,10.65,-0.68,-0.1,7.05,9.20
16:24:57.721,325647,7.38,10.67,-0.69,0.0,7.11,9.28
16:24:57.778,325704,7.37,10.69,-0.69,-0.0,7.08,9.39
16:24:57.835,325761,7.36,10.66,-0.70,-0.1,7.12,9.31
16:24:57.893,325819,7.34,10.62,-0.69,-0.1,7.12,9.29
16:24:57.949,325875,7.27,10.58,-0.71,0.1,7.01,9.37
16:24:58.007,325933,7.24,10.54,-0.70,0.1,7.09,9.38
16:24:58.064,325990,7.24,10.51,-0.72,0.1,7.20,9.43
16:24:58.121,326047,7.27,10.53,-0.71,0.0,7.33,9.62
16:24:58.179,326105,7.27,10.55,-0.73,0.0,7.33,9.73
16:24:58.236,326162,7.26,10.53,-0.73,-0.0,7.32,9.70
16:24:58.293,326219,7.23,10.46,-0.74,-0.1,7.30,9.57
16:24:58.349,326275,7.21,10.40,-0.74,-0.0,7.36,9.61
16:24:58.407,326333,7.20,10.37,-0.75,-0.0,7.41,9.68
16:24:58.464,326390,7.23,10.36,-0.75,0.0,7.59,9.84
16:24:58.522,326448,7.27,10.35,-0.76,0.0,7.64,9.87
16:24:58.579,326505,7.33,10.33,-0.75,-0.0,7.77,9.91
16:24:58.636,326562,7.38,10.31,-0.76,-0.0,7.84,9.96
16:24:58.693,326619,7.47,10.28,-0.75,-0.0,8.00,9.97
16:24:58.751,326677,7.63,10.25,-0.76,0.0,8.31,10.01
16:24:58.808,326734,7.89,10.24,-0.76,-0.1,8.79,10.12
16:24:58.864,326790,8.31,10.25,-0.76,0.0,9.45,10.22
16:24:58.922,326848,8.87,10.28,-0.75,0.1,10.15,10.33
16:24:58.980,326906,9.45,10.34,-0.76,0.1,10.69,10.54
16:24:59.036,326962,10.10,10.41,-0.75,0.1,11.22,10.63
16:24:59.094,327020,10.73,10.46,-0.76,0.0,11.59,10.68
16:24:59.150,327076,11.32,10.48,-0.75,0.1,11.90,10.70
16:24:59.207,327133,11.76,10.51,-0.75,-0.0,11.96,10.77
16:24:59.266,327192,12.10,10.54,-0.75,0.0,12.05,10.87
16:25:11.076,339002,2.91,2.87,-2.13,0.2,12.16,10.95
16:25:11.134,339060,2.02,3.20,-0.01,-0.0,8.02,12.90
16:25:11.190,339116,2.13,3.24,-0.01,-0.1,1.51,2.02
16:25:11.248,339174,2.15,3.18,0.02,-0.1,1.23,1.68
16:25:11.305,339231,2.29,3.21,0.02,-0.2,1.96,2.22
16:25:11.362,339288,2.41,3.22,0.01,-0.1,1.78,2.04
16:25:11.419,339345,2.52,3.19,0.04,-0.2,1.85,1.96
16:25:11.476,339402,2.63,3.18,0.04,-0.2,1.97,2.01
16:25:11.533,339459,2.76,3.17,0.06,-0.2,2.05,2.01
16:25:11.590,339516,2.90,3.15,0.05,-0.2,2.20,2.01
16:25:11.648,339574,3.05,3.14,0.07,-0.3,2.28,2.04
16:25:11.705,339631,3.18,3.12,0.07,-0.2,2.41,2.02
16:25:11.763,339689,3.32,3.12,0.09,-0.2,2.50,2.08
16:25:11.819,339745,3.46,3.12,0.08,-0.2,2.59,2.08
16:25:11.877,339803,3.60,3.12,0.09,-0.2,2.73,2.14
16:25:11.934,339860,3.73,3.13,0.07,-0.2,2.80,2.18
16:25:11.991,339917,3.88,3.12,0.09,-0.2,2.92,2.13
16:25:12.049,339975,4.01,3.12,0.08,-0.3,3.00,2.20
16:25:12.105,340031,4.14,3.11,0.10,-0.2,3.10,2.14
16:25:12.163,340089,4.24,3.09,0.09,-0.2,3.13,2.15
16:25:12.219,340146,4.34,3.08,0.11,-0.2,3.21,2.18
16:25:12.277,340203,4.43,3.08,0.10,-0.2,3.27,2.20
16:25:12.335,340261,4.52,3.07,0.12,-0.1,3.33,2.23
16:25:12.391,340317,4.59,3.06,0.12,-0.2,3.35,2.23
16:25:12.448,340374,4.63,3.05,0.13,-0.2,3.35,2.23
16:25:12.506,340432,4.69,3.05,0.13,-0.2,3.42,2.27
16:25:12.563,340489,4.73,3.04,0.14,-0.2,3.44,2.26
16:25:12.620,340546,4.76,3.04,0.14,-0.2,3.45,2.28
16:25:12.677,340603,4.76,3.04,0.14,-0.2,3.44,2.34
16:25:12.735,340661,4.76,3.04,0.14,-0.2,3.43,2.32
16:25:12.791,340717,4.74,3.05,0.15,-0.1,3.41,2.37
16:25:12.849,340775,4.70,3.05,0.15,-0.1,3.38,2.41
16:25:12.906,340832,4.66,3.06,0.16,-0.1,3.37,2.44
16:25:12.963,340889,4.61,3.07,0.15,-0.1,3.35,2.43
16:25:13.020,340946,4.56,3.07,0.16,-0.1,3.33,2.45
16:25:13.078,341004,4.49,3.08,0.15,-0.1,3.29,2.47
16:25:13.135,341061,4.42,3.09,0.16,-0.0,3.25,2.51
16:25:13.192,341118,4.36,3.08,0.16,-0.1,3.26,2.48
16:25:13.249,341175,4.28,3.09,0.16,-0.1,3.21,2.55
16:25:13.307,341233,4.21,3.09,0.16,-0.1,3.20,2.53
16:25:13.364,341290,4.13,3.10,0.16,-0.1,3.15,2.58
16:25:13.420,341346,4.05,3.10,0.15,-0.1,3.12,2.60
16:25:13.478,341404,3.97,3.10,0.15,-0.1,3.10,2.59
16:25:13.535,341461,3.89,3.11,0.14,-0.2,3.07,2.64
16:25:13.592,341518,3.81,3.11,0.14,-0.1,3.04,2.64
16:25:13.650,341576,3.73,3.10,0.14,-0.2,3.03,2.64
16:25:13.706,341632,3.66,3.11,0.13,-0.2,3.05,2.68
16:25:13.764,341690,3.61,3.11,0.12,-0.2,3.03,2.70
16:25:13.821,341747,3.54,3.11,0.12,-0.0,3.02,2.72
16:25:13.878,341804,3.49,3.11,0.12,-0.0,3.04,2.71
16:25:13.936,341862,3.42,3.08,0.13,-0.1,3.02,2.69
16:25:13.992,341918,2.93,2.73,0.17,-0.1,1.83,1.83
16:25:14.050,341976,2.23,2.13,0.15,0.0,0.84,0.81
16:25:14.107,342033,1.64,1.44,0.12,-0.0,0.66,0.19
16:25:14.165,342091,1.24,0.82,0.09,-0.1,0.80,-0.23
16:25:14.221,342147,0.94,0.25,0.11,-0.1,0.92,-0.34
16:25:14.279,342205,0.73,-0.13,0.09,-0.2,1.07,-0.08
16:25:14.336,342262,0.71,-0.26,0.10,-0.1,1.41,0.34
16:25:14.393,342319,0.90,-0.22,0.10,-0.3,2.14,0.88
16:25:14.451,342377,0.93,-0.22,0.11,-0.2,1.93,0.87
16:25:14.508,342434,0.84,-0.22,0.12,-0.0,1.41,0.73
16:25:14.565,342491,0.85,-0.15,0.12,-0.1,1.66,1.03
16:25:14.622,342548,0.89,-0.05,0.12,-0.1,1.83,1.14
16:25:14.678,342604,0.93,0.08,0.13,-0.1,1.85,1.29
16:25:14.737,342663,1.00,0.20,0.12,-0.1,1.96,1.37
16:25:14.793,342719,1.10,0.34,0.12,-0.1,2.07,1.46
16:25:14.851,342777,1.22,0.50,0.10,-0.1,2.20,1.60
16:25:14.908,342834,1.34,0.64,0.12,-0.1,2.29,1.67
16:25:14.966,342892,1.51,0.82,0.09,-0.1,2.51,1.87
16:25:15.022,342948,1.68,0.98,0.13,0.0,2.64,1.92
16:25:15.080,343006,1.86,1.15,0.12,-0.0,2.79,2.03
16:25:15.137,343063,2.05,1.30,0.13,-0.1,2.97,2.14
16:25:15.193,343119,2.27,1.46,0.12,-0.2,3.12,2.21
16:25:15.251,343177,2.47,1.61,0.12,-0.1,3.27,2.34
16:25:15.308,343234,2.70,1.76,0.11,-0.1,3.46,2.38
16:25:15.365,343291,2.95,1.91,0.11,-0.2,3.63,2.52
16:25:15.422,343348,3.19,2.04,0.12,-0.2,3.82,2.53
16:25:15.480,343406,3.42,2.16,0.13,-0.1,3.97,2.64
16:25:15.538,343464,3.56,2.31,0.09,-0.1,3.85,2.78
16:25:15.594,343520,3.44,2.62,0.09,-0.1,3.28,3.24
16:25:15.652,343578,3.07,2.68,0.06,-0.2,2.36,2.98
16:25:15.709,343635,2.86,2.50,0.08,-0.2,2.43,2.15
16:25:15.765,343691,2.96,2.33,0.06,-0.2,3.46,2.08
16:25:15.823,343749,3.02,2.07,0.07,-0.2,3.36,1.76
16:25:15.880,343806,3.18,1.60,0.06,-0.2,3.80,0.94
16:25:15.937,343863,3.32,0.95,0.05,-0.2,3.81,0.16
16:25:15.995,343921,3.61,0.06,0.05,-0.2,4.28,-0.64
16:25:16.053,343979,3.75,-0.74,0.03,-0.2,4.27,-1.56
16:25:16.109,344035,3.70,-1.58,0.03,-0.2,3.76,-1.90
16:25:16.166,344092,3.38,-2.16,0.03,-0.1,2.96,-1.67
16:25:16.224,344150,2.81,-2.35,0.02,-0.2,1.87,-0.88
16:25:16.281,344207,1.93,-2.39,0.02,-0.3,0.64,-0.47
16:25:16.337,344263,0.96,-2.25,0.02,-0.2,-0.11,-0.02
16:25:16.395,344321,0.08,-2.13,0.02,-0.1,-0.63,0.13
16:25:16.452,344378,-0.67,-2.11,0.01,-0.2,-0.70,-0.15
16:25:16.510,344436,-1.04,-2.21,0.00,-0.1,-0.08,-0.49
16:25:16.567,344493,-0.86,-2.34,-0.00,-0.1,1.35,-0.74
16:25:16.624,344550,-0.44,-2.38,0.01,-0.2,2.43,-0.51
16:25:16.682,344608,-0.10,-2.51,0.02,-0.1,2.42,-0.80
16:25:16.738,344664,0.04,-2.72,0.01,-0.2,2.00,-1.15
16:25:16.795,344721,-0.02,-2.88,-0.00,-0.1,1.51,-1.18
16:25:16.852,344778,-0.22,-3.05,-0.01,-0.1,1.03,-1.29
16:25:16.909,344835,-0.53,-3.18,-0.01,-0.1,0.55,-1.32
16:25:16.966,344892,-0.79,-3.16,-0.03,-0.2,0.42,-1.02
16:25:17.024,344950,-0.98,-2.88,-0.03,-0.3,0.50,-0.29
16:25:17.082,345008,-1.01,-2.31,-0.05,-0.2,0.83,0.75
16:25:17.138,345064,-0.83,-1.29,-0.05,-0.1,1.44,2.43
16:25:17.196,345122,-0.56,-0.18,-0.04,-0.2,1.90,3.59
16:25:17.254,345180,-0.28,1.06,-0.02,-0.2,2.09,4.42
16:25:17.311,345237,-0.05,2.06,0.01,-0.1,2.15,4.64
16:25:17.367,345293,0.05,2.58,0.01,-0.2,1.86,3.92
16:25:17.425,345351,0.04,2.58,0.02,-0.3,1.59,2.54
16:25:17.482,345408,-0.08,1.93,0.00,-0.2,1.24,0.68
16:25:17.538,345464,-0.24,0.70,-0.02,-0.2,1.05,-1.53
16:25:17.596,345522,-0.40,-0.61,-0.02,-0.2,0.92,-2.76
16:25:17.653,345579,-0.57,-2.01,-0.05,-0.2,0.78,-3.60
16:25:17.710,345636,-0.66,-3.18,-0.06,-0.1,0.91,-3.98
16:25:17.767,345693,-0.63,-4.13,-0.06,-0.1,1.20,-4.06
16:25:17.824,345750,-0.48,-4.96,-0.06,-0.2,1.55,-4.12
16:25:17.882,345808,-0.21,-5.65,-0.06,-0.3,2.04,-4.26
16:25:17.939,345865,0.11,-6.35,-0.06,-0.4,2.42,-4.79
16:25:17.996,345922,0.44,-7.08,-0.06,-0.2,2.58,-5.28
16:25:18.054,345980,0.77,-7.74,-0.06,-0.2,2.81,-5.56
16:25:18.111,346037,1.06,-8.33,-0.06,-0.2,2.93,-5.84
16:25:18.168,346094,1.33,-8.82,-0.06,-0.2,3.01,-5.85
16:25:18.225,346151,1.61,-9.21,-0.06,-0.3,3.13,-5.88
16:25:18.283,346209,1.96,-9.46,-0.06,-0.3,3.63,-5.86
16:25:18.339,346265,2.33,-9.61,-0.06,-0.1,3.97,-5.71
16:25:18.396,346323,2.70,-9.61,-0.07,-0.1,4.10,-5.45
16:25:18.453,346379,3.03,-9.37,-0.08,-0.1,4.17,-4.84
16:25:18.511,346437,3.27,-9.01,-0.09,-0.2,4.28,-4.23
16:25:18.568,346494,3.48,-8.38,-0.09,-0.2,4.27,-3.39
16:25:18.625,346551,3.44,-7.78,-0.08,-0.3,3.77,-3.01
16:25:18.682,346608,3.06,-7.68,-0.10,-0.3,2.68,-3.98
16:25:18.740,346666,2.49,-8.10,-0.11,-0.2,1.77,-5.75
16:25:18.797,346723,1.89,-8.81,-0.10,-0.1,1.41,-6.90
16:25:18.854,346780,1.55,-9.46,-0.10,-0.3,1.77,-7.32
16:25:18.911,346837,1.23,-10.07,-0.10,-0.3,1.71,-7.59
16:25:18.969,346895,0.90,-10.61,-0.11,-0.2,1.54,-7.80
16:25:19.026,346952,0.56,-10.93,-0.11,-0.2,1.31,-7.53
16:25:19.083,347009,0.15,-11.06,-0.11,-0.1,0.92,-7.25
16:25:19.140,347066,-0.32,-11.14,-0.11,-0.2,0.35,-7.21
16:25:19.198,347124,-0.93,-11.21,-0.12,-0.3,-0.22,-7.26
16:25:19.255,347181,-1.46,-11.21,-0.11,-0.2,-0.54,-7.22
16:25:19.312,347238,-1.82,-11.06,-0.13,-0.2,-0.24,-6.79
16:25:19.369,347295,-1.91,-10.84,-0.13,-0.1,0.26,-6.58
16:25:19.427,347353,-1.76,-10.58,-0.13,-0.1,0.93,-6.33
16:25:19.484,347410,-1.37,-10.31,-0.12,-0.1,1.80,-6.19
16:25:19.541,347467,-0.74,-10.03,-0.11,-0.1,2.74,-6.10
16:25:19.598,347524,0.11,-9.71,-0.13,-0.1,3.70,-5.87
16:25:19.655,347581,1.02,-9.28,-0.13,-0.1,4.68,-5.33
16:25:19.712,347638,2.06,-8.80,-0.16,-0.2,5.37,-5.03
16:25:19.769,347695,3.05,-8.37,-0.15,-0.2,5.93,-4.92
16:25:19.826,347752,3.99,-8.01,-0.18,-0.2,6.39,-4.92
16:25:19.884,347810,4.87,-7.71,-0.19,-0.1,6.92,-4.93
16:25:19.941,347867,5.80,-7.39,-0.19,-0.1,7.53,-4.74
16:25:19.998,347924,6.62,-7.11,-0.19,-0.0,7.86,-4.65
16:25:20.055,347981,7.50,-6.86,-0.19,-0.1,8.29,-4.74
16:25:20.112,348038,8.26,-6.66,-0.20,-0.0,8.88,-4.66
16:25:20.169,348095,8.99,-6.48,-0.20,0.0,9.19,-4.67
16:25:20.227,348153,9.77,-6.29,-0.19,-0.1,9.79,-4.60
16:25:20.283,348209,10.64,-6.08,-0.22,-0.1,10.46,-4.49
16:25:20.341,348267,11.45,-5.91,-0.22,-0.1,11.01,-4.47
16:25:20.398,348325,12.15,-5.79,-0.23,-0.1,11.30,-4.53
16:25:20.455,348381,12.80,-5.67,-0.23,-0.2,11.55,-4.52
16:25:20.513,348439,13.34,-5.62,-0.25,-0.2,11.71,-4.65
16:25:20.570,348496,13.23,-5.83,-0.24,-0.3,10.42,-5.40
16:25:20.627,348553,12.30,-6.37,-0.24,-0.3,7.87,-6.58
16:25:20.684,348610,11.02,-7.01,-0.24,-0.3,6.29,-7.22
16:25:20.741,348667,9.75,-7.66,-0.24,-0.2,5.32,-7.79
16:25:20.799,348725,8.45,-8.34,-0.24,-0.2,4.44,-8.34
16:25:20.856,348782,6.96,-9.17,-0.23,-0.2,3.36,-9.16
16:25:20.913,348839,5.45,-9.99,-0.23,-0.1,2.66,-9.55
16:25:20.970,348896,4.36,-10.60,-0.24,-0.1,2.33,-9.83
16:25:21.028,348954,3.15,-11.23,-0.25,-0.2,1.82,-10.10
16:25:39.011,366937,7.97,4.68,0.13,-0.1,1.48,-10.29
16:25:39.069,366995,3.38,4.71,-0.00,0.0,4.78,2.81
16:25:39.125,367051,3.33,4.63,0.03,-0.0,2.00,2.73
16:25:39.183,367109,3.26,4.52,0.05,-0.1,1.67,2.42
16:25:39.239,367166,3.32,4.55,0.09,0.0,2.31,2.96
16:25:39.297,367223,3.30,4.54,0.09,-0.1,1.97,2.81
16:25:39.354,367280,3.31,4.54,0.11,0.0,2.12,2.87
16:25:39.411,367337,3.32,4.52,0.09,0.0,2.14,2.86
16:25:39.469,367395,3.32,4.51,0.10,0.1,2.15,2.87
16:25:39.525,367451,3.33,4.50,0.09,-0.0,2.17,2.90
16:25:39.582,367508,3.33,4.49,0.10,-0.0,2.20,2.93
16:25:39.641,367567,3.34,4.47,0.10,0.0,2.22,2.91
16:25:39.698,367624,3.34,4.46,0.10,0.1,2.22,2.98
16:25:39.754,367680,3.34,4.46,0.10,-0.0,2.26,3.01
16:25:39.812,367738,3.34,4.45,0.10,-0.0,2.27,3.00
16:25:39.869,367795,3.34,4.45,0.09,-0.0,2.27,3.05
16:25:39.926,367852,3.34,4.44,0.09,-0.0,2.32,3.07
16:25:39.983,367909,3.34,4.44,0.08,0.1,2.32,3.10
16:25:40.040,367966,3.34,4.44,0.08,0.1,2.35,3.12
16:25:40.097,368023,3.34,4.44,0.07,0.2,2.35,3.15
16:25:40.155,368081,3.33,4.45,0.08,0.0,2.38,3.20
16:25:40.212,368138,3.33,4.46,0.07,0.0,2.39,3.23
16:25:40.269,368195,3.32,4.45,0.08,0.0,2.40,3.23
16:25:40.326,368252,3.31,4.46,0.08,0.0,2.40,3.27
16:25:40.383,368309,3.30,4.45,0.08,0.1,2.40,3.26
16:25:40.440,368366,3.29,4.45,0.08,0.3,2.41,3.31
16:25:40.497,368423,3.28,4.46,0.09,0.2,2.43,3.36
16:25:40.556,368482,3.28,4.46,0.08,0.2,2.46,3.35
16:25:40.612,368538,3.28,4.46,0.08,0.1,2.49,3.41
16:25:40.670,368596,3.28,4.47,0.08,-0.0,2.51,3.43
16:25:40.727,368653,3.28,4.47,0.09,-0.0,2.56,3.45
16:25:40.784,368710,3.28,4.48,0.07,0.0,2.55,3.49
16:25:40.841,368767,3.28,4.48,0.08,0.0,2.57,3.51
16:25:40.898,368824,3.28,4.49,0.07,0.0,2.57,3.56
16:25:40.955,368881,3.27,4.48,0.08,0.1,2.60,3.53
16:25:41.012,368938,3.28,4.48,0.07,-0.0,2.63,3.59
16:25:41.070,368996,3.35,4.55,0.08,-0.0,2.84,3.86
16:25:41.127,369053,3.57,4.09,0.09,0.0,3.44,2.54
16:25:41.184,369110,3.56,3.08,0.08,0.1,2.85,0.29
16:25:41.242,369168,3.29,1.82,0.08,-0.0,2.29,-0.89
16:25:41.298,369224,2.75,0.80,0.08,0.1,1.10,-1.19
16:25:41.356,369282,2.22,0.30,0.08,-0.0,0.83,-0.24
16:25:41.413,369339,1.61,0.15,0.07,-0.0,0.36,0.69
16:25:41.470,369396,0.99,0.05,0.06,-0.1,-0.14,0.84
16:25:41.527,369453,0.40,-0.23,0.06,0.0,-0.44,0.16
16:25:41.584,369510,-0.22,-0.47,0.04,0.2,-0.90,0.12
16:25:41.641,369567,-0.85,-0.82,0.04,0.1,-1.21,-0.26
16:25:41.698,369624,-1.43,-1.41,0.02,0.0,-1.56,-1.30
16:25:41.757,369683,-2.01,-2.22,0.04,0.0,-1.80,-2.26
16:25:41.814,369740,-2.61,-3.07,0.03,-0.1,-2.20,-2.94
16:25:41.871,369797,-3.12,-3.63,0.05,-0.1,-2.38,-2.69
16:25:41.927,369853,-3.53,-4.05,0.02,-0.0,-2.45,-2.60
16:25:41.985,369911,-3.81,-4.47,0.04,0.0,-2.26,-2.78
16:25:42.042,369968,-3.96,-5.01,0.02,-0.0,-2.11,-3.25
16:25:42.100,370026,-4.03,-5.66,0.03,0.1,-1.94,-4.21
16:25:42.156,370083,-4.28,-6.68,0.03,0.1,-2.47,-5.56
16:25:42.214,370140,-4.86,-7.76,0.04,0.1,-3.49,-6.45
16:25:42.271,370197,-5.51,-8.59,0.03,0.1,-4.37,-6.55
16:25:42.328,370254,-6.15,-9.18,0.05,0.0,-4.79,-6.40
16:25:42.385,370311,-6.74,-9.49,0.04,-0.1,-4.97,-5.90
16:25:42.442,370368,-7.11,-9.64,0.04,-0.1,-4.80,-5.71
16:25:42.500,370426,-7.32,-9.59,0.03,-0.0,-4.53,-5.20
16:25:42.556,370482,-7.34,-9.45,0.04,-0.0,-4.12,-4.89
16:25:42.614,370540,-7.24,-9.12,0.03,-0.1,-3.77,-4.39
16:25:42.672,370598,-7.10,-8.68,0.04,0.0,-3.57,-3.82
16:25:42.728,370654,-6.96,-8.04,0.03,0.0,-3.57,-2.95
16:25:42.785,370711,-6.83,-7.33,0.04,0.0,-3.54,-2.46
16:25:42.843,370769,-6.76,-6.92,0.02,0.1,-3.67,-2.72
16:25:42.900,370826,-6.97,-7.35,0.04,0.1,-4.41,-4.87
16:25:42.958,370884,-7.50,-8.47,0.03,0.1,-5.55,-7.46
16:25:43.014,370940,-8.10,-9.50,0.04,0.1,-6.28,-8.15
16:25:43.072,370998,-8.42,-9.75,0.04,0.0,-6.00,-6.80
16:25:43.128,371054,-8.59,-9.35,0.03,-0.0,-5.69,-4.86
16:25:43.185,371111,-8.55,-8.59,0.01,-0.1,-5.18,-3.46
16:25:43.243,371169,-8.46,-7.87,0.03,0.0,-4.96,-2.93
16:25:43.300,371226,-8.32,-7.15,0.02,-0.0,-4.87,-2.78
16:25:43.358,371284,-8.09,-6.53,0.03,-0.0,-4.55,-2.72
16:25:43.414,371340,-7.90,-5.95,0.02,-0.0,-4.55,-2.53
16:25:43.472,371398,-7.69,-5.32,0.04,0.1,-4.48,-2.02
16:25:43.529,371455,-7.44,-4.70,0.03,0.1,-4.18,-1.51
16:25:43.586,371512,-7.26,-4.18,0.05,0.1,-4.29,-1.51
16:25:43.643,371569,-7.21,-3.85,0.05,0.0,-4.59,-1.85
16:25:43.700,371626,-7.26,-3.49,0.06,0.1,-4.93,-1.65
16:25:43.758,371684,-7.39,-3.32,0.05,0.1,-5.24,-1.86
16:25:43.815,371741,-7.64,-3.50,0.06,-0.1,-5.77,-2.90
16:25:43.873,371799,-8.01,-3.99,0.04,-0.1,-6.28,-3.96
16:25:43.929,371855,-8.39,-4.56,0.05,-0.0,-6.63,-4.59
16:25:43.987,371913,-8.69,-5.16,0.04,0.1,-6.71,-5.04
16:25:44.044,371970,-8.90,-5.94,0.06,-0.0,-6.61,-6.04
16:25:44.101,372027,-9.03,-6.78,0.05,-0.0,-6.58,-6.64
16:25:44.158,372084,-8.97,-7.28,0.06,0.1,-6.16,-6.40
16:25:44.215,372141,-8.86,-7.47,0.05,0.0,-5.95,-5.61
16:25:44.273,372199,-8.82,-7.79,0.07,0.1,-6.07,-5.96
16:25:44.330,372256,-9.10,-8.33,0.07,0.1,-7.04,-7.05
16:25:44.387,372313,-9.59,-8.95,0.07,0.1,-8.01,-7.74
16:25:44.444,372370,-10.08,-9.45,0.06,0.1,-8.39,-7.74
16:25:44.501,372427,-10.39,-10.04,0.07,0.0,-8.22,-8.30
16:25:44.558,372484,-10.67,-10.51,0.07,0.1,-8.32,-8.52
16:25:44.616,372542,-10.96,-10.63,0.08,0.2,-8.60,-7.82
16:25:44.673,372599,-11.15,-10.42,0.07,0.1,-8.55,-6.95
16:25:44.731,372657,-11.11,-10.08,0.08,0.0,-8.09,-6.32
16:25:44.787,372713,-10.86,-9.52,0.07,-0.0,-7.37,-5.52
16:25:44.844,372770,-10.52,-8.86,0.08,-0.1,-7.13,-5.09
16:25:44.901,372827,-10.01,-7.93,0.08,0.1,-6.56,-4.10
16:25:44.959,372885,-9.56,-6.98,0.08,0.2,-6.17,-2.95
16:25:45.016,372942,-8.97,-5.91,0.08,0.1,-5.77,-2.35
16:25:45.073,372999,-8.24,-4.75,0.09,-0.0,-5.13,-1.71
16:25:45.130,373056,-7.44,-3.63,0.10,-0.0,-4.24,-0.70
16:25:45.187,373113,-6.44,-2.53,0.11,-0.0,-3.49,-0.43
16:25:45.245,373171,-5.57,-1.62,0.13,0.1,-2.97,-0.06
16:25:45.302,373228,-4.72,-0.70,0.16,0.1,-2.58,0.46
16:25:45.359,373285,-3.73,0.23,0.18,0.1,-1.85,0.90
16:25:45.416,373342,-2.73,1.06,0.19,0.1,-1.27,1.15
16:25:45.473,373399,-1.84,1.77,0.21,0.1,-0.96,1.30
