Timestamp,ElapsedMillis,Yaw,Pitch,Roll,Altitude,YawServo,PitchServo,Pyro1,Pyro2
13:23:45.050,24887,-5.93,87.71,-92.10,0.0,83.00,92.50,1,0
13:23:45.051,24888,-5.93,87.71,-92.10,0.0,83.00,92.50,0,0
13:23:45.051,24888,-5.93,87.71,-92.10,0.0,83.00,92.50,0,0
13:23:45.052,24889,-5.93,87.71,-92.10,0.0,83.00,92.50,0,0
13:23:45.053,24890,0.02,88.13,-89.44,0.0,83.00,97.00,0,1
13:23:45.149,24986,-0.06,88.11,-89.51,0.0,83.00,97.00,0,0
13:23:45.250,25087,-0.38,88.11,-89.85,0.0,83.00,97.00,0,0
13:23:45.350,25187,-0.54,88.10,-89.99,0.0,83.00,97.00,0,0
13:23:45.465,25302,-0.52,88.10,-89.99,0.0,83.00,97.00,0,0
13:23:45.576,25413,-0.39,88.10,-89.85,0.0,83.00,97.00,0,1
13:23:45.685,25522,-0.38,88.10,-89.85,0.0,83.00,97.00,1,0
13:23:45.786,25623,-0.47,88.10,-89.94,0.0,83.00,97.00,0,1
13:23:45.990,25827,-0.36,88.08,-89.85,0.0,83.00,97.00,0,0
13:23:46.091,25928,-0.49,88.08,-90.01,0.0,83.00,97.00,0,0
13:23:46.206,26043,-0.69,88.08,-90.20,0.0,83.00,97.00,0,0
13:23:46.317,26154,-0.65,88.09,-90.24,0.0,83.00,97.00,0,0
13:23:46.416,26253,-0.66,88.08,-90.20,0.0,83.00,97.00,0,0
13:23:46.516,26353,-0.38,88.07,-90.00,0.0,83.00,97.00,0,0
13:23:46.622,26459,-0.43,88.07,-90.01,0.0,83.00,97.00,0,0
13:23:46.727,26564,-0.56,88.08,-90.17,0.0,83.00,97.00,0,0
13:23:46.827,26664,-0.48,88.08,-90.08,0.0,83.00,97.00,0,0
13:23:46.927,26764,-0.20,88.08,-89.75,0.0,83.00,97.00,0,0
13:23:47.142,26979,-0.15,88.07,-89.74,0.0,83.00,97.00,0,0
13:23:47.243,27080,-0.26,88.07,-89.89,0.0,83.00,97.00,0,0
13:23:47.358,27195,-0.50,88.06,-90.13,0.0,83.00,97.00,0,0
13:23:47.457,27294,-0.47,88.05,-90.17,0.0,83.00,97.00,0,0
13:23:47.568,27405,-0.59,88.04,-90.20,0.0,83.00,97.00,0,1
13:23:47.667,27504,0.43,88.02,-89.40,0.0,83.00,97.00,0,0
13:23:47.777,27614,0.26,88.01,-89.27,0.0,83.00,97.00,0,1
13:23:47.892,27730,0.80,87.99,-88.97,0.0,83.00,97.00,0,1
13:23:48.002,27839,0.29,87.99,-89.22,0.0,83.00,97.00,0,0
13:23:48.112,27949,0.46,87.99,-89.22,0.0,83.00,97.00,0,1
13:23:48.218,28055,-0.04,87.99,-89.37,0.0,83.00,97.00,1,0
13:23:48.433,28270,0.22,88.00,-89.23,0.0,83.00,97.00,0,0
13:23:48.532,28369,0.44,88.00,-89.10,0.0,83.00,97.00,0,0
13:23:48.643,28480,0.08,88.00,-89.32,0.0,83.00,97.00,0,0
13:23:48.743,28580,0.28,88.00,-89.23,0.0,83.00,97.00,0,0
13:23:48.843,28680,0.32,88.00,-89.23,0.0,83.00,97.00,0,0
13:23:48.958,28795,0.10,88.00,-89.41,0.0,83.00,97.00,0,0
13:23:49.068,28905,0.15,87.99,-89.36,0.0,83.00,97.00,0,0
13:23:49.168,29005,0.17,88.01,-89.33,0.0,83.00,97.00,0,0
13:23:49.283,29120,0.32,88.01,-89.24,0.0,83.00,97.00,0,0
13:23:49.382,29219,0.58,88.00,-88.92,0.0,83.00,97.00,0,0
13:23:49.483,29320,1.02,87.99,-88.52,0.0,83.00,97.00,0,0
13:23:49.593,29431,1.07,87.98,-88.39,0.0,83.00,97.00,0,1
13:23:49.693,29530,1.31,87.96,-88.23,0.0,83.00,97.00,0,0
13:23:49.804,29641,1.40,87.96,-88.10,0.0,83.00,97.00,1,0
13:23:49.909,29746,1.40,87.96,-88.10,0.0,83.00,97.00,1,0
13:23:50.019,29856,1.47,87.95,-88.01,0.0,83.00,97.00,0,0
13:23:50.133,29972,1.60,87.95,-87.88,0.0,83.00,97.00,0,0
13:23:50.244,30081,1.63,87.95,-87.88,0.0,83.00,97.00,0,0
13:23:50.359,30196,1.80,87.94,-87.76,0.0,83.00,97.00,1,0
13:23:50.569,30406,1.25,87.96,-88.22,0.0,83.00,97.00,0,0
13:23:50.669,30506,1.23,87.97,-88.27,0.0,83.00,97.00,0,0
13:23:50.780,30617,1.22,87.97,-88.27,0.0,83.00,97.00,0,0
13:23:50.889,30726,1.27,87.97,-88.23,0.0,83.00,97.00,0,0
13:23:50.989,30826,1.36,87.97,-88.12,0.0,83.00,97.00,0,0
13:23:51.100,30937,0.44,87.98,-89.02,0.0,83.00,97.00,0,0
13:23:51.210,31047,0.12,87.98,-89.34,0.0,83.00,97.00,0,1
13:23:51.325,31162,0.30,87.98,-89.16,0.0,83.00,97.00,0,0
13:23:51.435,31272,0.97,87.99,-88.54,0.0,83.00,97.00,0,0
13:23:51.550,31387,0.29,88.01,-89.03,0.0,83.00,97.00,0,0
13:23:51.660,31497,0.27,88.01,-89.20,0.0,83.00,97.00,0,0
13:23:51.760,31597,0.22,88.01,-89.21,0.0,83.00,97.00,0,0
13:23:51.860,31697,0.24,88.01,-89.16,0.0,83.00,97.00,1,0
13:23:51.976,31813,0.32,88.00,-88.99,0.0,83.00,97.00,0,1
13:23:52.086,31923,0.08,87.99,-89.16,0.0,83.00,97.00,0,0
13:23:52.191,32028,-0.04,88.00,-89.35,0.0,83.00,97.00,0,1
13:23:52.296,32133,0.15,88.00,-89.23,0.0,83.00,97.00,1,0
13:23:52.396,32233,-0.07,87.99,-89.32,0.0,83.00,97.00,0,0
13:23:52.501,32338,-0.11,88.00,-89.37,0.0,83.00,97.00,0,0
13:23:52.601,32438,-0.05,87.99,-89.37,0.0,83.00,97.00,0,0
13:23:52.701,32538,0.01,88.00,-89.27,0.0,83.00,97.00,0,0
13:23:52.811,32648,-0.01,88.00,-89.27,0.0,83.00,97.00,0,0
13:23:52.926,32763,0.22,88.00,-89.05,0.0,83.00,97.00,0,0
13:23:53.026,32863,0.27,87.99,-89.00,0.0,83.00,97.00,0,0
13:23:53.141,32978,0.17,88.00,-89.10,0.0,83.00,97.00,0,1
13:23:53.251,33088,0.13,88.01,-89.14,0.0,83.00,97.00,0,0
13:23:53.352,33189,-0.02,88.01,-89.28,0.0,83.00,97.00,0,0
13:23:53.452,33289,-0.03,88.02,-89.28,0.0,83.00,97.00,0,0
13:23:53.567,33404,-0.04,88.02,-89.28,0.0,83.00,97.00,0,0
13:23:53.682,33519,-0.30,88.02,-89.51,0.0,83.00,97.00,0,0
13:23:53.792,33629,-0.24,88.03,-89.42,0.0,83.00,97.00,1,0
13:23:53.907,33744,-0.23,88.03,-89.42,0.0,83.00,97.00,0,0
13:23:54.007,33844,-0.16,88.03,-89.37,0.0,83.00,97.00,0,0
13:23:54.107,33944,-0.14,88.03,-89.37,0.0,83.00,97.00,0,0
13:23:54.217,34054,-0.14,88.03,-89.37,0.0,83.00,97.00,1,0
13:23:54.322,34159,-0.14,88.03,-89.37,0.0,83.00,97.00,0,0
13:23:54.422,34259,-0.14,88.03,-89.37,0.0,83.00,97.00,0,0
13:23:54.522,34359,-0.14,88.03,-89.37,0.0,83.00,97.00,0,1
13:23:54.622,34459,-0.14,88.03,-89.37,0.0,83.00,97.00,0,0
13:23:54.732,34569,-0.14,88.03,-89.37,0.0,83.00,97.00,0,0
13:23:54.833,34670,-0.14,88.03,-89.37,0.0,83.00,97.00,0,0
13:23:55.062,34899,-0.14,88.03,-89.37,0.0,83.00,97.00,0,0
13:23:55.163,35000,-0.14,88.03,-89.37,0.0,83.00,97.00,0,0
13:23:55.262,35099,-0.14,88.03,-89.37,0.0,83.00,97.00,0,1
13:23:55.362,35199,-0.14,88.03,-89.37,0.0,83.00,97.00,1,0
13:23:55.462,35299,-0.14,88.03,-89.37,0.0,83.00,97.00,0,0
13:23:55.563,35400,-0.14,88.03,-89.37,0.0,83.00,97.00,0,0
13:23:55.673,35510,-0.14,88.03,-89.37,0.0,83.00,97.00,0,0
13:23:55.783,35620,-0.14,88.03,-89.37,0.0,83.00,97.00,1,0
13:23:56.013,35850,-0.14,88.03,-89.37,0.0,83.00,97.00,1,0
13:23:56.113,35950,-0.14,88.03,-89.37,0.0,83.00,97.00,0,1
13:23:56.213,36050,-0.14,88.03,-89.37,0.0,83.00,97.00,0,0
13:23:56.323,36160,-0.14,88.03,-89.37,0.0,83.00,97.00,0,0
13:23:56.423,36260,-0.14,88.03,-89.37,0.0,83.00,97.00,0,0
13:23:56.523,36360,-0.14,88.03,-89.37,0.0,83.00,97.00,0,0
13:23:56.628,36465,-0.14,88.03,-89.37,0.0,83.00,97.00,0,1
13:23:56.738,36575,-0.14,88.03,-89.37,0.0,83.00,97.00,0,0
13:23:56.853,36690,-0.14,88.03,-89.37,0.0,83.00,97.00,0,0
13:23:56.953,36791,-0.14,88.03,-89.37,0.0,83.00,97.00,0,0
13:23:57.055,36892,-0.14,88.03,-89.37,0.0,83.00,97.00,0,0
13:23:57.169,37006,-0.14,88.03,-89.37,0.0,83.00,97.00,1,0
13:23:57.284,37121,-0.14,88.03,-89.37,0.0,83.00,97.00,1,0
13:23:57.394,37231,-0.14,88.03,-89.37,0.0,83.00,97.00,0,0
13:23:57.504,37341,-0.14,88.03,-89.37,0.0,83.00,97.00,0,0
13:23:57.604,37441,-0.14,88.03,-89.37,0.0,83.00,97.00,0,0
13:23:57.704,37541,-0.14,88.03,-89.37,0.0,83.00,97.00,0,1
13:23:57.805,37642,-0.14,88.03,-89.37,0.0,83.00,97.00,0,0
13:23:57.919,37756,-0.14,88.03,-89.37,0.0,83.00,97.00,0,0
13:23:58.029,37866,-0.14,88.03,-89.37,0.0,83.00,97.00,0,0
13:23:58.135,37972,-0.14,88.03,-89.37,0.0,83.00,97.00,0,0
13:23:58.244,38081,-0.14,88.03,-89.37,0.0,83.00,97.00,0,0
13:23:58.344,38181,-0.14,88.03,-89.37,0.0,83.00,97.00,0,0
13:23:58.459,38296,-0.14,88.03,-89.37,0.0,83.00,97.00,0,0
13:23:58.574,38411,-0.14,88.03,-89.37,0.0,83.00,97.00,0,0
13:23:58.685,38523,-0.14,88.03,-89.37,0.0,83.00,97.00,0,0
13:23:58.785,38622,-0.14,88.03,-89.37,0.0,83.00,97.00,0,1
13:23:58.904,38741,-0.14,88.03,-89.37,0.0,83.00,97.00,0,0
13:23:59.015,38852,-0.14,88.03,-89.37,0.0,83.00,97.00,0,1
13:23:59.115,38952,-0.14,88.03,-89.37,0.0,83.00,97.00,0,0
13:23:59.215,39052,-0.14,88.03,-89.37,0.0,83.00,97.00,0,0
13:23:59.325,39162,-0.14,88.03,-89.37,0.0,83.00,97.00,0,0
13:23:59.430,39267,-0.14,88.03,-89.37,0.0,83.00,97.00,0,0
13:23:59.530,39367,-0.14,88.03,-89.37,0.0,83.00,97.00,0,1
13:23:59.635,39472,-0.14,88.03,-89.37,0.0,83.00,97.00,0,0
13:23:59.735,39572,-0.14,88.03,-89.37,0.0,83.00,97.00,1,0
13:23:59.841,39678,-0.14,88.03,-89.37,0.0,83.00,97.00,0,0
13:23:59.951,39788,-0.14,88.03,-89.37,0.0,83.00,97.00,0,0
13:24:00.066,39903,-0.14,88.03,-89.37,0.0,83.00,97.00,0,0
13:24:00.181,40018,-0.14,88.03,-89.37,0.0,83.00,97.00,1,0
13:24:00.291,40128,-0.14,88.03,-89.37,0.0,83.00,97.00,0,1
13:24:00.391,40228,-0.14,88.03,-89.37,0.0,83.00,97.00,0,0
13:24:00.491,40328,-0.14,88.03,-89.37,0.0,83.00,97.00,0,0
13:24:00.607,40444,-0.71,88.02,-89.54,0.0,83.00,97.00,0,0
13:24:00.716,40553,106.18,86.44,21.05,0.0,83.00,97.00,0,0
13:24:00.826,40663,120.33,80.25,36.78,0.0,83.00,97.00,0,0
13:24:00.932,40769,112.46,84.97,28.62,0.0,83.00,97.00,0,1
13:24:01.031,40868,-28.20,86.26,-112.27,0.0,83.00,97.00,0,0
13:24:01.141,40978,-39.33,82.05,-124.52,0.0,83.00,97.00,0,0
13:24:01.247,41084,-39.26,82.57,-123.79,0.0,83.00,97.00,0,0
13:24:01.347,41184,-6.86,87.93,-90.26,0.0,83.00,97.00,1,0
13:24:01.462,41299,114.02,83.44,32.26,0.0,83.00,97.00,0,1
13:24:01.577,41414,119.44,77.30,38.47,0.0,83.00,97.00,0,0
13:24:01.687,41524,121.58,73.67,39.97,0.0,83.00,97.00,0,1
13:24:01.792,41629,122.15,72.63,40.27,0.0,83.00,97.00,0,0
13:24:01.907,41744,119.75,73.16,38.49,0.0,83.00,97.00,0,0
13:24:02.017,41854,92.17,73.69,12.05,0.0,83.00,97.00,0,0
13:24:02.122,41959,63.75,67.60,-16.26,0.0,83.00,97.00,0,0
13:24:02.222,42059,48.32,57.87,-31.87,0.0,83.00,97.00,0,0
13:24:02.322,42159,40.86,47.73,-40.05,0.0,83.00,97.00,0,0
13:24:02.423,42260,37.84,40.94,-43.47,0.0,83.00,97.00,0,0
13:24:02.537,42374,37.37,37.15,-44.25,0.0,83.00,97.00,1,0
13:24:02.647,42484,38.18,31.23,-43.67,0.0,83.00,97.00,0,0
13:24:02.747,42584,39.93,24.70,-41.69,0.0,83.00,97.00,0,1
13:24:02.863,42700,41.20,15.82,-40.38,0.0,83.00,97.00,0,1
13:24:02.963,42800,43.77,5.41,-40.25,0.0,83.00,97.00,0,1
13:24:03.078,42915,42.06,1.09,-41.45,0.0,83.00,97.00,0,1
13:24:03.177,43014,40.82,-2.48,-41.00,0.0,83.00,97.00,0,0
13:24:03.283,43120,38.01,-5.13,-41.18,0.0,83.00,97.00,0,1
13:24:03.388,43225,36.14,-6.96,-41.47,0.0,83.00,97.00,0,0
13:24:03.488,43325,35.34,-8.30,-42.06,0.0,83.00,97.00,0,1
13:24:03.588,43425,34.23,-6.34,-42.21,0.0,83.00,97.00,0,0
13:24:03.688,43525,30.56,-2.09,-36.85,0.0,83.00,97.00,0,0
13:24:03.803,43640,26.38,0.48,-34.31,0.0,83.00,97.00,0,0
13:24:03.903,43740,28.94,3.11,-36.70,0.0,83.00,97.00,0,1
13:24:04.003,43840,32.89,4.00,-43.99,0.0,83.00,97.00,0,0
13:24:04.108,43945,34.41,6.78,-51.95,0.0,83.00,97.00,1,0
13:24:04.213,44050,36.72,3.84,-52.77,0.0,83.00,97.00,0,0
13:24:04.313,44150,40.52,3.05,-43.48,0.0,83.00,97.00,0,0
13:24:04.423,44261,42.83,5.72,-37.74,0.0,83.00,97.00,0,0
13:24:04.528,44365,36.34,11.73,-47.16,0.0,83.00,97.00,0,0
13:24:04.638,44475,40.14,6.60,-42.67,0.0,83.00,97.00,0,0
13:24:04.748,44586,44.84,7.21,-35.14,0.0,83.00,97.00,0,1
13:24:04.849,44686,41.07,16.30,-41.52,0.0,83.00,97.00,0,0
13:24:04.953,44790,38.74,27.37,-47.89,0.0,83.00,97.00,0,1
13:24:05.064,44901,35.07,35.58,-58.42,0.0,83.00,97.00,0,0
13:24:05.179,45016,20.91,24.67,-77.05,0.0,83.00,97.00,0,0
13:24:05.279,45116,13.93,4.36,-82.55,0.0,83.00,97.00,0,0
13:24:05.493,45330,19.98,-12.65,-54.70,0.0,83.00,97.00,0,0
13:24:05.593,45430,30.00,-7.40,-39.07,0.0,83.00,97.00,0,0
13:24:05.705,45542,40.54,-1.81,-27.47,0.0,83.00,97.00,0,0
13:24:05.819,45656,48.70,9.86,-27.12,0.0,83.00,97.00,0,1
13:24:05.919,45756,49.82,22.09,-39.63,0.0,83.00,97.00,0,0
13:24:06.035,45872,40.96,22.35,-62.73,0.0,83.00,97.00,0,1
13:24:06.134,45971,30.46,9.49,-76.48,0.0,83.00,97.00,0,0
13:24:06.249,46086,23.43,-6.33,-75.58,0.0,83.00,97.00,0,0
13:24:06.360,46197,21.44,-10.23,-61.14,0.0,83.00,97.00,0,0
13:24:06.459,46296,28.39,-4.45,-43.23,0.0,83.00,97.00,0,0
13:24:06.575,46412,40.95,3.35,-25.80,0.0,83.00,97.00,0,0
13:24:06.690,46527,49.79,23.45,-25.62,0.0,83.00,97.00,0,0
13:24:06.805,46642,53.96,42.86,-34.39,0.0,83.00,97.00,0,0
13:24:06.914,46751,63.98,51.90,-29.16,0.0,83.00,97.00,0,0
13:24:07.020,46857,78.17,61.62,-11.99,0.0,83.00,97.00,0,0
13:24:07.135,46972,91.21,67.35,-4.30,0.0,83.00,97.00,0,0
13:24:07.246,47083,85.19,69.02,-8.73,0.0,83.00,97.00,0,0
13:24:07.355,47192,80.77,69.98,-17.37,0.0,83.00,97.00,0,1
13:24:07.470,47307,79.56,71.18,-23.17,0.0,83.00,97.00,1,0
13:24:07.586,47423,80.02,71.91,-30.74,0.0,83.00,97.00,0,0
13:24:07.695,47533,88.38,71.84,-30.98,0.0,83.00,97.00,0,0
13:24:07.800,47637,88.08,71.84,-30.98,0.0,83.00,97.00,0,0
13:24:07.911,47748,85.22,71.84,-31.08,0.0,83.00,97.00,0,0
13:24:08.026,47863,86.25,71.84,-31.02,0.0,83.00,97.00,0,0
13:24:08.126,47963,86.03,71.84,-31.04,0.0,83.00,97.00,0,0
13:24:08.226,48063,84.99,71.85,-31.11,0.0,83.00,97.00,0,0
13:24:08.340,48177,85.53,71.86,-31.06,0.0,83.00,97.00,1,0
13:24:08.441,48278,85.23,71.85,-31.08,0.0,83.00,97.00,0,0
13:24:08.540,48378,85.23,71.86,-31.09,0.0,83.00,97.00,0,0
13:24:08.651,48488,85.38,71.87,-31.05,0.0,83.00,97.00,0,0
13:24:08.757,48594,85.30,71.87,-31.03,0.0,83.00,97.00,0,0
13:24:08.866,48703,85.36,71.87,-31.03,0.0,83.00,97.00,1,0
13:24:08.966,48803,85.27,71.86,-31.06,0.0,83.00,97.00,0,0
13:24:09.081,48918,85.30,71.86,-31.08,0.0,83.00,97.00,0,0
13:24:09.191,49028,85.26,71.87,-31.08,0.0,83.00,97.00,0,1
13:24:09.307,49144,85.28,71.86,-31.08,0.0,83.00,97.00,0,0
13:24:09.407,49244,85.25,71.86,-31.09,0.0,83.00,97.00,0,0
13:24:09.507,49344,85.27,71.86,-31.09,0.0,83.00,97.00,0,0
13:24:09.612,49449,85.30,71.86,-31.07,0.0,83.00,97.00,0,0
13:24:09.727,49564,85.27,71.86,-31.10,0.0,83.00,97.00,0,0
13:24:09.837,49674,85.23,71.87,-31.13,0.0,83.00,97.00,0,0
13:24:09.953,49790,85.21,71.87,-31.17,0.0,83.00,97.00,0,0
13:24:10.053,49890,85.17,71.87,-31.20,0.0,83.00,97.00,0,1
13:24:10.158,49995,85.17,71.88,-31.20,0.0,83.00,97.00,0,0
13:24:10.257,50094,85.16,71.88,-31.21,0.0,83.00,97.00,0,0
13:24:10.358,50195,85.15,71.88,-31.22,0.0,83.00,97.00,0,1
13:24:10.463,50300,85.15,71.89,-31.21,0.0,83.00,97.00,0,0
13:24:10.568,50405,85.11,71.89,-31.25,0.0,83.00,97.00,0,0
13:24:10.668,50505,85.04,71.90,-31.30,0.0,83.00,97.00,0,0
13:24:10.768,50605,85.02,71.90,-31.33,0.0,83.00,97.00,0,0
13:24:10.883,50720,85.01,71.91,-31.33,0.0,83.00,97.00,0,1
13:24:10.983,50820,85.00,71.90,-31.32,0.0,83.00,97.00,0,0
13:24:11.093,50930,85.01,71.90,-31.32,0.0,83.00,97.00,0,0
13:24:11.193,51030,85.00,71.90,-31.35,0.0,83.00,97.00,0,0
13:24:11.298,51135,84.98,71.90,-31.36,0.0,83.00,97.00,0,0
13:24:11.398,51235,84.99,71.89,-31.34,0.0,83.00,97.00,0,0
13:24:11.498,51335,85.01,71.89,-31.33,0.0,83.00,97.00,0,0
13:24:11.599,51436,84.97,71.89,-31.34,0.0,83.00,97.00,0,0
13:24:11.714,51551,84.94,71.89,-31.36,0.0,83.00,97.00,1,0
13:24:11.814,51651,84.96,71.88,-31.36,0.0,83.00,97.00,1,0
13:24:11.919,51756,84.90,71.89,-31.40,0.0,83.00,97.00,0,0
13:24:12.019,51856,84.88,71.89,-31.42,0.0,83.00,97.00,0,0
13:24:12.120,51957,84.89,71.88,-31.43,0.0,83.00,97.00,0,0
13:24:12.220,52057,84.88,71.88,-31.43,0.0,83.00,97.00,0,0
13:24:12.335,52172,84.86,71.88,-31.43,0.0,83.00,97.00,0,0
13:24:12.445,52282,84.87,71.88,-31.42,0.0,83.00,97.00,0,0
13:24:12.545,52382,84.87,71.87,-31.43,0.0,83.00,97.00,1,0
13:24:12.651,52488,84.86,71.87,-31.42,0.0,83.00,97.00,0,0
13:24:12.751,52588,84.86,71.87,-31.40,0.0,83.00,97.00,0,0
13:24:12.850,52687,84.85,71.87,-31.41,0.0,83.00,97.00,0,0
13:24:12.965,52802,84.85,71.87,-31.41,0.0,83.00,97.00,0,0
13:24:13.076,52913,84.85,71.86,-31.41,0.0,83.00,97.00,0,0
13:24:13.175,53012,84.87,71.86,-31.38,0.0,83.00,97.00,0,0
13:24:13.290,53127,84.87,71.86,-31.37,0.0,83.00,97.00,0,0
13:24:13.400,53237,84.87,71.86,-31.37,0.0,83.00,97.00,0,0
13:24:13.505,53342,84.87,71.86,-31.37,0.0,83.00,97.00,0,0
13:24:13.606,53443,84.87,71.86,-31.37,0.0,83.00,97.00,0,0
13:24:13.706,53543,84.87,71.86,-31.37,0.0,83.00,97.00,0,1
13:24:13.821,53658,84.87,71.86,-31.37,0.0,83.00,97.00,0,0
13:24:13.920,53757,84.87,71.86,-31.37,0.0,83.00,97.00,0,0
13:24:14.036,53873,84.87,71.86,-31.37,0.0,83.00,97.00,1,0
13:24:14.135,53972,84.87,71.86,-31.37,0.0,83.00,97.00,0,0
13:24:14.251,54088,84.87,71.86,-31.37,0.0,83.00,97.00,0,1
13:24:14.351,54188,84.87,71.86,-31.37,0.0,83.00,97.00,0,1
13:24:14.467,54304,84.87,71.86,-31.37,0.0,83.00,97.00,0,0
13:24:14.577,54414,84.87,71.86,-31.37,0.0,83.00,97.00,0,0
13:24:14.691,54528,84.87,71.86,-31.37,0.0,83.00,97.00,0,1
13:24:14.806,54643,84.87,71.86,-31.37,0.0,83.00,97.00,0,0
13:24:14.916,54753,84.87,71.86,-31.37,0.0,83.00,97.00,0,0
13:24:15.021,54858,84.87,71.86,-31.37,0.0,83.00,97.00,0,1
13:24:15.122,54959,84.87,71.86,-31.37,0.0,83.00,97.00,0,0
13:24:15.227,55064,84.87,71.86,-31.37,0.0,83.00,97.00,0,0
13:24:15.337,55174,84.87,71.86,-31.37,0.0,83.00,97.00,0,0
13:24:15.452,55289,84.87,71.86,-31.37,0.0,83.00,97.00,0,0
13:24:15.552,55389,84.87,71.86,-31.37,0.0,83.00,97.00,0,0
13:24:15.667,55504,84.87,71.86,-31.37,0.0,83.00,97.00,0,0
13:24:15.767,55604,84.87,71.86,-31.37,0.0,83.00,97.00,0,0
13:24:15.867,55704,84.87,71.86,-31.37,0.0,83.00,97.00,0,0
13:24:15.983,55820,84.87,71.86,-31.37,0.0,83.00,97.00,0,1
13:24:16.093,55930,84.87,71.86,-31.37,0.0,83.00,97.00,0,0
13:24:16.197,56034,84.87,71.86,-31.37,0.0,83.00,97.00,0,0
13:24:16.297,56134,84.87,71.86,-31.37,0.0,83.00,97.00,0,0
13:24:16.398,56235,84.87,71.86,-31.37,0.0,83.00,97.00,0,0
13:24:16.513,56350,84.87,71.86,-31.37,0.0,83.00,97.00,0,0
13:24:16.627,56464,84.87,71.86,-31.37,0.0,83.00,97.00,0,0
13:24:16.738,56575,84.87,71.86,-31.37,0.0,83.00,97.00,0,0
13:24:16.838,56675,84.87,71.86,-31.37,0.0,83.00,97.00,0,1
13:24:16.954,56792,84.87,71.86,-31.37,0.0,83.00,97.00,0,0
13:24:17.278,57115,84.87,71.86,-31.37,0.0,83.00,97.00,0,1
13:24:17.484,57321,84.87,71.86,-31.37,0.0,83.00,97.00,1,0
13:24:17.585,57422,84.87,71.86,-31.37,0.0,83.00,97.00,0,0
13:24:17.699,57536,84.87,71.86,-31.37,0.0,83.00,97.00,0,0
13:24:17.799,57636,84.87,71.86,-31.37,0.0,83.00,97.00,0,0
13:24:17.900,57737,84.87,71.86,-31.37,0.0,83.00,97.00,0,0
13:24:18.009,57847,84.88,71.86,-31.37,0.0,83.00,97.00,0,0
13:24:18.120,57957,84.86,71.86,-31.40,0.0,83.00,97.00,0,0
13:24:18.225,58062,84.84,71.86,-31.40,0.0,83.00,97.00,0,0
13:24:18.325,58162,84.87,71.85,-31.39,0.0,83.00,97.00,0,0
13:24:18.425,58262,84.87,71.85,-31.36,0.0,83.00,97.00,0,1
13:24:18.541,58378,84.86,71.85,-31.38,0.0,83.00,97.00,0,0
13:24:18.640,58477,84.84,71.85,-31.39,0.0,83.00,97.00,0,0
13:24:18.756,58593,84.82,71.84,-31.41,0.0,83.00,97.00,0,1
13:24:18.866,58703,84.85,71.84,-31.40,0.0,83.00,97.00,0,1
13:24:18.980,58817,84.83,71.84,-31.43,0.0,83.00,97.00,0,1
13:24:19.085,58922,84.79,71.84,-31.45,0.0,83.00,97.00,0,0
13:24:19.201,59038,84.80,71.83,-31.44,0.0,83.00,97.00,0,1
13:24:19.301,59138,84.80,71.83,-31.43,0.0,83.00,97.00,0,0
13:24:19.401,59238,84.83,71.84,-31.42,0.0,83.00,97.00,0,0
13:24:19.511,59348,84.82,71.83,-31.42,0.0,83.00,97.00,0,0
13:24:19.610,59447,84.82,71.83,-31.42,0.0,83.00,97.00,0,0
13:24:19.726,59563,84.81,71.83,-31.42,0.0,83.00,97.00,0,0
13:24:19.826,59663,84.81,71.83,-31.42,0.0,83.00,97.00,0,0
13:24:19.941,59778,84.77,71.83,-31.45,0.0,83.00,97.00,1,0
13:24:20.041,59878,84.78,71.82,-31.44,0.0,83.00,97.00,0,0
13:24:20.141,59978,84.77,71.82,-31.44,0.0,83.00,97.00,1,0
13:24:20.241,60078,84.74,71.82,-31.46,0.0,83.00,97.00,0,1
13:24:20.357,60194,84.70,71.84,-31.50,0.0,83.00,97.00,0,0
13:24:20.456,60293,84.70,71.83,-31.50,0.0,83.00,97.00,0,0
13:24:20.557,60394,84.70,71.83,-31.50,0.0,83.00,97.00,0,0
13:24:20.671,60508,84.71,71.83,-31.48,0.0,83.00,97.00,0,0
13:24:20.772,60609,84.72,71.83,-31.47,0.0,83.00,97.00,0,0
13:24:20.871,60708,84.72,71.84,-31.46,0.0,83.00,97.00,0,0
13:24:20.982,60819,84.72,71.84,-31.46,0.0,83.00,97.00,0,0
13:24:21.081,60918,84.72,71.84,-31.46,0.0,83.00,97.00,0,0
13:24:21.197,61034,84.72,71.84,-31.46,0.0,83.00,97.00,0,0
13:24:21.297,61134,84.72,71.84,-31.46,0.0,83.00,97.00,0,0
13:24:21.412,61249,84.72,71.84,-31.46,0.0,83.00,97.00,0,0
13:24:21.522,61359,84.72,71.84,-31.46,0.0,83.00,97.00,0,0
13:24:21.747,61584,84.72,71.84,-31.46,0.0,83.00,97.00,0,0
13:24:21.848,61685,84.72,71.84,-31.46,0.0,83.00,97.00,0,1
13:24:21.962,61799,84.72,71.84,-31.46,0.0,83.00,97.00,1,0
13:24:22.062,61899,84.72,71.84,-31.46,0.0,83.00,97.00,0,1
13:24:22.173,62010,84.72,71.84,-31.46,0.0,83.00,97.00,0,1
13:24:22.273,62110,84.72,71.84,-31.46,0.0,83.00,97.00,1,0
13:24:22.372,62209,84.72,71.84,-31.46,0.0,83.00,97.00,0,0
13:24:22.477,62314,84.72,71.84,-31.46,0.0,83.00,97.00,0,0
13:24:22.579,62416,84.72,71.84,-31.46,0.0,83.00,97.00,0,1
13:24:22.678,62515,84.72,71.84,-31.46,0.0,83.00,97.00,0,0
13:24:22.777,62614,84.72,71.84,-31.46,0.0,83.00,97.00,0,0
13:24:22.893,62730,84.72,71.84,-31.46,0.0,83.00,97.00,0,0
13:24:23.008,62845,84.72,71.84,-31.46,0.0,83.00,97.00,0,0
13:24:23.118,62955,84.72,71.84,-31.46,0.0,83.00,97.00,0,0
13:24:23.233,63070,84.72,71.84,-31.46,0.0,83.00,97.00,0,1
13:24:23.338,63175,84.72,71.84,-31.46,0.0,83.00,97.00,0,1
13:24:23.438,63275,84.72,71.84,-31.46,0.0,83.00,97.00,0,0
13:24:23.553,63390,84.72,71.84,-31.46,0.0,83.00,97.00,1,0
13:24:23.653,63490,84.72,71.84,-31.46,0.0,83.00,97.00,0,0
13:24:23.759,63596,84.72,71.84,-31.46,0.0,83.00,97.00,0,1
13:24:23.858,63695,84.72,71.84,-31.46,0.0,83.00,97.00,1,0
13:24:23.973,63810,84.72,71.84,-31.46,0.0,83.00,97.00,0,0
13:24:24.083,63920,84.72,71.84,-31.46,0.0,83.00,97.00,0,0
13:24:24.184,64021,84.72,71.84,-31.46,0.0,83.00,97.00,0,1
13:24:24.284,64121,84.72,71.84,-31.46,0.0,83.00,97.00,0,0
13:24:24.399,64236,84.72,71.84,-31.46,0.0,83.00,97.00,0,0
13:24:24.509,64346,84.72,71.84,-31.46,0.0,83.00,97.00,0,0
13:24:24.619,64456,84.72,71.84,-31.46,0.0,83.00,97.00,0,0
13:24:24.719,64556,84.72,71.84,-31.46,0.0,83.00,97.00,0,0
13:24:24.835,64672,84.72,71.84,-31.46,0.0,83.00,97.00,0,0
13:24:24.944,64781,84.72,71.84,-31.46,0.0,83.00,97.00,0,0
13:24:25.059,64896,84.72,71.84,-31.46,0.0,83.00,97.00,0,0
13:24:25.170,65007,84.72,71.84,-31.46,0.0,83.00,97.00,0,0
13:24:25.270,65107,84.72,71.84,-31.46,0.0,83.00,97.00,0,0
13:24:25.385,65222,84.72,71.84,-31.46,0.0,83.00,97.00,0,0
13:24:25.494,65331,84.72,71.84,-31.46,0.0,83.00,97.00,0,0
13:24:25.610,65447,84.72,71.84,-31.46,0.0,83.00,97.00,0,0
13:24:25.820,65657,84.72,71.84,-31.46,0.0,83.00,97.00,0,0
13:24:25.930,65767,84.72,71.84,-31.46,0.0,83.00,97.00,0,0
13:24:26.041,65878,84.72,71.84,-31.46,0.0,83.00,97.00,0,1
13:24:26.145,65982,84.72,71.84,-31.46,0.0,83.00,97.00,0,0
13:24:26.245,66082,84.72,71.84,-31.46,0.0,83.00,97.00,0,0
13:24:26.361,66198,84.72,71.84,-31.46,0.0,83.00,97.00,0,0
13:24:26.471,66308,84.72,71.84,-31.46,0.0,83.00,97.00,0,1
13:24:26.570,66407,84.72,71.84,-31.46,0.0,83.00,97.00,0,0
13:24:26.686,66523,84.72,71.84,-31.46,0.0,83.00,97.00,0,0
13:24:26.785,66622,84.72,71.84,-31.46,0.0,83.00,97.00,0,1
13:24:26.901,66738,84.72,71.84,-31.46,0.0,83.00,97.00,0,0
13:24:27.010,66848,84.72,71.84,-31.46,0.0,83.00,97.00,0,0
13:24:27.111,66948,84.72,71.84,-31.46,0.0,83.00,97.00,1,0
13:24:27.211,67048,84.72,71.84,-31.46,0.0,83.00,97.00,0,0
13:24:27.316,67153,84.72,71.84,-31.46,0.0,83.00,97.00,0,0
13:24:27.526,67363,84.72,71.84,-31.46,0.0,83.00,97.00,0,1
13:24:27.636,67473,84.72,71.84,-31.46,0.0,83.00,97.00,0,0
13:24:27.741,67578,84.72,71.84,-31.46,0.0,83.00,97.00,0,0
13:24:27.841,67678,84.72,71.84,-31.46,0.0,83.00,97.00,0,0
13:24:27.951,67788,84.72,71.84,-31.46,0.0,83.00,97.00,0,0
13:24:28.056,67893,84.72,71.84,-31.46,0.0,83.00,97.00,0,0
13:24:28.156,67993,84.72,71.84,-31.46,0.0,83.00,97.00,0,0
13:24:28.271,68108,84.72,71.84,-31.46,0.0,83.00,97.00,0,0
13:24:28.381,68218,84.72,71.84,-31.46,0.0,83.00,97.00,0,0
13:24:28.496,68333,84.72,71.84,-31.46,0.0,83.00,97.00,0,0
13:24:28.611,68448,84.72,71.84,-31.46,0.0,83.00,97.00,0,0
13:24:28.821,68658,84.72,71.84,-31.46,0.0,83.00,97.00,0,0
13:24:28.932,68769,84.72,71.84,-31.46,0.0,83.00,97.00,0,0
13:24:29.036,68873,84.72,71.84,-31.46,0.0,83.00,97.00,0,0
13:24:29.146,68983,84.72,71.84,-31.46,0.0,83.00,97.00,0,0
13:24:29.247,69084,84.72,71.84,-31.46,0.0,83.00,97.00,0,0
13:24:29.352,69189,84.72,71.84,-31.46,0.0,83.00,97.00,0,0
13:24:29.452,69289,84.72,71.84,-31.46,0.0,83.00,97.00,0,0
13:24:29.562,69399,84.72,71.84,-31.46,0.0,83.00,97.00,0,1
13:24:29.677,69514,84.72,71.84,-31.46,0.0,83.00,97.00,0,0
13:24:29.793,69630,84.72,71.84,-31.46,0.0,83.00,97.00,0,0
13:24:29.892,69729,84.72,71.84,-31.46,0.0,83.00,97.00,0,0
13:24:30.003,69840,84.72,71.84,-31.46,0.0,83.00,97.00,0,0
13:24:30.118,69955,84.72,71.84,-31.46,0.0,83.00,97.00,0,0
13:24:30.218,70055,84.72,71.84,-31.46,0.0,83.00,97.00,0,0
13:24:30.317,70154,84.72,71.84,-31.46,0.0,83.00,97.00,0,0
13:24:30.428,70265,84.72,71.84,-31.46,0.0,83.00,97.00,0,0
13:24:30.528,70365,84.72,71.84,-31.46,0.0,83.00,97.00,0,0
13:24:30.644,70481,84.72,71.84,-31.46,0.0,83.00,97.00,0,1
13:24:30.749,70586,84.72,71.84,-31.46,0.0,83.00,97.00,1,0
13:24:30.848,70685,84.72,71.84,-31.46,0.0,83.00,97.00,0,1
13:24:30.949,70786,84.72,71.84,-31.46,0.0,83.00,97.00,0,0
13:24:31.063,70900,84.72,71.84,-31.46,0.0,83.00,97.00,1,0
13:24:31.163,71000,84.72,71.84,-31.46,0.0,83.00,97.00,0,0
13:24:31.279,71116,84.72,71.84,-31.46,0.0,83.00,97.00,0,0
13:24:31.389,71226,84.72,71.84,-31.46,0.0,83.00,97.00,1,0
13:24:31.488,71325,84.72,71.84,-31.46,0.0,83.00,97.00,0,1
13:24:31.593,71430,84.72,71.84,-31.46,0.0,83.00,97.00,0,0
13:24:31.693,71530,84.72,71.84,-31.46,0.0,83.00,97.00,0,0
13:24:31.803,71640,84.72,71.84,-31.46,0.0,83.00,97.00,0,0
13:24:31.914,71751,84.72,71.84,-31.46,0.0,83.00,97.00,1,0
13:24:32.015,71852,84.72,71.84,-31.46,0.0,83.00,97.00,1,0
13:24:32.129,71966,84.72,71.84,-31.46,0.0,83.00,97.00,0,0
13:24:32.244,72081,84.72,71.84,-31.46,0.0,83.00,97.00,0,0
13:24:32.344,72181,84.72,71.84,-31.46,0.0,83.00,97.00,1,0
13:24:32.445,72282,84.72,71.84,-31.46,0.0,83.00,97.00,0,0
13:24:32.560,72397,84.72,71.84,-31.46,0.0,83.00,97.00,1,0
13:24:32.670,72507,84.72,71.84,-31.46,0.0,83.00,97.00,0,0
13:24:32.784,72621,84.72,71.84,-31.46,0.0,83.00,97.00,0,0
13:24:32.884,72721,84.72,71.84,-31.46,0.0,83.00,97.00,0,0
13:24:33.000,72837,84.72,71.84,-31.46,0.0,83.00,97.00,0,0
13:24:33.101,72938,84.72,71.83,-31.46,0.0,83.00,97.00,0,0
13:24:33.205,73042,84.79,71.83,-31.47,0.0,83.00,97.00,0,0
13:24:33.316,73153,84.69,71.82,-31.49,0.0,83.00,97.00,0,1
13:24:33.430,73267,84.64,71.82,-31.50,0.0,83.00,97.00,0,0
13:24:33.540,73377,84.66,71.82,-31.49,0.0,83.00,97.00,0,1
13:24:33.646,73483,84.68,71.82,-31.49,0.0,83.00,97.00,0,1
13:24:33.755,73592,84.64,71.81,-31.48,0.0,83.00,97.00,0,1
13:24:33.855,73692,84.65,71.81,-31.47,0.0,83.00,97.00,0,0
13:24:33.956,73793,84.67,71.82,-31.49,0.0,83.00,97.00,0,0
13:24:34.071,73908,84.65,71.81,-31.51,0.0,83.00,97.00,0,0
13:24:34.171,74008,84.64,71.81,-31.52,0.0,83.00,97.00,1,0
13:24:34.281,74118,84.64,71.80,-31.52,0.0,83.00,97.00,0,0
13:24:34.382,74219,84.67,71.80,-31.48,0.0,83.00,97.00,0,1
13:24:34.486,74323,84.64,71.81,-31.49,0.0,83.00,97.00,0,1
13:24:34.587,74424,84.64,71.80,-31.48,0.0,83.00,97.00,0,0
13:24:34.701,74538,84.63,71.80,-31.50,0.0,83.00,97.00,0,1
13:24:34.817,74654,84.62,71.80,-31.50,0.0,83.00,97.00,0,0
13:24:34.917,74754,84.61,71.80,-31.51,0.0,83.00,97.00,0,0
13:24:35.017,74854,84.61,71.80,-31.50,0.0,83.00,97.00,1,0
13:24:35.132,74969,84.62,71.80,-31.49,0.0,83.00,97.00,0,0
13:24:35.232,75069,84.63,71.81,-31.48,0.0,83.00,97.00,0,0
13:24:35.347,75184,84.55,71.82,-31.49,0.0,83.00,97.00,0,0
13:24:35.462,75299,84.65,71.82,-31.52,0.0,83.00,97.00,0,0
13:24:35.562,75399,84.44,71.82,-31.53,0.0,83.00,97.00,0,0
13:24:35.663,75500,84.50,71.83,-31.53,0.0,83.00,97.00,0,0
13:24:35.767,75604,84.44,71.83,-31.53,0.0,83.00,97.00,0,1
13:24:35.872,75709,84.48,71.83,-31.53,0.0,83.00,97.00,0,0
13:24:35.982,75819,84.46,71.83,-31.54,0.0,83.00,97.00,0,1
13:24:36.083,75920,84.48,71.83,-31.51,0.0,83.00,97.00,0,0
13:24:36.198,76035,84.51,71.85,-31.49,0.0,83.00,97.00,0,0
13:24:36.313,76150,84.50,71.85,-31.50,0.0,83.00,97.00,0,0
13:24:36.422,76259,84.54,71.86,-31.51,0.0,83.00,97.00,0,0
13:24:36.537,76374,84.51,71.86,-31.50,0.0,83.00,97.00,0,0
13:24:36.643,76480,84.52,71.87,-31.49,0.0,83.00,97.00,1,0
13:24:36.743,76580,84.50,71.87,-31.51,0.0,83.00,97.00,0,0
13:24:36.843,76680,84.51,71.86,-31.50,0.0,83.00,97.00,1,0
13:24:36.943,76780,84.54,71.86,-31.51,0.0,83.00,97.00,0,0
13:24:37.058,76895,84.51,71.86,-31.52,0.0,83.00,97.00,0,0
13:24:37.158,76995,84.55,71.86,-31.50,0.0,83.00,97.00,0,0
13:24:37.259,77096,84.51,71.86,-31.52,0.0,83.00,97.00,0,0
13:24:37.373,77210,84.52,71.87,-31.54,0.0,83.00,97.00,0,0
13:24:37.473,77310,84.52,71.88,-31.54,0.0,83.00,97.00,0,0
13:24:37.573,77410,84.52,71.88,-31.56,0.0,83.00,97.00,1,0
13:24:37.794,77631,84.52,71.88,-31.55,0.0,83.00,97.00,0,1
13:24:37.909,77746,84.52,71.90,-31.56,0.0,83.00,97.00,0,0
13:24:38.023,77860,84.50,71.90,-31.59,0.0,83.00,97.00,1,0
13:24:38.124,77961,84.45,71.90,-31.61,0.0,83.00,97.00,0,1
13:24:38.224,78061,84.48,71.90,-31.59,0.0,83.00,97.00,0,0
13:24:38.334,78171,84.54,71.91,-31.59,0.0,83.00,97.00,0,0
13:24:38.434,78271,84.50,71.91,-31.60,0.0,83.00,97.00,0,0
13:24:38.549,78386,84.50,71.91,-31.60,0.0,83.00,97.00,0,0
13:24:38.659,78496,84.50,71.91,-31.60,0.0,83.00,97.00,0,0
13:24:38.759,78596,84.50,71.91,-31.60,0.0,83.00,97.00,1,0
13:24:38.875,78712,84.50,71.91,-31.60,0.0,83.00,97.00,0,0
13:24:38.975,78812,84.50,71.91,-31.60,0.0,83.00,97.00,0,1
13:24:39.074,78911,84.50,71.91,-31.60,0.0,83.00,97.00,0,1
13:24:39.189,79026,84.50,71.91,-31.60,0.0,83.00,97.00,0,1
13:24:39.300,79137,84.50,71.91,-31.60,0.0,83.00,97.00,0,0
13:24:39.400,79237,84.50,71.91,-31.60,0.0,83.00,97.00,0,0
13:24:39.500,79337,84.49,71.90,-31.63,0.0,83.00,97.00,0,1
13:24:39.599,79436,86.70,71.88,-31.46,0.0,83.00,97.00,0,1
13:24:39.700,79537,77.06,71.31,-37.36,0.0,83.00,97.00,1,0
13:24:39.805,79642,70.49,65.25,-37.89,0.0,83.00,97.00,1,0
13:24:39.905,79742,73.53,56.82,-32.74,0.0,83.00,97.00,0,0
13:24:40.021,79858,77.14,47.58,-28.34,0.0,83.00,97.00,0,0
13:24:40.135,79972,78.58,38.54,-26.51,0.0,83.00,97.00,0,0
13:24:40.246,80083,79.80,30.34,-25.76,0.0,83.00,97.00,0,0
13:24:40.351,80188,81.60,26.41,-25.52,0.0,83.00,97.00,0,0
13:24:40.451,80288,80.89,21.86,-27.01,0.0,83.00,97.00,0,1
13:24:40.656,80493,73.37,13.43,-30.40,0.0,83.00,97.00,0,0
13:24:40.761,80598,71.91,9.66,-29.82,0.0,83.00,97.00,0,0
13:24:40.861,80698,71.81,6.70,-28.34,0.0,83.00,97.00,0,0
13:24:40.966,80803,72.24,5.31,-27.18,0.0,83.00,97.00,0,0
13:24:41.067,80904,72.32,5.77,-26.92,0.0,83.00,97.00,0,0
13:24:41.176,81013,72.80,4.86,-26.46,0.0,83.00,97.00,0,0
13:24:41.282,81119,74.06,2.54,-26.24,0.0,83.00,97.00,1,0
13:24:41.382,81219,75.62,0.25,-26.32,0.0,83.00,97.00,0,1
13:24:41.487,81324,76.27,-1.86,-26.64,0.0,83.00,97.00,0,0
13:24:41.597,81434,77.07,-3.94,-26.49,0.0,83.00,97.00,0,0
13:24:41.702,81539,76.89,-5.75,-26.25,0.0,83.00,97.00,0,0
13:24:41.816,81653,66.48,-6.37,-25.10,0.0,83.00,97.00,0,0
13:24:41.922,81759,54.21,-5.20,-22.51,0.0,83.00,97.00,0,0
13:24:42.027,81864,46.26,-4.83,-20.31,0.0,83.00,97.00,0,0
13:24:42.127,81964,42.64,-4.99,-23.81,0.0,83.00,97.00,0,0
13:24:42.232,82069,40.85,-4.36,-26.75,0.0,83.00,97.00,0,0
13:24:42.333,82170,38.42,-3.52,-27.72,0.0,83.00,97.00,0,0
13:24:42.438,82275,30.75,-3.34,-29.37,0.0,83.00,97.00,0,0
13:24:42.537,82374,20.89,-3.83,-31.00,0.0,83.00,97.00,0,0
13:24:42.642,82479,13.17,-4.28,-32.22,0.0,83.00,97.00,0,0
13:24:42.743,82580,5.52,-4.01,-33.75,0.0,83.00,97.00,0,0
13:24:42.843,82680,-1.14,-3.70,-35.01,0.0,83.00,97.00,0,0
13:24:42.947,82784,-5.13,-3.70,-35.76,0.0,83.00,97.00,0,0
13:24:43.053,82890,-6.62,-3.95,-36.26,0.0,83.00,97.00,1,0
13:24:43.167,83004,-5.84,-4.28,-35.93,0.0,83.00,97.00,0,0
13:24:43.268,83105,-5.73,-4.38,-35.78,0.0,83.00,97.00,0,0
13:24:43.373,83210,-0.02,-4.83,-34.83,0.0,83.00,97.00,0,1
13:24:43.473,83310,15.78,-7.64,-34.42,0.0,83.00,97.00,0,0
13:24:43.588,83425,34.44,-10.44,-34.82,0.0,83.00,97.00,0,0
13:24:43.703,83540,49.97,-9.95,-33.47,0.0,83.00,97.00,0,0
13:24:43.803,83640,60.41,-10.38,-32.99,0.0,83.00,97.00,0,0
13:24:43.913,83750,69.76,-12.51,-32.34,0.0,83.00,97.00,0,0
13:24:44.018,83855,74.62,-14.11,-31.02,0.0,83.00,97.00,0,1
13:24:44.118,83955,71.21,-13.93,-30.07,0.0,83.00,97.00,0,0
13:24:44.218,84055,56.96,-11.88,-30.74,0.0,83.00,97.00,0,0
13:24:44.323,84160,39.78,-9.33,-30.99,0.0,83.00,97.00,0,0
13:24:44.424,84261,27.45,-7.03,-30.45,0.0,83.00,97.00,0,0
13:24:44.539,84376,14.03,-7.59,-30.48,0.0,83.00,97.00,1,0
13:24:44.654,84491,1.90,-8.24,-31.16,0.0,83.00,97.00,0,0
13:24:44.753,84590,-2.83,-8.29,-30.90,0.0,83.00,97.00,0,0
13:24:44.859,84696,-4.89,-8.53,-30.86,0.0,83.00,97.00,0,1
13:24:44.964,84801,-5.89,-8.83,-31.39,0.0,83.00,97.00,0,0
13:24:45.069,84906,-5.83,-8.94,-31.09,0.0,83.00,97.00,0,0
13:24:45.170,85007,-3.64,-9.21,-30.77,0.0,83.00,97.00,1,0
13:24:45.274,85111,13.21,-10.64,-30.85,0.0,83.00,97.00,1,0
13:24:45.375,85212,27.96,-9.25,-30.38,0.0,83.00,97.00,0,0
13:24:45.474,85311,44.11,-9.90,-30.49,0.0,83.00,97.00,1,0
13:24:45.579,85416,58.55,-12.36,-30.47,0.0,83.00,97.00,0,0
13:24:45.689,85526,72.11,-13.37,-29.65,0.0,83.00,97.00,0,0
13:24:45.789,85626,80.69,-13.58,-28.23,0.0,83.00,97.00,1,0
13:24:45.895,85732,81.79,-13.18,-26.68,0.0,83.00,97.00,0,0
13:24:45.995,85832,72.02,-11.21,-26.29,0.0,83.00,97.00,0,1
13:24:46.100,85937,57.32,-7.99,-27.07,0.0,83.00,97.00,1,0
13:24:46.205,86042,40.39,-6.50,-28.29,0.0,83.00,97.00,0,0
13:24:46.304,86141,25.10,-7.17,-29.52,0.0,83.00,97.00,0,1
13:24:46.410,86247,13.94,-8.28,-29.77,0.0,83.00,97.00,0,1
13:24:46.510,86347,7.05,-8.68,-29.43,0.0,83.00,97.00,1,0
13:24:46.611,86448,5.14,-9.18,-29.71,0.0,83.00,97.00,0,0
13:24:46.715,86552,9.93,-9.58,-29.88,0.0,83.00,97.00,0,1
13:24:46.815,86652,26.91,-9.24,-29.62,0.0,83.00,97.00,1,0
13:24:46.925,86762,52.15,-10.04,-27.97,0.0,83.00,97.00,0,1
13:24:47.035,86872,69.23,-11.95,-27.73,0.0,83.00,97.00,0,0
13:24:47.141,86978,81.95,-12.46,-27.04,0.0,83.00,97.00,0,0
13:24:47.246,87083,84.80,-12.72,-26.76,0.0,83.00,97.00,0,0
13:24:47.346,87183,87.12,-13.09,-27.13,0.0,83.00,97.00,0,0
13:24:47.451,87288,81.27,-12.13,-26.73,0.0,83.00,97.00,0,0
13:24:47.556,87393,66.40,-8.96,-28.10,0.0,83.00,97.00,0,0
13:24:47.660,87497,47.81,-6.98,-29.59,0.0,83.00,97.00,1,0
13:24:47.761,87598,31.39,-6.74,-30.86,0.0,83.00,97.00,0,0
13:24:47.866,87703,18.45,-8.03,-30.50,0.0,83.00,97.00,0,0
13:24:47.966,87803,10.81,-8.41,-29.88,0.0,83.00,97.00,0,0
13:24:48.072,87909,7.00,-9.01,-30.07,0.0,83.00,97.00,0,1
13:24:48.181,88018,4.50,-9.64,-30.37,0.0,83.00,97.00,0,0
13:24:48.286,88123,2.95,-9.87,-30.36,0.0,83.00,97.00,0,1
13:24:48.392,88229,1.37,-9.40,-30.05,0.0,83.00,97.00,0,0
13:24:48.506,88343,0.49,-9.43,-30.21,0.0,83.00,97.00,0,0
13:24:48.606,88443,6.50,-9.97,-30.23,0.0,83.00,97.00,0,0
13:24:48.712,88549,25.23,-10.71,-31.94,0.0,83.00,97.00,0,1
13:24:48.811,88648,49.29,-6.93,-32.92,0.0,83.00,97.00,0,1
13:24:48.912,88749,64.97,-1.62,-33.51,0.0,83.00,97.00,0,0
13:24:49.012,88849,65.76,9.10,-34.66,0.0,83.00,97.00,0,1
13:24:49.116,88953,59.53,23.65,-43.21,0.0,83.00,97.00,0,0
13:24:49.222,89059,60.90,36.59,-48.23,0.0,83.00,97.00,0,1
13:24:49.332,89169,63.67,48.04,-52.36,0.0,83.00,97.00,0,1
13:24:49.447,89284,50.88,56.39,-63.39,0.0,83.00,97.00,0,0
13:24:49.547,89384,25.92,55.91,-85.09,0.0,83.00,97.00,0,1
13:24:49.652,89489,3.72,43.60,-106.24,0.0,83.00,97.00,0,0
13:24:49.757,89594,-0.74,25.47,-112.77,0.0,83.00,97.00,0,0
13:24:49.857,89694,0.65,16.90,-113.63,0.0,83.00,97.00,0,1
13:24:49.958,89795,-0.10,24.13,-111.56,0.0,83.00,97.00,0,0
13:24:50.067,89904,4.63,39.60,-104.84,0.0,83.00,97.00,0,1
13:24:50.178,90015,13.97,56.04,-95.20,0.0,83.00,97.00,0,0
13:24:50.283,90120,25.43,67.35,-84.04,0.0,83.00,97.00,0,0
13:24:50.383,90220,38.51,75.40,-71.15,0.0,83.00,97.00,0,1
13:24:50.482,90319,42.31,78.86,-67.57,0.0,83.00,97.00,0,0
13:24:50.597,90434,29.91,77.72,-81.48,0.0,83.00,97.00,0,0
13:24:50.708,90545,15.55,72.62,-96.88,0.0,83.00,97.00,0,0
13:24:50.817,90654,20.84,67.34,-88.85,0.0,83.00,97.00,0,0
13:24:50.923,90760,23.55,64.80,-83.02,0.0,83.00,97.00,0,0
13:24:51.033,90870,20.16,64.56,-84.45,0.0,83.00,97.00,0,0
13:24:51.138,90975,22.47,64.50,-80.96,0.0,83.00,97.00,0,0
13:24:51.249,91086,28.60,64.67,-78.20,0.0,83.00,97.00,0,0
13:24:51.358,91195,36.36,61.48,-73.74,0.0,83.00,97.00,0,0
13:24:51.459,91296,38.83,59.62,-74.96,0.0,83.00,97.00,0,0
13:24:51.564,91401,37.87,58.71,-77.87,0.0,83.00,97.00,0,0
13:24:51.669,91506,41.35,55.75,-75.89,0.0,83.00,97.00,1,0
13:24:51.780,91617,51.12,44.70,-66.36,0.0,83.00,97.00,0,0
13:24:51.894,91731,58.03,29.76,-55.69,0.0,83.00,97.00,0,0
13:24:51.994,91831,62.27,14.63,-43.90,0.0,83.00,97.00,0,0
13:24:52.094,91931,64.35,2.79,-35.18,0.0,83.00,97.00,0,0
13:24:52.195,92032,64.45,-4.90,-31.30,0.0,83.00,97.00,0,0
13:24:52.299,92136,63.90,-10.36,-29.01,0.0,83.00,97.00,0,1
13:24:52.404,92241,62.04,-12.59,-30.09,0.0,83.00,97.00,0,1
13:24:52.505,92342,65.70,-13.22,-31.65,0.0,83.00,97.00,0,0
13:24:52.610,92447,65.55,-13.19,-31.64,0.0,83.00,97.00,0,0
13:24:52.710,92547,65.57,-13.19,-31.63,0.0,83.00,97.00,0,1
13:24:52.815,92652,65.57,-13.18,-31.61,0.0,83.00,97.00,1,0
13:24:52.916,92753,65.57,-13.17,-31.62,0.0,83.00,97.00,0,0
13:24:53.015,92853,65.57,-13.16,-31.63,0.0,83.00,97.00,0,0
13:24:53.121,92958,65.57,-13.14,-31.63,0.0,83.00,97.00,0,0
13:24:53.235,93072,65.59,-13.12,-31.64,0.0,83.00,97.00,0,0
13:24:53.340,93177,65.60,-13.12,-31.66,0.0,83.00,97.00,0,0
13:24:53.441,93278,65.58,-13.12,-31.67,0.0,83.00,97.00,0,0
13:24:53.540,93377,65.58,-13.12,-31.68,0.0,83.00,97.00,1,0
13:24:53.646,93483,65.58,-13.11,-31.69,0.0,83.00,97.00,0,0
13:24:53.756,93593,65.60,-13.12,-31.70,0.0,83.00,97.00,0,0
13:24:53.856,93693,65.61,-13.12,-31.71,0.0,83.00,97.00,0,1
13:24:53.971,93808,65.62,-13.12,-31.73,0.0,83.00,97.00,0,0
13:24:54.076,93913,65.64,-13.12,-31.74,0.0,83.00,97.00,0,0
13:24:54.191,94028,65.63,-13.12,-31.73,0.0,83.00,97.00,0,0
13:24:54.291,94128,65.63,-13.12,-31.73,0.0,83.00,97.00,0,0
13:24:54.391,94228,65.64,-13.13,-31.73,0.0,83.00,97.00,0,0
13:24:54.501,94338,65.64,-13.13,-31.73,0.0,83.00,97.00,0,0
13:24:54.601,94438,65.63,-13.13,-31.74,0.0,83.00,97.00,1,0
13:24:54.702,94539,65.65,-13.13,-31.74,0.0,83.00,97.00,0,1
13:24:54.817,94654,65.65,-13.13,-31.74,0.0,83.00,97.00,0,1
13:24:54.917,94754,65.65,-13.13,-31.74,0.0,83.00,97.00,0,0
13:24:55.017,94854,65.65,-13.13,-31.74,0.0,83.00,97.00,0,0
13:24:55.117,94954,65.65,-13.13,-31.74,0.0,83.00,97.00,1,0
13:24:55.227,95064,65.65,-13.13,-31.74,0.0,83.00,97.00,0,0
13:24:55.327,95164,65.65,-13.13,-31.74,0.0,83.00,97.00,1,0
13:24:55.442,95279,65.65,-13.13,-31.74,0.0,83.00,97.00,0,0
13:24:55.542,95379,65.65,-13.13,-31.74,0.0,83.00,97.00,0,0
13:24:55.642,95479,65.65,-13.13,-31.74,0.0,83.00,97.00,0,0
13:24:55.742,95579,65.65,-13.13,-31.74,0.0,83.00,97.00,0,0
13:24:55.853,95690,65.65,-13.13,-31.74,0.0,83.00,97.00,1,0
13:24:55.958,95795,65.65,-13.13,-31.74,0.0,83.00,97.00,0,0
13:24:56.073,95910,65.65,-13.13,-31.74,0.0,83.00,97.00,0,0
13:24:56.187,96024,65.65,-13.13,-31.74,0.0,83.00,97.00,0,0
13:24:56.287,96124,65.65,-13.13,-31.74,0.0,83.00,97.00,0,0
13:24:56.403,96240,65.65,-13.13,-31.74,0.0,83.00,97.00,1,0
13:24:56.518,96355,65.65,-13.13,-31.74,0.0,83.00,97.00,0,0
13:24:56.618,96455,65.65,-13.13,-31.74,0.0,83.00,97.00,0,1
13:24:56.727,96564,65.65,-13.13,-31.74,0.0,83.00,97.00,0,0
13:24:56.828,96665,65.65,-13.13,-31.74,0.0,83.00,97.00,0,0
13:24:56.943,96780,65.65,-13.13,-31.74,0.0,83.00,97.00,0,0
13:24:57.058,96895,65.65,-13.13,-31.74,0.0,83.00,97.00,0,0
13:24:57.163,97000,65.65,-13.13,-31.74,0.0,83.00,97.00,0,0
13:24:57.278,97115,65.65,-13.13,-31.74,0.0,83.00,97.00,0,1
13:24:57.378,97215,65.65,-13.13,-31.74,0.0,83.00,97.00,0,0
13:24:57.489,97326,65.65,-13.13,-31.74,0.0,83.00,97.00,0,0
13:24:57.603,97440,65.65,-13.13,-31.74,0.0,83.00,97.00,0,0
13:24:57.703,97540,65.65,-13.13,-31.74,0.0,83.00,97.00,1,0
13:24:57.819,97656,65.64,-13.13,-31.74,0.0,83.00,97.00,0,0
13:24:57.929,97766,65.64,-13.14,-31.75,0.0,83.00,97.00,0,0
13:24:58.034,97871,65.65,-13.14,-31.75,0.0,83.00,97.00,0,0
13:24:58.134,97971,65.65,-13.13,-31.75,0.0,83.00,97.00,0,0
13:24:58.234,98071,65.65,-13.13,-31.76,0.0,83.00,97.00,0,0
13:24:58.349,98186,65.64,-13.12,-31.75,0.0,83.00,97.00,0,0
13:24:58.449,98286,65.65,-13.13,-31.74,0.0,83.00,97.00,0,0
13:24:58.549,98386,65.64,-13.13,-31.74,0.0,83.00,97.00,0,0
13:24:58.659,98496,65.64,-13.13,-31.74,0.0,83.00,97.00,0,0
13:25:14.360,114197,-3.92,-2.73,1.24,0.0,0.00,0.00,0,0
13:25:14.460,114297,-3.92,-2.73,1.24,0.0,80.00,92.50,0,0
13:25:14.575,114412,-3.92,-2.73,1.24,0.0,80.00,92.50,0,0
13:25:14.685,114522,-3.91,-2.74,1.23,0.0,80.00,92.50,0,0
13:25:14.795,114632,-3.91,-2.75,1.23,0.0,80.00,92.50,0,0
13:25:14.905,114742,-3.90,-2.75,1.23,0.0,80.00,92.50,0,0
13:25:15.005,114842,-3.90,-2.76,1.22,0.0,80.00,92.50,0,0
13:25:15.120,114957,-3.90,-2.76,1.22,0.0,80.00,92.50,0,0
13:25:15.231,115068,-3.90,-2.76,1.23,0.0,80.00,92.50,0,0
13:25:15.346,115183,-3.91,-2.77,1.23,0.0,80.00,92.50,0,0
13:25:15.456,115293,-3.92,-2.78,1.24,0.0,80.00,92.50,0,0
13:25:15.570,115407,-3.90,-2.78,1.24,0.0,80.00,92.50,0,0
13:25:15.671,115508,-3.90,-2.78,1.24,0.0,80.00,92.50,0,1
13:25:15.771,115608,-3.90,-2.78,1.25,0.0,80.00,92.50,0,0
13:25:15.880,115718,-3.90,-2.78,1.25,0.0,80.00,92.50,0,0
13:25:15.990,115827,-3.90,-2.78,1.25,0.0,80.00,92.50,0,0
13:25:16.101,115938,-3.90,-2.78,1.25,0.0,80.00,92.50,0,0
13:25:16.211,116048,-3.90,-2.78,1.25,0.0,80.00,92.50,0,0
13:25:16.321,116158,-3.90,-2.78,1.25,0.0,80.00,92.50,0,0
13:25:16.426,116263,-3.90,-2.78,1.25,0.0,80.00,92.50,0,0
13:25:16.541,116378,-3.90,-2.78,1.25,0.0,80.00,92.50,0,0
13:25:16.651,116488,-3.90,-2.78,1.25,0.0,80.00,92.50,0,0
13:25:16.761,116598,-3.90,-2.78,1.25,0.0,80.00,92.50,0,0
13:25:16.872,116709,-3.90,-2.78,1.25,0.0,80.00,92.50,1,0
13:25:16.986,116823,-3.90,-2.78,1.25,0.0,80.00,92.50,0,0
13:25:17.092,116929,-3.90,-2.78,1.25,0.0,80.00,92.50,0,0
13:25:17.202,117039,-3.90,-2.78,1.25,0.0,80.00,92.50,0,0
13:25:17.312,117149,-3.90,-2.78,1.25,0.0,80.00,92.50,0,0
13:25:17.427,117264,-3.90,-2.77,1.25,0.0,80.00,92.50,0,0
13:25:17.537,117374,-3.90,-2.52,1.55,0.0,80.00,92.50,1,0
13:25:17.648,117485,-3.65,-2.42,1.67,0.0,80.00,92.50,0,0
13:25:17.747,117584,-15.86,-1.69,1.57,0.0,80.00,92.50,0,1
13:25:17.847,117684,-39.54,2.54,-3.15,0.0,80.00,92.50,0,0
13:25:17.948,117785,-64.72,1.48,-6.77,0.0,80.00,92.50,0,0
13:25:18.052,117889,-81.77,-3.45,-7.34,0.0,80.00,92.50,0,0
13:25:18.158,117995,-81.01,-6.29,-4.79,0.0,80.00,92.50,0,0
13:25:18.258,118095,-58.86,-3.77,-3.77,0.0,80.00,92.50,0,0
13:25:18.362,118199,-28.37,-1.84,-1.20,0.0,80.00,92.50,0,0
13:25:18.472,118309,-0.20,-0.96,3.58,0.0,80.00,92.50,0,0
13:25:18.577,118414,19.25,-1.61,8.51,0.0,80.00,92.50,0,0
13:25:18.693,118530,34.98,-3.88,9.63,0.0,80.00,92.50,0,1
13:25:18.793,118630,42.41,-3.48,9.86,0.0,80.00,92.50,0,0
13:25:18.903,118740,46.23,-1.61,11.58,0.0,80.00,92.50,0,0
13:25:19.017,118854,23.84,-0.94,10.49,0.0,80.00,92.50,0,0
13:25:19.123,118960,1.98,0.71,8.83,0.0,80.00,92.50,0,1
13:25:19.238,119075,-23.39,1.46,7.91,0.0,80.00,92.50,0,0
13:25:19.353,119190,-47.78,-0.89,2.95,0.0,80.00,92.50,0,0
13:25:19.453,119290,-68.56,-3.86,1.80,0.0,80.00,92.50,0,0
13:25:19.558,119395,-79.02,-5.25,2.91,0.0,80.00,92.50,0,0
13:25:19.673,119510,-76.02,-3.86,3.98,0.0,80.00,92.50,0,0
13:25:19.778,119615,-55.13,-4.28,4.15,0.0,80.00,92.50,0,0
13:25:19.888,119725,-22.97,-3.62,4.49,0.0,80.00,92.50,0,0
13:25:19.998,119835,8.89,-0.76,7.67,0.0,80.00,92.50,1,0
13:25:20.108,119945,30.10,-0.21,8.98,0.0,80.00,92.50,0,0
13:25:20.218,120055,42.82,-1.33,8.54,0.0,80.00,92.50,0,0
13:25:20.334,120171,47.67,-2.49,10.46,0.0,80.00,92.50,0,0
13:25:20.438,120275,33.46,-1.50,9.72,0.0,80.00,92.50,0,0
13:25:20.544,120381,4.67,0.75,6.81,0.0,80.00,92.50,0,0
13:25:20.644,120481,-22.11,0.64,5.06,0.0,80.00,92.50,0,0
13:25:20.743,120580,-42.29,-0.31,4.07,0.0,80.00,92.50,0,0
13:25:20.848,120685,-48.79,-1.74,3.81,0.0,80.00,92.50,0,0
13:25:20.949,120786,-46.11,-2.49,3.38,0.0,80.00,92.50,0,1
13:25:21.064,120901,-38.38,-0.47,4.13,0.0,80.00,92.50,0,0
13:25:21.179,121016,-26.62,2.18,17.71,0.0,80.00,92.50,0,0
13:25:21.289,121126,-19.68,2.28,32.07,0.0,80.00,92.50,0,0
13:25:21.389,121226,-17.26,1.85,34.03,0.0,80.00,92.50,0,0
13:25:21.499,121336,-17.47,0.89,21.79,0.0,80.00,92.50,0,0
13:25:21.609,121446,-15.46,-1.63,3.32,0.0,80.00,92.50,0,0
13:25:21.715,121552,-14.17,-4.39,-10.28,0.0,80.00,92.50,0,0
13:25:21.814,121651,-13.24,-5.54,-10.20,0.0,80.00,92.50,0,0
13:25:21.915,121752,-10.30,-4.95,-4.16,0.0,80.00,92.50,0,0
13:25:22.014,121851,-7.92,-5.24,0.65,0.0,80.00,92.50,0,0
13:25:22.115,121952,-8.74,-5.52,3.28,0.0,80.00,92.50,0,0
13:25:22.231,122068,-10.55,-5.30,3.67,0.0,80.00,92.50,0,0
13:25:22.340,122177,-10.40,-4.74,4.04,0.0,80.00,92.50,0,0
13:25:22.450,122287,-8.19,-2.41,5.29,0.0,80.00,92.50,0,0
13:25:22.561,122398,-6.26,-1.91,3.82,0.0,80.00,92.50,1,0
13:25:22.675,122512,-6.39,-2.04,0.79,0.0,80.00,92.50,0,0
13:25:22.776,122613,-7.47,-1.94,0.86,0.0,80.00,92.50,0,0
13:25:22.891,122728,-10.48,-1.88,0.88,0.0,80.00,92.50,0,0
13:25:23.001,122838,-11.23,-1.93,0.86,0.0,80.00,92.50,0,1
13:25:23.116,122953,-11.52,-1.92,0.85,0.0,80.00,92.50,0,0
13:25:23.216,123053,-11.68,-1.91,0.84,0.0,80.00,92.50,0,0
13:25:23.315,123152,-11.82,-1.91,0.84,0.0,80.00,92.50,0,0
13:25:23.421,123258,-12.02,-1.91,0.84,0.0,80.00,92.50,0,1
13:25:23.530,123368,-12.33,-1.93,0.83,0.0,80.00,92.50,0,0
13:25:23.631,123468,-12.73,-1.94,0.83,0.0,80.00,92.50,0,0
13:25:23.736,123573,-12.91,-1.94,0.83,0.0,80.00,92.50,0,1
13:25:23.837,123674,-13.26,-1.96,0.81,0.0,80.00,92.50,0,0
13:25:23.937,123774,-13.90,-1.98,0.81,0.0,80.00,92.50,0,0
13:25:24.037,123874,-14.66,-1.99,0.79,0.0,80.00,92.50,0,1
13:25:24.141,123978,-15.38,-1.97,0.80,0.0,80.00,92.50,0,0
13:25:24.252,124089,-16.67,-1.93,0.79,0.0,80.00,92.50,0,0
13:25:24.357,124194,-18.00,-1.84,0.80,0.0,80.00,92.50,0,0
13:25:24.457,124294,-19.72,-1.84,0.81,0.0,80.00,92.50,1,0
13:25:24.557,124394,-22.66,-1.88,0.79,0.0,80.00,92.50,0,0
13:25:24.672,124509,-26.99,-1.90,0.76,0.0,80.00,92.50,0,0
13:25:24.772,124609,-30.43,-1.95,0.73,0.0,80.00,92.50,0,1
13:25:24.882,124719,-32.52,-1.99,0.73,0.0,80.00,92.50,0,0
13:25:24.987,124824,-33.70,-2.02,0.70,0.0,80.00,92.50,0,0
13:25:25.102,124939,-34.89,-1.96,0.68,0.0,80.00,92.50,0,0
13:25:25.203,125040,-35.65,-1.95,0.67,0.0,80.00,92.50,0,0
13:25:25.308,125145,-36.73,-1.97,0.66,0.0,80.00,92.50,0,0
13:25:25.407,125244,-37.61,-1.99,0.64,0.0,80.00,92.50,0,0
13:25:25.507,125344,-38.13,-2.00,0.64,0.0,80.00,92.50,0,0
13:25:25.608,125445,-38.81,-2.03,0.65,0.0,80.00,92.50,0,0
13:25:25.723,125560,-39.29,-2.07,0.64,0.0,80.00,92.50,0,0
13:25:25.828,125665,-40.15,-2.09,0.63,0.0,80.00,92.50,0,0
13:25:25.943,125780,-40.65,-2.11,0.63,0.0,80.00,92.50,0,0
13:25:26.044,125881,-41.47,-2.15,0.62,0.0,80.00,92.50,0,0
13:25:26.143,125980,-42.05,-2.23,0.65,0.0,80.00,92.50,0,0
13:25:26.249,126086,-42.42,-2.15,0.66,0.0,80.00,92.50,0,0
13:25:26.363,126200,-42.97,-2.21,0.66,0.0,80.00,92.50,0,0
13:25:26.464,126301,-43.31,-2.23,0.67,0.0,80.00,92.50,0,0
13:25:26.563,126400,-43.54,-2.21,0.67,0.0,80.00,92.50,0,0
13:25:26.669,126506,-43.60,-2.21,0.66,0.0,80.00,92.50,0,0
13:25:26.768,126605,-43.62,-2.21,0.66,0.0,80.00,92.50,0,0
13:25:26.868,126705,-44.04,-2.26,0.66,0.0,80.00,92.50,1,0
13:25:26.983,126820,-44.19,-2.26,0.66,0.0,80.00,92.50,0,0
13:25:27.099,126936,-44.59,-2.24,0.66,0.0,80.00,92.50,0,0
13:25:27.209,127046,-44.73,-2.22,0.66,0.0,80.00,92.50,0,0
13:25:27.308,127145,-44.85,-2.24,0.65,0.0,80.00,92.50,0,0
13:25:27.424,127261,-44.88,-2.23,0.65,0.0,80.00,92.50,0,0
13:25:27.524,127361,-44.90,-2.22,0.64,0.0,80.00,92.50,0,0
13:25:27.625,127462,-45.19,-2.22,0.64,0.0,80.00,92.50,0,0
13:25:27.739,127576,-45.26,-2.21,0.65,0.0,80.00,92.50,1,0
13:25:27.854,127691,-45.27,-2.20,0.65,0.0,80.00,92.50,0,0
13:25:27.955,127792,-45.28,-2.20,0.64,0.0,80.00,92.50,0,0
13:25:28.065,127902,-45.34,-2.19,0.64,0.0,80.00,92.50,0,0
13:25:28.175,128012,-45.43,-2.20,0.65,0.0,80.00,92.50,1,0
13:25:28.280,128117,-45.48,-2.19,0.65,0.0,80.00,92.50,1,0
13:25:28.380,128217,-45.59,-2.31,0.64,0.0,80.00,92.50,0,0
13:25:28.480,128317,-45.62,-2.31,0.64,0.0,80.00,92.50,0,0
13:25:28.585,128422,-45.63,-2.32,0.65,0.0,80.00,92.50,0,0
13:25:28.700,128537,-45.64,-2.31,0.64,0.0,80.00,92.50,0,0
13:25:28.811,128648,-45.63,-2.30,0.64,0.0,80.00,92.50,0,0
13:25:28.916,128753,-45.63,-2.29,0.65,0.0,80.00,92.50,0,0
13:25:29.025,128862,-45.64,-2.30,0.64,0.0,80.00,92.50,0,0
13:25:29.141,128978,-45.64,-2.30,0.64,0.0,80.00,92.50,0,0
13:25:29.256,129093,-45.64,-2.27,0.65,0.0,80.00,92.50,0,0
13:25:29.356,129193,-45.64,-2.27,0.64,0.0,80.00,92.50,0,1
13:25:29.456,129293,-45.64,-2.29,0.66,0.0,80.00,92.50,0,0
13:25:29.556,129393,-45.74,-2.28,0.66,0.0,80.00,92.50,1,0
13:25:29.661,129498,-45.74,-2.27,0.67,0.0,80.00,92.50,0,0
13:25:29.761,129598,-45.78,-2.26,0.67,0.0,80.00,92.50,0,0
13:25:29.866,129703,-45.91,-2.23,0.66,0.0,80.00,92.50,0,0
13:25:29.967,129804,-45.97,-2.25,0.63,0.0,80.00,92.50,0,0
13:25:30.067,129904,-46.06,-2.24,0.63,0.0,80.00,92.50,0,1
13:25:30.166,130003,-46.13,-2.22,0.60,0.0,80.00,92.50,0,0
13:25:30.282,130119,-46.13,-2.20,0.61,0.0,80.00,92.50,0,0
13:25:30.381,130218,-46.12,-2.20,0.61,0.0,80.00,92.50,0,0
13:25:30.497,130334,-46.12,-2.19,0.61,0.0,80.00,92.50,0,0
13:25:30.597,130434,-46.13,-2.19,0.61,0.0,80.00,92.50,0,0
13:25:30.697,130534,-46.13,-2.20,0.62,0.0,80.00,92.50,0,0
13:25:30.796,130633,-46.13,-2.21,0.62,0.0,80.00,92.50,0,0
13:25:30.897,130734,-46.12,-2.21,0.62,0.0,80.00,92.50,0,0
13:25:31.002,130839,-46.10,-2.22,0.63,0.0,80.00,92.50,0,1
13:25:31.102,130939,-46.10,-2.22,0.63,0.0,80.00,92.50,0,0
13:25:31.212,131049,-46.09,-2.22,0.63,0.0,80.00,92.50,0,1
13:25:31.327,131164,-46.09,-2.21,0.61,0.0,80.00,92.50,0,1
13:25:31.427,131264,-46.08,-2.21,0.59,0.0,80.00,92.50,0,0
13:25:31.532,131369,-46.08,-2.21,0.58,0.0,80.00,92.50,0,0
13:25:31.632,131469,-46.08,-2.21,0.58,0.0,80.00,92.50,0,0
13:25:31.733,131570,-46.08,-2.21,0.58,0.0,80.00,92.50,0,0
13:25:31.848,131685,-46.08,-2.21,0.58,0.0,80.00,92.50,0,0
13:25:31.962,131799,-46.08,-2.21,0.58,0.0,80.00,92.50,0,1
13:25:32.063,131900,-46.08,-2.21,0.58,0.0,80.00,92.50,0,0
13:25:32.173,132010,-46.08,-2.21,0.58,0.0,80.00,92.50,0,0
13:25:32.273,132110,-46.08,-2.21,0.58,0.0,80.00,92.50,0,0
13:25:32.388,132225,-46.08,-2.21,0.58,0.0,80.00,92.50,0,0
13:25:32.503,132340,-46.08,-2.21,0.58,0.0,80.00,92.50,0,0
13:25:32.613,132450,-46.08,-2.21,0.58,0.0,80.00,92.50,0,0
13:25:32.712,132549,-46.08,-2.21,0.58,0.0,80.00,92.50,1,0
13:25:32.828,132665,-46.08,-2.21,0.58,0.0,80.00,92.50,0,0
13:25:32.943,132780,-46.08,-2.21,0.58,0.0,80.00,92.50,0,0
13:25:33.058,132895,-46.08,-2.21,0.58,0.0,80.00,92.50,0,0
13:25:33.158,132995,-46.28,-2.21,0.58,0.0,80.00,92.50,0,0
13:25:33.263,133100,-46.35,-2.20,0.56,0.0,80.00,92.50,0,0
13:25:33.368,133205,-46.39,-2.25,0.60,0.0,80.00,92.50,0,0
13:25:33.468,133305,-46.42,-2.28,0.64,0.0,80.00,92.50,0,0
13:25:33.568,133405,-46.43,-2.29,0.65,0.0,80.00,92.50,0,0
13:25:33.669,133506,-46.43,-2.29,0.64,0.0,80.00,92.50,0,0
13:25:33.773,133610,-46.42,-2.28,0.63,0.0,80.00,92.50,0,1
13:25:33.884,133721,-46.42,-2.29,0.65,0.0,80.00,92.50,0,0
13:25:33.983,133820,-46.42,-2.30,0.65,0.0,80.00,92.50,0,0
13:25:34.099,133936,-46.42,-2.28,0.65,0.0,80.00,92.50,0,0
13:25:34.213,134050,-46.43,-2.26,0.65,0.0,80.00,92.50,0,0
13:25:34.323,134160,-46.42,-2.27,0.65,0.0,80.00,92.50,0,0
13:25:34.429,134266,-46.43,-2.27,0.63,0.0,80.00,92.50,1,0
13:25:34.529,134366,-46.44,-2.28,0.62,0.0,80.00,92.50,0,0
13:25:34.638,134475,-46.42,-2.28,0.63,0.0,80.00,92.50,0,0
13:25:34.738,134575,-46.43,-2.28,0.62,0.0,80.00,92.50,0,1
13:25:34.854,134691,-46.42,-2.28,0.62,0.0,80.00,92.50,0,0
13:25:34.969,134806,-46.45,-2.26,0.61,0.0,80.00,92.50,0,0
13:25:35.079,134916,-46.45,-2.27,0.61,0.0,80.00,92.50,0,0
13:26:12.583,172420,-0.16,0.04,-0.02,0.0,81.50,92.50,0,1
13:26:12.583,172420,-0.16,0.04,-0.02,0.0,81.50,92.50,0,0
13:26:12.583,172420,-0.17,0.03,-0.04,0.0,81.50,92.50,0,0
13:26:12.584,172421,-0.20,0.02,-9.24,0.0,81.50,92.50,0,0
13:26:12.692,172529,-0.22,0.09,-13.47,0.0,81.50,92.50,0,1
13:26:12.792,172629,-0.25,0.13,-16.75,0.0,81.50,92.50,1,0
13:26:12.908,172745,-0.26,0.10,-21.08,0.0,81.50,92.50,0,0
13:26:13.008,172845,-0.29,0.09,-23.37,0.0,81.50,92.50,0,0
13:26:13.108,172945,-0.32,0.10,-25.35,0.0,81.50,92.50,0,0
13:26:13.218,173055,-0.30,0.09,-25.58,0.0,81.50,92.50,0,0
13:26:13.328,173165,-0.30,0.09,-25.62,0.0,81.50,92.50,0,0
13:26:13.432,173269,-0.30,0.11,-25.62,0.0,81.50,92.50,0,1
13:26:13.533,173370,-0.31,0.06,-25.63,0.0,81.50,92.50,0,0
13:26:13.632,173469,-0.30,0.08,-25.63,0.0,81.50,92.50,0,0
13:26:13.748,173585,-0.30,0.09,-25.64,0.0,81.50,92.50,0,0
13:26:13.863,173700,-0.30,0.09,-25.63,0.0,81.50,92.50,0,0
13:26:13.963,173800,-0.30,0.09,-25.64,0.0,81.50,92.50,0,0
13:26:14.073,173910,-0.31,0.11,-25.66,0.0,81.50,92.50,0,0
13:26:14.183,174020,-0.30,0.10,-25.64,0.0,81.50,92.50,0,0
13:26:14.292,174129,-0.30,0.11,-25.64,0.0,81.50,92.50,0,0
13:26:14.404,174241,-0.31,0.09,-25.65,0.0,81.50,92.50,0,0
13:26:14.503,174340,-0.31,0.09,-25.65,0.0,81.50,92.50,0,1
13:26:14.619,174456,-0.32,0.09,-25.65,0.0,81.50,92.50,0,0
13:26:14.724,174561,-0.33,0.08,-25.67,0.0,81.50,92.50,0,0
13:26:14.829,174666,-0.34,0.05,-25.67,0.0,81.50,92.50,0,1
13:26:14.938,174775,-0.34,0.05,-25.65,0.0,81.50,92.50,0,0
13:26:15.053,174890,-0.34,0.05,-25.65,0.0,81.50,92.50,0,0
13:26:15.169,175006,-0.34,0.06,-25.65,0.0,81.50,92.50,0,1
13:26:15.279,175116,-0.34,0.06,-25.65,0.0,81.50,92.50,0,0
13:26:15.394,175231,-0.34,0.07,-25.65,0.0,81.50,92.50,0,0
13:26:15.504,175341,-0.34,0.06,-25.66,0.0,81.50,92.50,0,0
13:26:15.614,175451,-0.34,0.06,-25.64,0.0,81.50,92.50,0,1
13:26:15.714,175551,-0.34,0.06,-25.65,0.0,81.50,92.50,0,0
13:26:15.829,175666,-0.35,0.05,-25.64,0.0,81.50,92.50,0,0
13:26:15.939,175776,-0.35,0.05,-25.64,0.0,81.50,92.50,0,0
13:26:16.045,175882,-0.36,0.02,-25.64,0.0,81.50,92.50,0,0
13:26:16.150,175987,-0.37,0.00,-25.64,0.0,81.50,92.50,0,1
13:26:16.265,176102,-0.37,0.00,-25.64,0.0,81.50,92.50,0,0
13:26:16.370,176207,-0.37,0.00,-25.64,0.0,81.50,92.50,0,1
13:26:16.480,176317,-0.37,0.00,-25.64,0.0,81.50,92.50,0,0
13:26:16.585,176422,-0.40,-0.35,-25.65,0.0,81.50,92.50,0,0
13:26:16.685,176522,-0.23,-0.57,-36.50,0.0,81.50,92.50,0,0
13:26:16.785,176622,-1.32,-0.00,-62.23,0.0,81.50,92.50,0,0
13:26:16.900,176737,-2.70,-0.14,-85.23,0.0,81.50,92.50,0,0
13:26:17.015,176852,-4.24,-0.58,-107.10,0.0,81.50,92.50,0,0
13:26:17.125,176962,-5.16,-0.40,-115.73,0.0,81.50,92.50,0,0
13:26:17.230,177067,-3.74,-0.94,-104.90,0.0,81.50,92.50,0,0
13:26:17.330,177167,-2.63,-1.89,-79.38,0.0,81.50,92.50,0,0
13:26:17.436,177273,-1.90,-5.50,-53.65,0.0,81.50,92.50,0,0
13:26:17.536,177373,-2.64,-8.63,-36.14,0.0,81.50,92.50,0,0
13:26:17.635,177472,-1.87,-7.27,-25.72,0.0,81.50,92.50,0,0
13:26:17.736,177573,-0.42,-4.75,-17.40,0.0,81.50,92.50,0,0
13:26:17.836,177673,1.69,-4.99,-29.32,0.0,81.50,92.50,0,0
13:26:17.941,177778,0.50,-5.03,-52.05,0.0,81.50,92.50,0,1
13:26:18.051,177888,-0.39,-2.32,-58.02,0.0,81.50,92.50,0,0
13:26:18.256,178093,-0.01,-1.74,-55.31,0.0,81.50,92.50,0,0
13:26:18.361,178199,-4.29,0.25,-48.27,0.0,81.50,92.50,1,0
13:26:18.462,178299,-11.54,6.13,-42.68,0.0,81.50,92.50,1,0
13:26:18.562,178399,-16.84,11.65,-38.46,0.0,81.50,92.50,0,0
13:26:18.676,178514,-18.72,12.32,-37.88,0.0,81.50,92.50,0,0
13:26:18.781,178618,-16.66,9.01,-42.82,0.0,81.50,92.50,0,0
13:26:18.882,178719,-13.74,6.99,-46.33,0.0,81.50,92.50,0,0
13:26:18.982,178819,-10.68,5.87,-47.71,0.0,81.50,92.50,0,0
13:26:19.082,178919,-7.73,4.02,-50.54,0.0,81.50,92.50,0,1
13:26:19.187,179024,-5.40,1.59,-39.71,0.0,81.50,92.50,0,0
13:26:19.302,179139,-2.79,1.15,-24.96,0.0,81.50,92.50,0,0
13:26:19.402,179239,-1.98,-0.66,-24.87,0.0,81.50,92.50,0,0
13:26:19.507,179344,-3.39,-3.38,-32.44,0.0,81.50,92.50,0,1
13:26:19.612,179449,-4.02,-4.77,-45.26,0.0,81.50,92.50,0,0
13:26:19.723,179560,-2.16,-3.33,-55.55,0.0,81.50,92.50,0,0
13:26:19.822,179659,-0.13,-0.72,-65.12,0.0,81.50,92.50,0,1
13:26:19.922,179759,1.10,0.23,-80.65,0.0,81.50,92.50,0,0
13:26:20.028,179865,2.13,-1.01,-99.50,0.0,81.50,92.50,1,0
13:26:20.128,179965,3.48,-2.26,-116.68,0.0,81.50,92.50,0,0
13:26:20.233,180070,-3.71,-6.62,-122.10,0.0,81.50,92.50,0,0
13:26:20.333,180170,-12.75,-13.81,-126.25,0.0,81.50,92.50,0,1
13:26:20.443,180280,-17.99,-19.63,-125.07,0.0,81.50,92.50,0,0
13:26:20.549,180386,-18.94,-19.55,-123.57,0.0,81.50,92.50,0,0
13:26:20.654,180491,-10.67,-12.08,-125.08,0.0,81.50,92.50,0,0
13:26:20.858,180695,31.02,5.87,-122.32,0.0,81.50,92.50,0,1
13:26:20.964,180801,35.38,8.71,-121.88,0.0,81.50,92.50,0,0
13:26:21.179,181016,19.28,4.88,-123.06,0.0,81.50,92.50,0,0
13:26:21.293,181130,3.67,1.73,-117.88,0.0,81.50,92.50,0,0
13:26:21.394,181231,-6.90,-0.88,-112.42,0.0,81.50,92.50,0,0
13:26:21.498,181335,-5.83,-0.87,-108.33,0.0,81.50,92.50,0,0
13:26:21.599,181436,-0.98,1.88,-108.76,0.0,81.50,92.50,0,0
13:26:21.709,181546,3.73,7.29,-108.76,0.0,81.50,92.50,0,0
13:26:21.819,181656,5.71,18.38,-106.65,0.0,81.50,92.50,0,0
13:26:21.918,181755,5.36,28.92,-104.51,0.0,81.50,92.50,0,0
13:26:22.035,181872,2.45,25.14,-103.83,0.0,81.50,92.50,0,0
13:26:22.144,181981,-0.83,-3.15,-101.81,0.0,81.50,92.50,0,0
13:26:22.249,182086,-0.84,-26.51,-105.15,0.0,81.50,92.50,0,0
13:26:22.355,182192,1.99,-27.65,-106.64,0.0,81.50,92.50,0,0
13:26:22.459,182296,2.07,-12.69,-108.35,0.0,81.50,92.50,0,0
13:26:22.565,182402,3.69,8.37,-107.30,0.0,81.50,92.50,0,0
13:26:22.775,182612,5.36,18.34,-106.25,0.0,81.50,92.50,0,0
13:26:22.875,182712,3.50,6.30,-104.80,0.0,81.50,92.50,0,0
13:26:22.980,182817,1.63,-15.03,-103.83,0.0,81.50,92.50,1,0
13:26:23.086,182923,3.20,-24.88,-101.98,0.0,81.50,92.50,0,0
13:26:23.186,183023,3.51,-22.99,-99.64,0.0,81.50,92.50,0,0
13:26:23.290,183127,3.00,-13.28,-102.97,0.0,81.50,92.50,0,0
13:26:23.390,183227,3.29,3.74,-106.33,0.0,81.50,92.50,0,0
13:26:23.491,183328,4.20,14.20,-107.98,0.0,81.50,92.50,0,0
13:26:23.595,183432,4.88,10.41,-107.27,0.0,81.50,92.50,0,0
13:26:23.696,183533,5.39,5.19,-107.08,0.0,81.50,92.50,0,0
13:26:23.796,183633,6.36,5.24,-103.42,0.0,81.50,92.50,0,0
13:26:23.911,183748,6.95,3.63,-98.71,0.0,81.50,92.50,0,0
13:26:24.021,183858,7.02,2.50,-95.69,0.0,81.50,92.50,0,0
13:26:24.121,183958,7.19,1.97,-104.86,0.0,81.50,92.50,0,0
13:26:24.226,184063,7.54,-0.28,-124.62,0.0,81.50,92.50,0,0
13:26:24.327,184164,6.23,0.13,-142.54,0.0,81.50,92.50,0,0
13:26:24.441,184278,6.23,-1.35,-159.43,0.0,81.50,92.50,0,0
13:26:24.547,184384,7.82,-2.50,-171.10,0.0,81.50,92.50,0,0
13:26:24.651,184488,8.51,-2.23,-175.03,0.0,81.50,92.50,0,0
13:26:24.751,184588,8.27,-1.82,-176.04,0.0,81.50,92.50,0,0
13:26:24.851,184688,8.48,-1.81,-176.49,0.0,81.50,92.50,0,0
13:26:24.957,184794,8.35,-1.55,-177.66,0.0,81.50,92.50,0,0
13:26:25.066,184903,8.26,-1.45,-177.86,0.0,81.50,92.50,0,0
13:26:25.176,185013,7.97,-1.27,-177.23,0.0,81.50,92.50,0,1
13:26:25.287,185124,7.80,-1.08,-176.12,0.0,81.50,92.50,0,0
13:26:25.397,185234,7.82,-1.11,-175.44,0.0,81.50,92.50,0,0
13:26:25.502,185339,7.56,-0.87,-174.59,0.0,81.50,92.50,0,0
13:26:25.607,185444,7.13,-0.84,-173.64,0.0,81.50,92.50,0,0
13:26:25.722,185559,7.23,-1.06,-172.41,0.0,81.50,92.50,0,1
13:26:25.822,185659,7.38,-0.85,-171.95,0.0,81.50,92.50,0,0
13:26:25.922,185759,7.81,-1.25,-172.11,0.0,81.50,92.50,0,1
13:26:26.028,185865,7.91,-1.07,-171.80,0.0,81.50,92.50,0,0
13:26:26.128,185965,8.42,-1.64,-172.15,0.0,81.50,92.50,0,0
13:26:26.228,186065,8.35,-1.32,-171.80,0.0,81.50,92.50,0,0
13:26:26.333,186170,7.73,-0.84,-171.45,0.0,81.50,92.50,0,0
13:26:26.433,186270,8.24,-0.92,-171.24,0.0,81.50,92.50,0,0
13:26:26.537,186374,8.85,-1.12,-171.11,0.0,81.50,92.50,0,0
13:26:26.638,186475,8.70,-0.95,-170.93,0.0,81.50,92.50,0,0
13:26:26.743,186580,8.68,-0.97,-170.70,0.0,81.50,92.50,0,0
13:26:26.844,186681,8.55,-0.94,-170.67,0.0,81.50,92.50,0,0
13:26:26.948,186785,8.39,-0.98,-170.78,0.0,81.50,92.50,1,0
13:26:27.149,186986,8.35,-1.04,-170.88,0.0,81.50,92.50,0,0
13:26:27.250,187087,8.30,-1.02,-170.81,0.0,81.50,92.50,0,0
13:26:27.355,187192,8.18,-0.92,-170.62,0.0,81.50,92.50,0,0
13:26:27.454,187291,8.18,-0.83,-170.56,0.0,81.50,92.50,0,0
13:26:27.559,187396,8.16,-0.75,-170.41,0.0,81.50,92.50,0,0
13:26:27.660,187497,8.17,-0.63,-170.32,0.0,81.50,92.50,0,0
13:26:27.760,187597,7.90,-0.52,-170.24,0.0,81.50,92.50,0,0
13:26:27.865,187702,7.89,-0.34,-170.00,0.0,81.50,92.50,0,0
13:26:27.965,187802,7.84,-0.25,-169.85,0.0,81.50,92.50,0,0
13:26:28.070,187907,7.93,-0.24,-169.91,0.0,81.50,92.50,0,0
13:26:28.170,188007,7.90,-0.30,-169.92,0.0,81.50,92.50,0,0
13:26:28.280,188117,7.57,0.11,-169.66,0.0,81.50,92.50,0,0
13:26:28.385,188222,7.64,0.08,-169.40,0.0,81.50,92.50,1,0
13:26:28.486,188323,7.63,0.20,-169.08,0.0,81.50,92.50,0,0
13:26:28.586,188423,7.57,0.28,-169.08,0.0,81.50,92.50,0,1
13:26:28.700,188537,7.64,0.21,-169.05,0.0,81.50,92.50,0,0
13:26:28.800,188637,7.63,0.09,-168.85,0.0,81.50,92.50,0,1
13:26:28.916,188753,7.89,0.09,-167.42,0.0,81.50,92.50,0,0
13:26:29.025,188862,8.02,-0.01,-165.04,0.0,81.50,92.50,0,1
