Timestamp,ElapsedMillis,Yaw,Pitch,Roll,Altitude,YawServo,PitchServo,Pyro1,Pyro2,DeltaTime,State
20:02:17.819,13578,-0.62,-0.21,-7.72,0.0,89.58,110.79,0,0,0.0010,0
20:02:17.820,13579,-0.64,-0.21,-7.73,0.0,89.48,111.14,0,0,0.0016,0
20:02:17.821,13580,-0.62,-0.21,-7.73,0.0,89.45,110.77,0,0,0.0010,0
20:02:17.822,13581,-0.62,-0.21,-7.73,0.0,89.45,110.77,0,0,0.0010,0
20:02:18.018,13777,-0.62,-0.21,-7.73,0.0,89.45,110.77,0,0,0.0017,0
20:02:18.224,13983,-0.62,-0.21,-7.73,0.0,89.45,110.77,0,0,0.0010,0
20:02:18.424,14183,-0.62,-0.21,-7.73,0.0,89.45,110.77,0,0,0.0029,0
20:02:18.625,14384,-0.62,-0.21,-7.73,0.0,89.45,110.77,0,0,0.0029,0
20:02:18.830,14589,-0.62,-0.21,-7.73,0.0,89.45,110.77,0,0,0.0023,0
20:02:19.030,14789,-0.62,-0.21,-7.73,0.0,89.45,110.77,0,0,0.0023,0
20:02:19.229,14988,-0.62,-0.21,-7.73,0.0,89.45,110.77,0,0,0.0018,0
20:02:19.430,15189,-0.62,-0.21,-7.73,0.0,89.45,110.77,0,0,0.0010,0
20:02:19.630,15389,-0.62,-0.21,-7.73,0.0,89.45,110.77,0,0,0.0016,0
20:02:19.829,15588,-0.62,-0.21,-7.73,0.0,89.45,110.77,0,0,0.0016,0
20:02:20.236,15995,-0.62,-0.21,-7.73,0.0,89.45,110.77,0,0,0.0029,0
20:02:29.498,25257,-0.62,-0.21,-7.73,0.0,89.45,110.77,0,0,0.0036,1
20:02:29.697,25456,-0.85,-0.40,0.01,0.0,95.12,117.37,0,0,0.0010,1
20:02:29.897,25656,-0.85,-0.39,0.01,0.0,94.99,117.48,0,0,0.0010,1
20:02:30.102,25861,-0.86,-0.40,0.01,0.0,95.19,117.54,0,0,0.0010,1
20:02:30.302,26061,-0.86,-0.40,0.01,0.0,95.31,117.54,0,0,0.0010,1
20:02:30.502,26261,-0.86,-0.41,0.01,0.0,95.38,117.73,0,0,0.0036,1
20:02:30.703,26462,-0.86,-0.41,0.01,0.0,95.50,117.61,0,0,0.0055,1
20:02:30.902,26661,-0.85,-0.41,0.01,0.0,95.55,117.41,0,0,0.0036,1
20:02:31.103,26862,-0.86,-0.42,0.01,0.0,95.73,117.68,0,0,0.0055,1
20:02:31.308,27067,-0.86,-0.42,0.01,0.0,95.73,117.68,0,0,0.0043,1
20:02:31.507,27266,-0.86,-0.42,0.01,0.0,95.73,117.68,0,0,0.0017,1
20:02:31.708,27467,-0.86,-0.42,0.01,0.0,95.73,117.68,0,0,0.0010,1
20:02:31.913,27672,-0.86,-0.42,0.01,0.0,95.73,117.68,0,0,0.0010,1
20:02:32.113,27872,-0.86,-0.42,0.01,0.0,95.73,117.68,0,0,0.0029,1
20:02:32.313,28072,-0.86,-0.42,0.01,0.0,95.73,117.68,0,0,0.0010,1
20:02:32.513,28272,-0.86,-0.42,0.01,0.0,95.73,117.68,0,0,0.0029,1
20:02:32.713,28472,-0.86,-0.42,0.01,0.0,95.73,117.68,0,0,0.0010,1
20:02:32.914,28673,-0.86,-0.42,0.01,0.0,95.73,117.68,0,0,0.0029,1
20:02:33.119,28878,-0.86,-0.42,0.01,0.0,95.73,117.68,0,0,0.0029,1
20:02:33.319,29078,-0.86,-0.42,0.01,0.0,95.73,117.68,0,0,0.0010,1
20:02:33.519,29278,-0.86,-0.42,0.01,0.0,95.73,117.68,0,1,0.0029,1
20:02:33.719,29478,-0.86,-0.42,0.01,0.0,95.73,117.68,0,0,0.0036,1
20:02:33.919,29678,-0.86,-0.42,0.01,0.0,95.73,117.68,0,0,0.0036,1
20:02:34.118,29877,-0.86,-0.42,0.01,0.0,95.73,117.68,0,1,0.0017,1
20:02:34.324,30083,-0.86,-0.42,0.01,0.0,95.73,117.68,0,0,0.0036,1
20:02:34.524,30283,-0.86,-0.42,0.01,0.0,95.73,117.68,0,0,0.0046,1
20:02:34.724,30483,-0.86,-0.42,0.01,0.0,95.73,117.68,0,0,0.0031,1
20:02:34.929,30688,-0.86,-0.42,0.01,0.0,95.73,117.68,0,0,0.0029,1
20:02:35.129,30888,-0.86,-0.42,0.01,0.0,95.73,117.68,0,0,0.0047,1
20:02:35.329,31088,-0.86,-0.42,0.01,0.0,95.73,117.68,0,0,0.0036,1
20:02:35.534,31293,-0.86,-0.42,0.01,0.0,95.73,117.68,0,0,0.0055,1
20:02:35.734,31493,-0.86,-0.42,0.01,0.0,95.73,117.68,0,0,0.0010,1
20:02:35.934,31693,-0.86,-0.42,0.01,0.0,95.73,117.68,0,0,0.0018,1
20:02:36.140,31899,-0.86,-0.42,0.01,0.0,95.73,117.68,0,0,0.0010,1
20:02:36.339,32099,-0.86,-0.42,0.01,0.0,95.73,117.68,0,0,0.0029,1
20:02:36.539,32298,-0.86,-0.42,0.01,0.0,95.73,117.68,0,0,0.0029,1
20:02:36.744,32503,-0.86,-0.42,0.01,0.0,95.73,117.68,0,0,0.0023,1
20:02:36.945,32704,-0.86,-0.42,0.01,0.0,95.73,117.68,0,0,0.0010,1
20:02:37.145,32904,-0.86,-0.42,0.01,0.0,95.73,117.68,0,0,0.0043,1
20:02:37.350,33109,-0.86,-0.42,0.01,0.0,95.73,117.68,0,0,0.0010,1
20:02:37.550,33309,-0.86,-0.42,0.01,0.0,95.73,117.68,0,0,0.0036,1
20:02:37.754,33513,-0.86,-0.42,0.01,0.0,95.73,117.68,0,0,0.0055,1
20:02:37.955,33714,-0.86,-0.42,0.01,0.0,95.73,117.68,0,0,0.0035,1
20:02:38.156,33915,-0.86,-0.42,0.01,0.0,95.73,117.68,0,0,0.0023,1
20:02:38.360,34119,-0.86,-0.42,0.01,0.0,95.73,117.68,0,1,0.0045,1
20:02:38.560,34319,-0.86,-0.42,0.01,0.0,95.73,117.68,0,0,0.0010,1
20:02:38.760,34519,-0.86,-0.42,0.01,0.0,95.73,117.68,0,1,0.0010,1
20:02:38.961,34720,-0.86,-0.42,0.01,0.0,95.73,117.68,0,0,0.0032,1
20:02:39.165,34924,-0.86,-0.42,0.01,0.0,95.73,117.68,0,0,0.0029,1
20:02:39.365,35124,-0.86,-0.42,0.01,0.0,95.73,117.68,0,0,0.0036,1
20:02:39.771,35530,-0.86,-0.42,0.01,0.0,95.73,117.68,0,0,0.0040,1
20:02:39.976,35735,-0.86,-0.42,0.01,0.0,95.73,117.68,0,0,0.0010,1
20:02:40.177,35936,-0.86,-0.42,0.01,0.0,95.73,117.68,0,0,0.0036,1
20:02:40.375,36134,-0.86,-0.42,0.01,0.0,95.73,117.68,0,0,0.0055,1
20:02:40.576,36335,-0.86,-0.42,0.01,0.0,95.73,117.68,0,0,0.0024,1
20:02:40.776,36535,-0.86,-0.42,0.01,0.0,95.73,117.68,0,0,0.0024,1
20:02:40.981,36740,-0.86,-0.42,0.01,0.0,95.73,117.68,0,0,0.0024,1
20:02:41.182,36941,-0.86,-0.42,0.01,0.0,95.73,117.68,0,0,0.0023,1
20:02:41.381,37140,-0.86,-0.42,0.01,0.0,95.73,117.68,0,1,0.0024,1
20:02:41.581,37340,-0.86,-0.42,0.01,0.0,95.73,117.68,0,0,0.0010,1
20:02:41.782,37541,-0.86,-0.42,0.01,0.0,95.73,117.68,0,0,0.0036,1
20:02:41.982,37741,-0.86,-0.42,0.01,0.0,95.73,117.68,0,0,0.0010,1
20:02:42.187,37946,-0.86,-0.42,0.01,0.0,95.73,117.68,0,0,0.0035,1
20:02:42.387,38146,-0.86,-0.42,0.01,0.0,95.73,117.68,0,0,0.0029,1
20:02:42.592,38351,-0.86,-0.42,0.01,0.0,95.73,117.68,0,0,0.0017,1
20:02:42.792,38551,-0.86,-0.42,0.01,0.0,95.73,117.68,0,0,0.0010,1
20:02:42.992,38751,-0.86,-0.42,0.01,0.0,95.73,117.68,0,0,0.0042,1
20:02:43.198,38957,-0.86,-0.42,0.01,0.0,95.73,117.68,0,0,0.0010,1
20:02:43.398,39157,-0.86,-0.42,0.01,0.0,95.73,117.68,0,0,0.0036,1
20:02:43.598,39357,-0.86,-0.42,0.01,0.0,95.73,117.68,0,0,0.0029,1
20:02:43.802,39561,-0.86,-0.42,0.01,0.0,95.73,117.68,0,0,0.0062,1
20:02:44.003,39762,-0.86,-0.42,0.01,0.0,95.73,117.68,0,0,0.0017,1
20:02:44.203,39962,-0.86,-0.42,0.01,0.0,95.73,117.68,0,0,0.0010,1
20:02:44.408,40167,-0.86,-0.42,0.01,0.0,95.73,117.68,0,0,0.0017,1
20:02:44.608,40367,-0.86,-0.42,0.01,0.0,95.73,117.68,0,0,0.0010,1
20:02:44.813,40572,-0.86,-0.42,0.01,0.0,95.73,117.68,0,0,0.0024,1
20:02:45.014,40773,-0.86,-0.42,0.01,0.0,95.73,117.68,0,0,0.0036,1
20:02:45.214,40973,-0.86,-0.42,0.01,0.0,95.73,117.68,0,0,0.0029,1
20:02:45.413,41172,-0.86,-0.42,0.01,0.0,95.73,117.68,0,0,0.0029,1
20:02:45.614,41373,-0.86,-0.42,0.01,0.0,95.73,117.68,0,0,0.0029,1
20:02:45.814,41573,-0.86,-0.42,0.01,0.0,95.73,117.68,0,0,0.0036,1
20:02:46.013,41772,-0.86,-0.42,0.01,0.0,95.73,117.68,0,0,0.0010,1
20:02:46.213,41972,-0.86,-0.42,0.01,0.0,95.73,117.68,0,1,0.0010,1
20:02:46.419,42178,-0.86,-0.42,0.01,0.0,95.73,117.68,0,0,0.0029,1
20:02:46.619,42378,-0.86,-0.42,0.01,0.0,95.73,117.68,0,0,0.0010,1
20:02:46.820,42579,-0.86,-0.41,0.02,0.0,95.42,117.68,0,0,0.0016,1
20:02:47.024,42783,-0.87,-0.41,0.02,0.0,95.55,117.80,0,0,0.0010,1
20:02:47.224,42983,-0.85,-0.42,0.03,0.0,95.69,117.34,0,0,0.0018,1
20:02:47.424,43184,-0.85,-0.42,0.05,0.0,95.65,117.35,0,0,0.0036,1
20:02:47.626,43385,-0.84,-0.41,0.06,0.0,95.54,117.19,0,0,0.0036,1
20:02:47.830,43589,-0.84,-0.41,0.06,0.0,95.53,117.09,0,0,0.0036,1
20:02:48.029,43788,-0.84,-0.41,0.06,0.0,95.53,117.09,0,0,0.0024,1
20:02:48.229,43989,-0.84,-0.41,0.06,0.0,95.53,117.09,0,0,0.0016,1
20:02:48.429,44188,-0.84,-0.41,0.06,0.0,95.53,117.09,0,0,0.0010,1
20:02:48.630,44389,-0.84,-0.41,0.06,0.0,95.53,117.09,0,0,0.0016,1
20:02:48.829,44588,-0.84,-0.41,0.06,0.0,95.53,117.09,0,0,0.0024,1
20:02:49.030,44789,-0.84,-0.41,0.06,0.0,95.53,117.09,0,0,0.0016,1
20:02:49.230,44989,-0.84,-0.41,0.06,0.0,95.53,117.09,0,0,0.0024,1
20:02:49.430,45189,-0.84,-0.41,0.06,0.0,95.53,117.09,0,0,0.0010,1
20:02:49.635,45394,-0.84,-0.41,0.06,0.0,95.53,117.09,0,1,0.0035,1
20:02:49.835,45594,-0.84,-0.41,0.06,0.0,95.53,117.09,0,0,0.0010,1
20:02:50.035,45794,-0.84,-0.41,0.06,0.0,95.53,117.09,0,0,0.0035,1
20:02:50.240,45999,-0.84,-0.41,0.06,0.0,95.53,117.09,0,0,0.0010,1
20:02:50.441,46200,-0.84,-0.41,0.06,0.0,95.53,117.09,0,0,0.0016,1
20:02:50.640,46399,-0.84,-0.41,0.06,0.0,95.53,117.09,0,0,0.0016,1
20:02:50.840,46599,-0.84,-0.41,0.06,0.0,95.53,117.09,0,0,0.0035,1
20:02:51.042,46801,-0.84,-0.41,0.06,0.0,95.53,117.09,0,0,0.0010,1
20:02:51.446,47205,-0.84,-0.41,0.06,0.0,95.53,117.09,0,0,0.0010,1
20:02:51.651,47410,-0.84,-0.41,0.06,0.0,95.53,117.09,0,1,0.0010,1
20:02:51.851,47610,-0.84,-0.41,0.06,0.0,95.53,117.09,0,0,0.0029,1
20:02:52.051,47811,-0.84,-0.41,0.06,0.0,95.53,117.09,0,0,0.0061,1
20:02:52.257,48016,-0.84,-0.41,0.06,0.0,95.53,117.09,0,0,0.0017,1
20:02:52.457,48216,-0.84,-0.41,0.06,0.0,95.53,117.09,0,0,0.0046,1
20:02:52.657,48416,-0.84,-0.41,0.06,0.0,95.53,117.09,0,0,0.0029,1
20:02:52.862,48621,-0.84,-0.41,0.06,0.0,95.53,117.09,0,1,0.0010,1
20:02:53.066,48825,-0.84,-0.41,0.06,0.0,95.53,117.09,0,0,0.0023,1
20:02:53.267,49026,-0.84,-0.41,0.06,0.0,95.53,117.09,0,0,0.0010,1
20:02:53.466,49225,-0.84,-0.41,0.06,0.0,95.53,117.09,0,0,0.0037,1
20:02:53.672,49431,-0.84,-0.41,0.06,0.0,95.53,117.09,0,0,0.0010,1
20:02:53.877,49636,-0.84,-0.41,0.06,0.0,95.53,117.09,0,0,0.0017,1
20:02:54.077,49836,-0.84,-0.41,0.06,0.0,95.53,117.09,0,0,0.0018,1
20:02:54.282,50041,-0.84,-0.41,0.06,0.0,95.53,117.09,0,0,0.0010,1
20:02:54.482,50241,-0.84,-0.41,0.06,0.0,95.53,117.09,0,1,0.0010,1
20:02:54.682,50441,-0.84,-0.41,0.06,0.0,95.53,117.09,0,0,0.0029,1
20:02:54.887,50646,-0.84,-0.41,0.06,0.0,95.53,117.09,0,0,0.0036,1
20:02:55.087,50846,-0.84,-0.41,0.06,0.0,95.53,117.09,0,0,0.0055,1
20:02:55.288,51047,-0.84,-0.41,0.06,0.0,95.53,117.09,0,0,0.0016,1
20:02:55.493,51252,-0.84,-0.41,0.06,0.0,95.53,117.09,0,0,0.0010,1
20:02:55.693,51452,-0.84,-0.41,0.06,0.0,95.53,117.09,0,0,0.0048,1
20:02:55.893,51652,-0.84,-0.41,0.06,0.0,95.53,117.09,0,0,0.0010,1
20:02:56.093,51852,-0.84,-0.41,0.06,0.0,95.53,117.09,0,0,0.0055,1
20:02:56.298,52057,-0.84,-0.41,0.06,0.0,95.53,117.09,0,0,0.0029,1
20:02:56.498,52257,-0.84,-0.41,0.06,0.0,95.53,117.09,0,0,0.0024,1
20:02:56.698,52457,-0.84,-0.41,0.06,0.0,95.53,117.09,0,0,0.0023,1
20:02:56.898,52657,-0.84,-0.41,0.06,0.0,95.53,117.09,0,0,0.0010,1
20:02:57.098,52857,-0.84,-0.41,0.06,0.0,95.53,117.09,0,1,0.0010,1
20:02:57.300,53059,-0.84,-0.41,0.06,0.0,95.53,117.09,0,0,0.0017,1
20:02:57.505,53264,-0.84,-0.41,0.06,0.0,95.53,117.09,0,0,0.0010,1
20:02:57.704,53463,-0.84,-0.41,0.06,0.0,95.53,117.09,0,0,0.0038,1
20:02:57.904,53663,-0.84,-0.41,0.06,0.0,95.53,117.09,0,0,0.0010,1
20:02:58.110,53869,-0.84,-0.41,0.06,0.0,95.53,117.09,0,0,0.0029,1
20:02:58.310,54069,-0.84,-0.41,0.06,0.0,95.53,117.09,0,0,0.0029,1
20:02:58.509,54268,-0.84,-0.41,0.06,0.0,95.53,117.09,0,0,0.0016,1
20:02:58.710,54469,-0.84,-0.41,0.06,0.0,95.53,117.09,0,0,0.0016,1
20:02:58.911,54670,-0.84,-0.41,0.06,0.0,95.53,117.09,0,0,0.0016,1
20:02:59.111,54870,-0.84,-0.41,0.06,0.0,95.53,117.09,0,0,0.0023,1
20:02:59.316,55075,-0.84,-0.41,0.06,0.0,95.53,117.09,0,0,0.0043,1
20:02:59.517,55276,-0.84,-0.41,0.06,0.0,95.53,117.09,0,0,0.0010,1
20:02:59.716,55475,-0.84,-0.41,0.06,0.0,95.53,117.09,0,0,0.0043,1
20:02:59.922,55681,-0.84,-0.41,0.06,0.0,95.53,117.09,0,0,0.0010,1
20:03:00.122,55881,-0.84,-0.41,0.06,0.0,95.53,117.09,0,0,0.0010,1
20:03:00.322,56081,-0.84,-0.41,0.06,0.0,95.53,117.09,0,0,0.0055,1
20:03:00.522,56281,-0.84,-0.41,0.06,0.0,95.53,117.09,0,0,0.0036,1
20:03:00.722,56481,-0.84,-0.41,0.06,0.0,95.53,117.09,0,0,0.0055,1
20:03:00.922,56681,-0.84,-0.41,0.06,0.0,95.53,117.09,0,0,0.0016,1
20:03:01.122,56881,-0.84,-0.41,0.06,0.0,95.53,117.09,0,0,0.0055,1
20:03:01.327,57086,-0.84,-0.41,0.06,0.0,95.53,117.09,0,0,0.0043,1
20:03:01.527,57286,-0.84,-0.41,0.06,0.0,95.53,117.09,0,0,0.0017,1
20:03:01.728,57487,-0.84,-0.41,0.06,0.0,95.53,117.09,0,0,0.0017,1
20:03:01.927,57686,-0.84,-0.41,0.06,0.0,95.53,117.09,0,0,0.0023,1
20:03:02.133,57892,-0.84,-0.41,0.06,0.0,95.53,117.09,0,0,0.0012,1
20:03:02.333,58092,-0.84,-0.41,0.06,0.0,95.53,117.09,0,0,0.0055,1
20:03:02.533,58292,-0.84,-0.41,0.06,0.0,95.53,117.09,0,1,0.0047,1
20:03:02.738,58497,-0.84,-0.41,0.06,0.0,95.53,117.09,0,0,0.0029,1
20:03:02.938,58697,-0.84,-0.41,0.06,0.0,95.53,117.09,0,0,0.0055,1
20:03:03.138,58897,-0.84,-0.41,0.06,0.0,95.53,117.09,0,0,0.0036,1
20:03:03.338,59097,-0.84,-0.41,0.06,0.0,95.53,117.09,0,0,0.0010,1
20:03:03.538,59297,-0.84,-0.41,0.06,0.0,95.53,117.09,0,0,0.0016,1
20:03:03.743,59502,-0.84,-0.41,0.06,0.0,95.53,117.09,0,1,0.0010,1
20:03:03.943,59702,-0.84,-0.41,0.06,0.0,95.53,117.09,0,1,0.0036,1
20:03:04.144,59903,-0.84,-0.41,0.06,0.0,95.53,117.09,0,0,0.0010,1
20:03:04.349,60108,-0.84,-0.41,0.06,0.0,95.53,117.09,0,0,0.0024,1
20:03:04.549,60308,-0.84,-0.41,0.06,0.0,95.53,117.09,0,0,0.0023,1
20:03:04.749,60508,-0.84,-0.41,0.06,0.0,95.53,117.09,0,0,0.0036,1
20:03:04.950,60709,-0.84,-0.41,0.06,0.0,95.53,117.09,0,0,0.0010,1
20:03:05.154,60913,-0.84,-0.41,0.06,0.0,95.53,117.09,0,0,0.0042,1
20:03:05.355,61114,-0.84,-0.41,0.06,0.0,95.53,117.09,0,0,0.0010,1
20:03:05.555,61314,-0.84,-0.41,0.06,0.0,95.53,117.09,0,0,0.0029,1
20:03:05.760,61519,-0.84,-0.41,0.06,0.0,95.53,117.09,0,0,0.0029,1
20:03:05.960,61719,-0.84,-0.41,0.06,0.0,95.53,117.09,0,0,0.0029,1
20:03:06.166,61925,-0.84,-0.41,0.06,0.0,95.53,117.09,0,0,0.0017,1
20:03:06.365,62124,-0.84,-0.41,0.06,0.0,95.53,117.09,1,0,0.0010,1
20:03:06.570,62329,-0.84,-0.41,0.06,0.0,95.53,117.09,0,0,0.0031,1
20:03:06.771,62530,-0.84,-0.41,0.06,0.0,95.53,117.09,0,0,0.0029,1
20:03:06.970,62729,-0.84,-0.41,0.06,0.0,95.53,117.09,0,0,0.0029,1
20:03:07.170,62929,-0.84,-0.41,0.06,0.0,95.53,117.09,0,0,0.0036,1
20:03:07.371,63130,-0.84,-0.41,0.06,0.0,95.53,117.09,0,0,0.0032,1
20:03:07.571,63330,-0.84,-0.41,0.06,0.0,95.53,117.09,0,0,0.0036,1
20:03:07.776,63535,-0.84,-0.41,0.06,0.0,95.53,117.09,0,0,0.0016,1
20:03:07.977,63736,-0.84,-0.41,0.06,0.0,95.53,117.09,0,0,0.0023,1
20:03:08.177,63936,-0.84,-0.41,0.06,0.0,95.53,117.09,0,0,0.0017,1
20:03:08.377,64136,-0.84,-0.41,0.06,0.0,95.53,117.09,0,1,0.0010,1
20:03:08.576,64335,-0.84,-0.41,0.06,0.0,95.53,117.09,0,0,0.0016,1
20:03:08.776,64536,-0.84,-0.41,0.06,0.0,95.53,117.09,0,1,0.0010,1
20:03:08.977,64736,-0.84,-0.41,0.06,0.0,95.53,117.09,0,0,0.0010,1
20:03:09.177,64936,-0.84,-0.41,0.06,0.0,95.53,117.09,0,0,0.0010,1
20:03:09.381,65140,-0.84,-0.41,0.06,0.0,95.53,117.09,0,0,0.0016,1
20:03:09.581,65340,-0.84,-0.41,0.06,0.0,95.53,117.09,0,0,0.0010,1
20:03:09.787,65546,-0.84,-0.41,0.06,0.0,95.53,117.09,0,0,0.0017,1
20:03:09.987,65746,-0.84,-0.41,0.06,0.0,95.53,117.09,0,0,0.0010,1
20:03:10.192,65951,-0.84,-0.41,0.06,0.0,95.53,117.09,0,0,0.0035,1
20:03:10.392,66152,-0.84,-0.41,0.06,0.0,95.59,116.99,0,0,0.0010,1
20:03:10.593,66352,-0.83,-0.41,0.06,0.0,95.57,116.70,0,0,0.0010,1
20:03:10.793,66552,-0.82,-0.41,0.05,0.0,95.50,116.52,0,0,0.0010,1
20:03:10.993,66752,-0.82,-0.40,0.06,0.0,95.17,116.40,0,0,0.0042,1
20:03:11.198,66957,-0.82,-0.39,0.07,0.0,94.87,116.42,0,0,0.0010,1
20:03:11.398,67157,-0.82,-0.39,0.08,0.0,95.00,116.41,0,0,0.0035,1
20:03:11.598,67357,-0.81,-0.38,0.09,0.0,94.58,116.05,0,0,0.0029,1
20:03:11.798,67557,-0.82,-0.37,0.10,0.0,94.44,116.35,0,0,0.0069,1
20:03:12.003,67762,-0.81,-0.36,0.09,0.0,94.13,116.19,0,0,0.0010,1
20:03:12.208,67967,-0.81,-0.36,0.09,0.0,94.13,116.19,0,0,0.0010,1
20:03:12.408,68167,-0.81,-0.36,0.09,0.0,94.13,116.19,0,0,0.0055,1
20:03:12.607,68366,-0.81,-0.36,0.09,0.0,94.13,116.19,0,0,0.0010,1
20:03:12.814,68573,-0.81,-0.36,0.09,0.0,94.13,116.19,0,0,0.0017,1
20:03:13.013,68772,-0.81,-0.36,0.09,0.0,94.13,116.19,0,0,0.0010,1
20:03:13.213,68972,-0.81,-0.36,0.09,0.0,94.13,116.19,0,0,0.0055,1
20:03:13.414,69173,-0.81,-0.36,0.09,0.0,94.13,116.19,0,0,0.0024,1
20:03:13.613,69373,-0.81,-0.36,0.09,0.0,94.13,116.19,0,0,0.0036,1
20:03:13.813,69572,-0.81,-0.36,0.09,0.0,94.13,116.19,0,0,0.0023,1
20:03:14.014,69773,-0.81,-0.36,0.09,0.0,94.13,116.19,0,0,0.0036,1
20:03:14.213,69972,-0.81,-0.36,0.09,0.0,94.13,116.19,0,0,0.0016,1
20:03:14.414,70173,-0.81,-0.36,0.09,0.0,94.13,116.19,0,0,0.0029,1
20:03:14.619,70378,-0.81,-0.36,0.09,0.0,94.13,116.19,0,0,0.0010,1
20:03:14.824,70583,-0.81,-0.36,0.09,0.0,94.13,116.19,0,0,0.0035,1
20:03:15.024,70783,-0.81,-0.36,0.09,0.0,94.13,116.19,0,0,0.0055,1
20:03:15.224,70983,-0.81,-0.36,0.09,0.0,94.13,116.19,0,0,0.0062,1
20:03:15.424,71183,-0.81,-0.36,0.09,0.0,94.13,116.19,0,0,0.0023,1
20:03:15.624,71383,-0.81,-0.36,0.09,0.0,94.13,116.19,0,0,0.0024,1
20:03:15.824,71583,-0.81,-0.36,0.09,0.0,94.13,116.19,0,0,0.0023,1
20:03:16.025,71784,-0.81,-0.36,0.09,0.0,94.13,116.19,0,0,0.0017,1
20:03:16.229,71988,-0.81,-0.36,0.09,0.0,94.13,116.19,0,0,0.0010,1
20:03:16.430,72189,-0.81,-0.36,0.09,0.0,94.13,116.19,0,0,0.0013,1
20:03:16.635,72394,-0.81,-0.36,0.09,0.0,94.13,116.19,0,0,0.0010,1
20:03:16.834,72593,-0.81,-0.36,0.09,0.0,94.13,116.19,0,0,0.0017,1
20:03:17.039,72798,-0.81,-0.36,0.08,0.0,94.13,116.09,0,0,0.0024,1
20:03:17.239,72998,-0.81,-0.36,0.07,0.0,94.12,116.22,0,0,0.0010,1
20:03:17.440,73199,-0.80,-0.36,0.08,0.0,94.12,116.00,0,0,0.0017,1
20:03:17.644,73403,-0.80,-0.36,0.07,0.0,94.11,115.98,0,0,0.0010,1
20:03:17.845,73604,-0.80,-0.36,0.08,0.0,94.12,115.78,0,0,0.0029,1
20:03:18.044,73803,-0.79,-0.36,0.09,0.0,94.16,115.65,0,0,0.0010,1
20:03:18.245,74004,-0.79,-0.36,0.09,0.0,94.16,115.65,0,0,0.0055,1
20:03:18.451,74210,-0.79,-0.36,0.09,0.0,94.16,115.65,0,0,0.0036,1
20:03:18.650,74409,-0.79,-0.36,0.09,0.0,94.16,115.65,0,0,0.0055,1
20:03:18.850,74609,-0.79,-0.36,0.09,0.0,94.16,115.65,0,0,0.0023,1
20:03:19.050,74809,-0.79,-0.36,0.09,0.0,94.16,115.65,0,0,0.0036,1
20:03:19.256,75015,-0.69,-0.29,-0.06,0.0,92.05,112.76,0,0,0.0010,1
20:03:19.456,75215,-0.76,0.26,-1.44,0.0,75.88,114.70,0,0,0.0036,1
20:03:19.655,75414,-0.77,0.76,-0.88,0.0,61.32,115.04,0,0,0.0029,1
20:03:19.861,75620,-2.16,-0.01,3.77,0.0,84.00,118.90,0,0,0.0016,1
20:03:20.061,75820,-3.42,-1.04,8.10,0.0,109.90,118.90,0,0,0.0010,1
20:03:20.261,76020,-5.24,1.10,4.03,0.0,57.10,118.90,0,0,0.0016,1
20:03:20.461,76220,-6.10,3.59,-0.35,0.0,57.10,118.90,0,1,0.0017,1
20:03:20.661,76420,-7.48,3.47,-1.92,0.0,57.10,118.90,0,0,0.0016,1
20:03:20.866,76625,-11.51,6.00,-1.91,0.0,57.10,118.90,0,0,0.0010,1
20:03:21.071,76830,-13.54,8.79,-2.98,0.0,57.10,118.90,0,0,0.0036,1
20:03:21.272,77031,-11.55,7.52,-2.98,0.0,57.10,118.90,0,0,0.0055,1
20:03:21.472,77231,-8.97,3.57,-1.51,0.0,57.10,118.90,0,0,0.0035,1
20:03:21.677,77436,-6.34,1.31,-0.25,0.0,57.10,118.90,0,0,0.0016,1
20:03:21.876,77635,-4.66,-1.09,0.72,0.0,109.90,118.90,0,0,0.0049,1
20:03:22.077,77836,-4.97,-3.41,1.85,0.0,109.90,118.90,0,0,0.0010,1
20:03:22.277,78036,-5.41,-1.43,1.13,0.0,109.90,118.90,0,0,0.0010,1
20:03:22.481,78240,-7.63,2.14,0.68,0.0,57.10,118.90,0,0,0.0031,1
20:03:22.682,78441,-9.59,3.54,2.12,0.0,57.10,118.90,0,0,0.0029,1
20:03:22.882,78641,-11.22,1.99,4.83,0.0,57.10,118.90,0,0,0.0050,1
20:03:23.082,78841,-10.40,-0.54,5.73,0.0,100.42,118.90,0,0,0.0036,1
20:03:23.288,79047,-4.33,-1.34,2.21,0.0,109.90,118.90,0,0,0.0016,1
20:03:23.493,79252,2.96,-1.90,-1.37,0.0,109.90,66.10,0,0,0.0010,1
20:03:23.693,79452,9.23,-3.00,-3.78,0.0,109.90,66.10,0,0,0.0016,1
20:03:23.893,79652,8.96,-2.23,-3.67,0.0,109.90,66.10,0,0,0.0032,1
20:03:24.099,79858,4.98,0.53,-3.19,0.0,68.25,66.10,0,0,0.0017,1
20:03:24.298,80057,2.53,3.04,-3.32,0.0,57.10,66.10,0,0,0.0010,1
20:03:24.498,80257,0.13,2.22,-0.86,0.0,57.10,88.70,0,0,0.0043,1
20:03:24.699,80458,1.19,-1.10,0.20,0.0,109.90,66.10,0,0,0.0010,1
20:03:24.898,80658,1.72,-2.63,0.73,0.0,109.90,66.10,0,0,0.0035,1
20:03:25.099,80858,1.64,-2.03,0.72,0.0,109.90,66.10,0,0,0.0010,1
20:03:25.304,81063,3.10,-0.30,-0.77,0.0,92.46,66.10,0,0,0.0010,1
20:03:25.504,81263,1.87,1.73,-1.23,0.0,57.10,66.10,0,0,0.0010,1
20:03:25.704,81463,0.99,2.58,-1.59,0.0,57.10,66.10,0,0,0.0010,1
20:03:25.904,81663,-0.09,1.55,-1.05,0.0,57.10,95.04,0,0,0.0010,1
20:03:26.104,81863,-0.72,0.41,-0.71,0.0,71.60,113.46,0,0,0.0010,1
20:03:26.305,82064,-0.79,0.27,-0.95,0.0,75.46,115.55,0,0,0.0029,1
20:03:26.505,82264,-0.89,0.28,-0.64,0.0,75.22,118.52,0,0,0.0029,1
20:03:26.711,82470,-2.05,-0.28,0.84,0.0,91.83,118.90,0,0,0.0029,1
20:03:26.910,82669,-1.70,0.48,0.57,0.0,69.48,118.90,0,0,0.0017,1
20:03:27.110,82869,-1.53,0.77,0.56,0.0,61.08,118.90,0,0,0.0055,1
20:03:27.311,83070,-2.49,0.02,1.81,0.0,82.94,118.90,0,0,0.0017,1
20:03:27.511,83270,-2.87,-0.38,2.38,0.0,94.67,118.90,0,0,0.0023,1
20:03:27.717,83476,-3.76,-0.36,3.11,0.0,94.38,118.90,0,0,0.0010,1
20:03:27.921,83680,-4.24,0.13,3.09,0.0,80.04,118.90,0,0,0.0055,1
20:03:28.122,83881,-4.48,0.82,2.95,0.0,59.80,118.90,0,1,0.0023,1
20:03:28.322,84081,-4.91,0.67,3.79,0.0,64.33,118.90,0,0,0.0017,1
20:03:28.526,84285,-3.89,0.47,3.05,0.0,69.86,118.90,0,0,0.0010,1
20:03:28.727,84486,-2.26,0.78,1.64,0.0,60.90,118.90,0,0,0.0017,1
20:03:28.932,84691,-1.12,0.67,0.79,0.0,64.03,118.90,0,0,0.0010,1
20:03:29.132,84891,-0.28,1.25,0.34,0.0,57.10,100.76,0,0,0.0017,1
20:03:29.332,85091,0.32,2.21,-0.18,0.0,57.10,83.06,0,0,0.0010,1
20:03:29.538,85297,0.14,2.24,0.06,0.0,57.10,88.44,0,0,0.0039,1
20:03:29.738,85497,0.52,1.57,0.45,0.0,57.10,77.42,0,0,0.0010,1
20:03:29.943,85702,2.01,2.24,-0.58,0.0,57.10,66.10,0,0,0.0036,1
20:03:30.143,85902,2.90,1.67,-0.86,0.0,57.10,66.10,0,0,0.0047,1
20:03:30.343,86102,3.14,0.31,-0.00,0.0,74.33,66.10,0,0,0.0036,1
20:03:30.548,86307,3.28,-1.45,0.79,0.0,109.90,66.10,0,0,0.0017,1
20:03:30.749,86508,3.22,-1.09,0.69,0.0,109.90,66.10,0,0,0.0010,1
20:03:30.949,86708,1.57,0.55,1.17,0.0,67.47,66.10,0,0,0.0016,1
20:03:31.153,86912,0.64,1.21,1.62,0.0,57.10,73.75,0,0,0.0029,1
20:03:31.359,87118,1.49,0.40,1.80,0.0,71.68,66.10,0,0,0.0024,1
20:03:31.559,87318,2.69,-0.55,1.73,0.0,99.39,66.10,0,0,0.0010,1
20:03:31.758,87517,3.36,-1.11,1.56,0.0,109.90,66.10,0,0,0.0035,1
20:03:31.960,87719,3.30,-1.35,1.30,0.0,109.90,66.10,0,1,0.0010,1
20:03:32.159,87918,2.89,-1.06,0.69,0.0,109.90,66.10,0,0,0.0035,1
20:03:32.359,88118,1.81,-1.11,0.99,0.0,109.90,66.10,0,0,0.0010,1
20:03:32.564,88323,-0.29,-0.04,1.39,0.0,84.62,100.98,0,0,0.0035,1
20:03:32.764,88523,-1.20,1.09,1.14,0.0,57.10,118.90,0,0,0.0029,1
20:03:32.969,88728,-2.47,1.82,1.87,0.0,57.10,118.90,0,0,0.0024,1
20:03:33.169,88928,-3.87,1.70,3.39,0.0,57.10,118.90,0,0,0.0036,1
20:03:33.370,89129,-5.29,2.07,5.12,0.0,57.10,118.90,0,0,0.0016,1
20:03:33.570,89329,-6.44,2.16,5.73,0.0,57.10,118.90,0,0,0.0010,1
20:03:33.774,89533,-7.45,3.10,5.37,0.0,57.10,118.90,0,0,0.0044,1
20:03:33.975,89734,-8.83,4.61,4.44,0.0,57.10,118.90,0,0,0.0010,1
20:03:34.179,89938,-11.14,6.54,4.11,0.0,57.10,118.90,0,0,0.0010,1
20:03:34.380,90139,-10.95,5.87,4.15,0.0,57.10,118.90,0,0,0.0029,1
20:03:34.580,90339,-6.17,2.21,4.04,0.0,57.10,118.90,0,0,0.0062,1
20:03:34.784,90543,-2.22,-0.08,3.19,0.0,85.94,118.90,0,0,0.0043,1
20:03:34.986,90745,-0.83,-0.16,2.84,0.0,88.25,116.88,0,0,0.0029,1
20:03:35.191,90950,-0.07,-0.41,3.49,0.0,95.58,94.60,0,0,0.0016,1
20:03:35.391,91150,-0.31,-1.89,4.87,0.0,109.90,101.37,0,0,0.0055,1
20:03:35.591,91350,-1.00,-1.17,4.73,0.0,109.90,118.90,0,0,0.0023,1
20:03:35.791,91550,-1.16,-0.06,4.25,0.0,85.29,118.90,0,0,0.0010,1
20:03:35.991,91750,-2.06,-0.23,4.86,0.0,90.43,118.90,0,0,0.0017,1
20:03:36.192,91951,-3.08,-0.06,5.66,0.0,85.50,118.90,0,0,0.0016,1
20:03:36.392,92151,-3.67,0.00,6.17,0.0,83.91,118.90,0,0,0.0029,1
20:03:36.591,92350,-3.92,-0.23,6.60,0.0,90.72,118.90,0,0,0.0016,1
20:03:36.792,92551,-3.91,-0.64,6.96,0.0,102.86,118.90,0,0,0.0016,1
20:03:36.992,92751,-3.78,-0.67,6.74,0.0,103.66,118.90,0,0,0.0010,1
20:03:37.198,92957,-4.88,0.26,5.90,0.0,76.54,118.90,0,0,0.0016,1
20:03:37.397,93156,-5.62,1.20,5.76,0.0,57.10,118.90,0,0,0.0010,1
20:03:37.597,93356,-5.55,0.52,6.80,0.0,69.12,118.90,0,0,0.0035,1
20:03:37.798,93557,-4.44,0.39,5.85,0.0,72.51,118.90,0,0,0.0010,1
20:03:38.003,93762,-3.64,1.59,4.94,0.0,57.10,118.90,0,0,0.0029,1
20:03:38.203,93962,-3.15,2.13,4.43,0.0,57.10,118.90,0,0,0.0029,1
20:03:38.403,94162,-2.55,2.83,4.24,0.0,57.10,118.90,0,0,0.0017,1
20:03:38.603,94362,-1.09,3.71,3.50,0.0,57.10,118.90,0,0,0.0055,1
20:03:38.803,94562,-0.31,4.72,3.09,0.0,57.10,101.77,0,0,0.0017,1
20:03:39.009,94768,-2.30,3.12,5.10,0.0,57.10,118.90,0,0,0.0010,1
20:03:39.209,94968,-3.65,2.30,6.54,0.0,57.10,118.90,0,0,0.0017,1
20:03:39.409,95168,-4.95,1.06,7.56,0.0,57.10,118.90,0,0,0.0023,1
20:03:39.609,95368,-5.88,-0.23,8.07,0.0,91.21,118.90,0,0,0.0024,1
20:03:39.809,95568,-6.24,-0.36,8.14,0.0,94.90,118.90,0,0,0.0023,1
20:03:40.009,95768,-5.69,0.27,7.73,0.0,76.61,118.90,0,0,0.0016,1
20:03:40.209,95968,-6.23,0.01,8.35,0.0,84.37,118.90,0,0,0.0010,1
20:03:40.414,96173,-6.32,1.50,6.69,0.0,57.10,118.90,0,0,0.0044,1
20:03:40.614,96373,-6.87,3.02,7.93,0.0,57.10,118.90,0,0,0.0029,1
20:03:40.819,96578,-5.89,3.19,8.55,0.0,57.10,118.90,0,0,0.0043,1
20:03:41.020,96779,-6.13,1.90,7.92,0.0,57.10,118.90,0,0,0.0055,1
20:03:41.219,96978,-5.81,0.51,5.54,0.0,69.27,118.90,0,0,0.0036,1
20:03:41.419,97178,-4.96,1.11,1.44,0.0,57.10,118.90,0,0,0.0032,1
20:03:41.620,97379,-3.85,2.90,-2.55,0.0,57.10,118.90,0,0,0.0035,1
20:03:41.821,97580,-2.59,7.77,-4.61,0.0,57.10,118.90,0,0,0.0024,1
20:03:42.026,97785,-1.71,11.62,-6.45,0.0,57.10,118.90,0,0,0.0010,1
20:03:42.225,97984,-3.18,14.22,-8.53,0.0,57.10,118.90,1,0,0.0010,1
20:03:42.431,98190,-5.82,16.79,-9.05,0.0,57.10,118.90,0,0,0.0010,1
20:03:42.630,98389,-10.56,20.07,-11.11,0.0,57.10,118.90,0,0,0.0016,1
20:03:42.830,98589,-20.13,25.66,-22.09,0.0,57.10,118.90,0,0,0.0010,1
20:03:43.036,98795,-32.26,31.26,-38.82,0.0,57.10,118.90,0,0,0.0036,1
20:03:43.241,99000,-39.30,34.44,-43.70,0.0,57.10,118.90,0,0,0.0010,1
20:03:43.441,99200,-39.29,35.48,-42.66,0.0,57.10,118.90,0,0,0.0016,1
20:03:43.642,99401,-35.82,33.73,-35.69,0.0,57.10,118.90,1,0,0.0032,1
20:03:43.841,99600,-33.07,32.32,-30.50,0.0,57.10,118.90,0,0,0.0017,1
20:03:44.042,99801,-32.70,32.44,-30.01,0.0,57.10,118.90,0,0,0.0010,1
20:03:44.247,100006,-30.39,32.42,-28.37,0.0,57.10,118.90,0,0,0.0043,1
20:03:44.447,100206,-21.04,29.65,-10.69,0.0,57.10,118.90,0,0,0.0010,1
20:03:44.647,100406,-12.84,23.47,8.79,0.0,57.10,118.90,0,0,0.0010,1
20:03:44.853,100612,-11.10,19.01,23.22,0.0,57.10,118.90,0,0,0.0029,1
20:03:45.052,100811,-13.10,15.29,35.92,0.0,57.10,118.90,0,0,0.0047,1
20:03:45.257,101016,-16.21,13.64,45.76,0.0,57.10,118.90,0,0,0.0016,1
20:03:45.462,101221,-14.14,11.44,57.73,0.0,57.10,118.90,0,0,0.0029,1
20:03:45.662,101421,-12.03,7.31,63.82,0.0,57.10,118.90,0,0,0.0061,1
20:03:45.862,101621,-13.72,4.66,67.86,0.0,57.10,118.90,0,1,0.0029,1
20:03:46.068,101827,-19.19,3.58,68.87,0.0,57.10,118.90,0,0,0.0023,1
20:03:46.267,102026,-16.30,2.74,67.80,0.0,57.10,118.90,0,0,0.0010,1
20:03:46.468,102227,-7.63,0.33,64.90,0.0,83.15,118.90,0,0,0.0010,1
20:03:46.668,102427,0.07,-1.05,61.82,0.0,109.90,89.41,0,0,0.0010,1
20:03:46.868,102627,0.86,-0.34,61.17,0.0,92.38,67.27,0,0,0.0017,1
20:03:47.068,102827,-1.08,2.28,60.55,0.0,57.10,118.90,0,0,0.0024,1
20:03:47.268,103027,-2.14,3.35,61.21,0.0,57.10,118.90,0,0,0.0017,1
20:03:47.468,103227,-2.38,1.32,62.66,0.0,57.10,118.90,0,0,0.0010,1
20:03:47.673,103432,-3.23,0.22,63.48,0.0,80.82,118.90,0,0,0.0035,1
20:03:47.873,103632,-5.09,0.81,63.54,0.0,66.03,118.90,0,0,0.0010,1
20:03:48.079,103838,-5.87,2.21,62.90,0.0,57.10,118.90,0,0,0.0017,1
20:03:48.284,104043,-6.86,2.20,63.30,0.0,57.10,118.90,0,0,0.0023,1
20:03:48.483,104242,-7.91,2.19,63.51,0.0,57.10,118.90,0,0,0.0010,1
20:03:48.684,104443,-9.50,3.00,63.95,0.0,57.10,118.90,0,0,0.0031,1
20:03:48.888,104647,-7.95,3.01,64.01,0.0,57.10,118.90,0,0,0.0036,1
20:03:49.088,104847,-4.17,1.60,63.45,0.0,57.10,118.90,0,0,0.0055,1
20:03:49.288,105047,-0.83,-0.02,63.15,0.0,85.12,116.46,0,0,0.0016,1
20:03:49.494,105253,0.94,-0.52,62.89,0.0,97.56,66.10,0,0,0.0017,1
20:03:49.694,105453,0.57,-0.21,63.21,0.0,88.97,75.75,0,0,0.0010,1
20:03:49.894,105653,0.25,0.30,63.40,0.0,74.46,85.55,0,0,0.0016,1
20:03:50.094,105853,0.03,0.09,63.66,0.0,80.75,91.70,0,0,0.0010,1
20:03:50.294,106053,-0.28,-0.10,64.03,0.0,86.71,100.44,1,0,0.0035,1
20:03:50.494,106253,-0.85,-0.08,64.42,0.0,86.75,117.04,0,0,0.0010,1
20:03:50.700,106459,-0.69,0.33,64.18,0.0,74.70,112.81,0,0,0.0047,1
20:03:50.900,106659,-1.13,0.64,64.18,0.0,66.34,118.90,0,0,0.0010,1
20:03:51.099,106858,-1.71,0.98,64.20,0.0,57.29,118.90,0,0,0.0029,1
20:03:51.299,107058,-1.10,0.60,64.08,0.0,67.35,118.90,0,0,0.0029,1
20:03:51.505,107264,-0.31,-0.08,63.89,0.0,86.18,101.36,0,0,0.0023,1
20:03:51.705,107464,0.06,0.05,63.77,0.0,81.91,90.83,0,0,0.0010,1
20:03:51.905,107664,0.41,0.12,63.55,0.0,79.67,80.74,0,0,0.0043,1
20:03:52.110,107869,0.37,-0.11,63.82,0.0,86.23,81.63,0,0,0.0010,1
20:03:52.310,108069,0.24,-0.33,64.02,0.0,92.66,85.15,0,1,0.0010,1
20:03:52.515,108274,0.12,-0.15,64.17,0.0,87.57,88.85,0,0,0.0048,1
20:03:52.715,108474,0.16,-0.12,64.21,0.0,86.66,87.75,0,0,0.0036,1
20:03:52.916,108675,0.04,0.02,64.22,0.0,83.01,91.38,0,0,0.0017,1
20:03:53.120,108879,-0.04,0.36,63.62,0.0,73.16,94.03,1,0,0.0010,1
20:03:53.326,109085,0.11,1.13,58.74,0.0,57.10,90.66,0,0,0.0024,1
20:03:53.525,109284,1.84,1.49,45.71,0.0,57.10,66.10,0,0,0.0029,1
20:03:53.726,109485,5.96,1.28,37.25,0.0,57.10,66.10,0,0,0.0017,1
20:03:53.926,109685,7.45,-1.19,39.79,0.0,109.90,66.10,0,0,0.0023,1
20:03:54.126,109885,6.96,-1.60,54.36,0.0,109.90,66.10,0,0,0.0036,1
20:03:54.331,110090,7.72,1.86,68.13,0.0,57.10,66.10,0,0,0.0010,1
20:03:54.531,110290,9.81,4.41,79.01,0.0,57.10,66.10,0,0,0.0035,1
20:03:54.736,110495,9.68,5.30,85.99,0.0,57.10,66.10,0,0,0.0010,1
20:03:54.936,110695,10.05,4.71,89.02,0.0,57.10,66.10,1,0,0.0017,1
20:03:55.140,110899,11.48,3.02,92.59,0.0,57.10,66.10,0,0,0.0023,1
20:03:55.341,111100,12.21,1.47,94.06,0.0,57.10,66.10,0,0,0.0010,1
20:03:55.546,111305,11.77,0.46,94.25,0.0,57.10,66.10,0,0,0.0031,1
20:03:55.747,111506,10.57,0.49,94.34,0.0,57.10,66.10,0,0,0.0029,1
20:03:55.951,111710,9.75,0.33,93.50,0.0,58.17,66.10,0,0,0.0017,1
20:03:56.151,111910,9.26,-0.56,93.20,0.0,84.45,66.10,0,0,0.0016,1
20:03:56.351,112110,9.32,-1.46,93.64,0.0,109.83,66.10,0,0,0.0010,1
20:03:56.551,112310,9.39,-1.07,93.82,0.0,98.73,66.10,0,0,0.0010,1
20:03:56.757,112516,9.35,-0.27,94.23,0.0,75.76,66.10,0,0,0.0036,1
20:03:56.957,112716,9.54,0.03,94.61,0.0,66.85,66.10,0,0,0.0010,1
20:03:57.161,112920,9.42,-0.20,94.95,0.0,73.53,66.10,0,0,0.0017,1
20:03:57.362,113121,8.97,-0.40,95.19,0.0,80.04,66.10,0,1,0.0054,1
20:03:57.561,113320,8.64,-0.56,95.17,0.0,85.26,66.10,0,0,0.0017,1
20:03:57.761,113520,7.92,-0.73,95.02,0.0,91.16,66.10,0,0,0.0024,1
20:03:57.962,113721,7.16,-1.53,95.24,0.0,109.90,66.10,0,0,0.0036,1
20:03:58.163,113922,6.91,-1.90,94.97,0.0,109.90,66.10,0,0,0.0024,1
20:03:58.362,114121,6.87,-1.93,94.14,0.0,109.90,66.10,0,0,0.0035,1
20:03:58.562,114321,6.70,-1.74,93.59,0.0,109.90,66.10,0,0,0.0010,1
20:03:58.762,114521,6.49,-1.32,93.41,0.0,109.90,66.10,0,0,0.0017,1
20:03:58.962,114721,6.45,-1.01,93.50,0.0,101.76,66.10,1,0,0.0010,1
20:03:59.162,114921,6.68,-0.95,93.44,0.0,99.59,66.10,0,0,0.0017,1
20:03:59.367,115126,6.67,-1.00,93.51,0.0,101.09,66.10,0,0,0.0010,1
20:03:59.568,115327,6.22,-0.88,93.71,0.0,98.40,66.10,0,0,0.0010,1
20:03:59.773,115532,6.33,-0.50,93.87,0.0,87.40,66.10,0,0,0.0029,1
20:03:59.973,115732,6.53,-0.03,94.10,0.0,73.55,66.10,0,0,0.0017,1
20:04:00.177,115936,6.76,0.04,94.37,0.0,71.12,66.10,0,0,0.0040,1
20:04:00.378,116137,7.36,0.11,93.76,0.0,68.46,66.10,0,0,0.0010,1
20:04:00.582,116341,6.98,0.13,93.57,0.0,68.31,66.10,0,0,0.0050,1
20:04:00.783,116542,6.65,0.05,93.33,0.0,71.25,66.10,0,0,0.0010,1
20:04:00.983,116742,6.52,0.03,93.21,0.0,72.01,66.10,0,0,0.0036,1
20:04:01.188,116947,6.55,0.17,92.64,0.0,68.07,66.10,0,0,0.0029,1
20:04:01.388,117147,6.35,0.20,92.13,0.0,67.47,66.10,0,0,0.0016,1
20:04:01.588,117347,6.13,-0.33,92.06,0.0,82.89,66.10,0,0,0.0010,1
20:04:01.789,117548,6.31,-0.66,91.72,0.0,92.22,66.10,0,0,0.0029,1
20:04:01.988,117747,6.00,-0.31,91.49,0.0,82.70,66.10,0,0,0.0017,1
20:04:02.189,117948,5.52,0.33,91.53,0.0,65.20,66.10,0,0,0.0029,1
20:04:02.388,118147,5.74,0.26,92.02,0.0,66.91,66.10,0,0,0.0069,1
20:04:02.589,118348,6.56,0.12,91.86,0.0,69.63,66.10,0,0,0.0036,1
20:04:02.793,118552,6.54,1.06,91.53,0.0,57.10,66.10,0,0,0.0010,1
20:04:02.993,118752,6.43,1.94,91.35,0.0,57.10,66.10,0,0,0.0029,1
20:04:03.193,118952,6.88,2.07,91.01,0.0,57.10,66.10,0,0,0.0010,1
20:04:03.399,119158,6.54,1.52,91.13,0.0,57.10,66.10,0,0,0.0017,1
20:04:03.599,119358,6.17,0.65,91.66,0.0,57.10,66.10,0,0,0.0024,1
20:04:03.799,119558,6.38,0.36,91.72,0.0,63.02,66.10,0,0,0.0010,1
20:04:03.999,119758,6.62,0.54,91.50,0.0,57.51,66.10,0,0,0.0010,1
20:04:04.199,119958,6.77,0.42,91.77,0.0,60.70,66.10,0,0,0.0043,1
20:04:04.405,120164,6.88,0.00,91.76,0.0,72.39,66.10,0,0,0.0010,1
20:04:04.606,120365,6.62,-0.19,91.78,0.0,78.39,66.10,0,0,0.0042,1
20:04:04.805,120564,6.46,-0.06,91.44,0.0,74.86,66.10,0,0,0.0010,1
20:04:05.005,120765,5.76,-0.27,91.39,0.0,81.91,66.10,1,0,0.0029,1
20:04:05.210,120970,5.80,-0.83,90.32,0.0,98.01,66.10,0,0,0.0010,1
20:04:05.410,121169,6.43,-1.08,87.93,0.0,104.33,66.10,0,0,0.0036,1
20:04:05.610,121369,6.92,-1.23,85.96,0.0,108.04,66.10,0,0,0.0055,1
20:04:05.810,121569,7.22,-1.03,84.73,0.0,102.04,66.10,0,0,0.0036,1
20:04:06.010,121769,7.58,-0.52,84.67,0.0,86.80,66.10,0,0,0.0017,1
20:04:06.211,121970,8.42,-0.05,83.49,0.0,72.27,66.10,0,0,0.0016,1
20:04:06.416,122175,8.86,-0.63,82.97,0.0,88.44,66.10,0,0,0.0016,1
20:04:06.615,122374,8.62,-1.79,83.29,0.0,109.90,66.10,0,0,0.0010,1
20:04:06.821,122580,8.52,-2.12,82.51,0.0,109.90,66.10,0,0,0.0031,1
20:04:07.021,122780,8.81,-1.78,81.53,0.0,109.90,66.10,0,0,0.0029,1
20:04:07.221,122980,9.22,-0.55,81.21,0.0,85.67,66.10,0,0,0.0029,1
20:04:07.425,123184,9.78,0.78,79.91,0.0,57.10,66.10,0,0,0.0055,1
20:04:07.626,123385,9.79,0.14,80.62,0.0,65.18,66.10,0,0,0.0024,1
20:04:07.826,123585,8.86,-1.51,83.88,0.0,109.90,66.10,0,1,0.0010,1
20:04:08.031,123791,9.12,-2.01,85.79,0.0,109.90,66.10,0,0,0.0017,1
20:04:08.232,123991,9.35,-0.02,86.74,0.0,69.61,66.10,0,0,0.0029,1
20:04:08.437,124196,9.18,1.44,86.58,0.0,57.10,66.10,0,0,0.0016,1
20:04:08.637,124396,8.52,0.54,87.27,0.0,57.10,66.10,0,0,0.0036,1
20:04:08.837,124596,7.40,-1.46,89.42,0.0,109.90,66.10,0,0,0.0069,1
20:04:09.037,124796,6.39,-2.79,92.41,0.0,109.90,66.10,0,0,0.0023,1
20:04:09.236,124995,5.63,-2.77,94.65,0.0,109.90,66.10,0,0,0.0010,1
20:04:09.437,125196,3.61,-1.95,95.97,0.0,109.90,66.10,0,1,0.0010,1
20:04:09.637,125396,0.61,-1.02,97.53,0.0,109.90,73.42,0,0,0.0043,1
20:04:09.843,125602,-1.55,0.65,96.06,0.0,67.58,118.90,0,0,0.0010,1
20:04:10.043,125802,-1.24,2.68,92.86,0.0,57.10,118.90,0,0,0.0010,1
20:04:10.247,126006,-1.25,3.83,90.17,0.0,57.10,118.90,0,0,0.0029,1
20:04:10.447,126206,-1.08,2.53,88.04,0.0,57.10,118.90,0,0,0.0029,1
20:04:10.648,126407,-0.26,1.18,86.74,0.0,57.10,101.66,0,0,0.0055,1
20:04:10.848,126607,0.33,1.91,80.74,0.0,57.10,85.67,0,0,0.0029,1
20:04:11.049,126808,0.65,3.16,64.33,0.0,57.10,77.51,0,0,0.0055,1
20:04:11.248,127007,-0.99,5.14,44.91,0.0,57.10,118.90,0,0,0.0043,1
20:04:11.454,127213,-2.55,8.32,31.05,0.0,57.10,118.90,0,0,0.0010,1
20:04:11.654,127413,-2.88,9.05,28.45,0.0,57.10,118.90,0,0,0.0010,1
20:04:11.859,127618,-2.37,7.95,29.13,0.0,57.10,118.90,0,0,0.0029,1
20:04:12.059,127818,-1.56,7.11,30.28,0.0,57.10,118.90,0,0,0.0036,1
20:04:12.258,128017,-2.21,5.82,30.89,0.0,57.10,118.90,0,0,0.0024,1
20:04:12.459,128218,-2.70,5.15,31.32,0.0,57.10,118.90,0,0,0.0055,1
20:05:14.263,190022,-0.87,-0.23,0.00,0.0,84.03,94.46,0,0,11.0302,0
20:05:14.467,190226,-0.88,-0.23,0.00,0.0,84.02,94.58,0,0,0.0010,0
20:05:14.673,190432,-0.89,-0.23,-0.00,0.0,83.97,94.45,0,1,0.0017,0
20:05:14.873,190632,-0.89,-0.23,0.01,0.0,83.96,94.40,0,0,0.0010,0
20:05:15.073,190832,-0.90,-0.23,0.02,0.0,84.01,94.56,0,0,0.0035,0
20:05:15.277,191036,-0.89,-0.23,0.03,0.0,84.03,94.55,0,0,0.0010,0
20:05:15.483,191242,-0.90,-0.23,0.03,0.0,84.07,94.46,0,1,0.0010,0
20:05:15.682,191441,-0.89,-0.23,0.03,0.0,84.02,94.51,0,0,0.0016,0
20:05:15.882,191641,-0.89,-0.23,0.03,0.0,84.02,94.51,0,0,0.0035,0
20:05:16.082,191841,-0.89,-0.23,0.03,0.0,84.02,94.51,0,0,0.0010,0
20:05:16.288,192047,-0.89,-0.23,0.03,0.0,84.02,94.51,0,0,0.0010,0
20:05:16.488,192247,-0.89,-0.23,0.03,0.0,84.02,94.51,0,0,0.0010,0
20:05:16.693,192452,-0.89,-0.23,0.03,0.0,84.02,94.51,0,0,0.0055,0
20:05:16.893,192652,-0.89,-0.23,0.03,0.0,84.02,94.51,0,0,0.0017,0
20:05:17.093,192852,-0.89,-0.23,0.03,0.0,84.02,94.51,0,0,0.0010,0
20:05:17.298,193057,-0.89,-0.23,0.03,0.0,84.02,94.51,0,0,0.0062,0
20:05:17.502,193261,-0.89,-0.23,0.03,0.0,84.02,94.51,0,0,0.0010,0
20:05:17.704,193463,-0.89,-0.23,0.03,0.0,84.02,94.51,0,0,0.0023,0
20:05:17.908,193667,-0.89,-0.23,0.03,0.0,84.02,94.51,0,0,0.0010,0
20:05:18.108,193867,-0.89,-0.23,0.03,0.0,84.02,94.51,0,0,0.0043,0
20:05:18.314,194073,-0.89,-0.23,0.03,0.0,84.02,94.51,1,0,0.0029,0
20:05:18.513,194272,-0.89,-0.23,0.03,0.0,84.02,94.51,0,0,0.0029,0
20:05:18.713,194472,-0.89,-0.23,0.03,0.0,84.02,94.51,0,0,0.0029,0
20:05:18.913,194672,-0.89,-0.23,0.03,0.0,84.02,94.51,0,0,0.0036,0
20:05:19.114,194873,-0.89,-0.23,0.03,0.0,84.02,94.51,0,0,0.0036,0
20:05:19.314,195073,-0.89,-0.23,0.03,0.0,84.02,94.51,0,0,0.0036,0
20:05:19.515,195274,-0.89,-0.23,0.03,0.0,84.02,94.51,0,0,0.0024,0
20:05:19.715,195474,-0.89,-0.23,0.03,0.0,84.02,94.51,0,0,0.0017,0
20:05:19.920,195679,-0.89,-0.23,0.03,0.0,84.02,94.51,0,0,0.0010,0
20:05:20.120,195879,-0.89,-0.23,0.03,0.0,84.02,94.51,0,0,0.0010,0
20:05:20.321,196080,-0.89,-0.23,0.03,0.0,84.02,94.51,0,0,0.0010,0
20:05:29.813,205572,-0.89,-0.23,0.03,0.0,84.02,94.51,0,1,0.0010,1
20:05:30.013,205772,-0.90,-0.22,0.00,0.0,83.98,94.53,0,0,0.0024,1
20:05:30.213,205972,-0.90,-0.21,-0.00,0.0,83.98,94.52,0,0,0.0036,1
20:05:30.417,206176,-0.90,-0.22,0.01,0.0,84.04,94.52,0,0,0.0024,1
20:05:30.618,206377,-0.90,-0.22,0.01,0.0,84.05,94.47,0,0,0.0017,1
20:05:30.819,206578,-0.90,-0.21,0.02,0.0,83.98,94.58,0,0,0.0016,1
20:05:31.019,206778,-0.89,-0.21,0.01,0.0,83.97,94.51,0,0,0.0010,1
20:05:31.223,206982,-0.90,-0.21,0.01,0.0,83.98,94.51,0,0,0.0010,1
20:05:31.424,207183,-0.90,-0.21,0.00,0.0,83.98,94.52,0,0,0.0010,1
20:05:31.623,207382,-0.89,-0.22,-0.02,0.0,83.94,94.55,0,0,0.0010,1
20:05:31.824,207583,-0.89,-0.22,-0.01,0.0,83.94,94.44,0,0,0.0029,1
20:05:32.024,207783,-0.89,-0.21,-0.00,0.0,83.97,94.54,0,0,0.0029,1
20:05:32.229,207988,-0.89,-0.22,0.01,0.0,84.05,94.54,0,0,0.0029,1
20:05:32.429,208188,-0.87,-0.21,0.02,0.0,84.02,94.34,0,0,0.0017,1
20:05:32.629,208388,-0.87,-0.20,0.02,0.0,83.96,94.45,1,0,0.0023,1
20:05:32.830,208589,-0.87,-0.21,0.03,0.0,84.08,94.51,0,0,0.0043,1
20:05:33.030,208789,-0.87,-0.21,0.03,0.0,83.91,94.40,0,0,0.0010,1
20:05:33.230,208989,-0.87,-0.21,0.03,0.0,84.02,94.51,0,0,0.0017,1
20:05:33.435,209194,-0.86,-0.21,0.04,0.0,83.98,94.38,0,0,0.0010,1
20:05:33.636,209395,-0.85,-0.21,0.05,0.0,83.97,94.52,0,1,0.0035,1
20:05:33.840,209599,-0.86,-0.19,0.04,0.0,83.94,94.44,0,0,0.0010,1
20:05:34.041,209800,-0.84,-0.20,0.06,0.0,83.91,94.38,0,0,0.0017,1
20:05:34.245,210004,-0.83,-0.20,0.05,0.0,83.95,94.27,0,0,0.0023,1
20:05:34.451,210210,-0.84,-0.20,0.04,0.0,84.06,94.39,0,0,0.0010,1
20:05:34.651,210410,-0.84,-0.23,0.05,0.0,84.28,94.50,0,0,0.0055,1
20:05:34.851,210610,-0.84,-0.20,0.04,0.0,83.89,94.50,0,0,0.0036,1
20:05:35.056,210815,-0.86,-0.20,0.04,0.0,83.91,94.48,0,1,0.0055,1
20:05:35.256,211015,-0.87,-0.20,0.03,0.0,83.90,94.55,0,0,0.0023,1
20:05:35.456,211215,-0.87,-0.20,0.01,0.0,83.94,94.40,0,0,0.0055,1
20:05:35.656,211415,-0.85,-0.20,0.00,0.0,83.94,94.37,0,0,0.0010,1
20:05:35.857,211616,-0.85,-0.20,0.00,0.0,84.01,94.36,0,0,0.0036,1
20:05:36.062,211821,-0.85,-0.20,-0.00,0.0,83.95,94.52,0,0,0.0010,1
20:05:36.262,212021,-0.86,-0.21,0.01,0.0,83.97,94.43,0,0,0.0036,1
20:05:36.467,212226,-0.87,-0.21,-0.01,0.0,83.97,94.45,0,0,0.0036,1
20:05:36.667,212426,-0.87,-0.21,-0.01,0.0,83.97,94.45,0,0,0.0023,1
20:05:36.868,212627,-0.87,-0.21,-0.01,0.0,83.97,94.45,0,0,0.0010,1
20:05:37.067,212826,-0.87,-0.21,-0.01,0.0,83.97,94.45,0,0,0.0035,1
20:05:37.267,213026,-0.87,-0.21,-0.01,0.0,83.97,94.45,0,0,0.0010,1
20:05:37.467,213226,-0.87,-0.21,-0.01,0.0,83.97,94.45,0,0,0.0043,1
20:05:37.667,213426,-0.87,-0.21,-0.01,0.0,83.97,94.45,0,0,0.0010,1
20:05:37.873,213632,-0.87,-0.21,-0.01,0.0,83.97,94.45,0,0,0.0042,1
20:05:38.072,213831,-0.87,-0.21,-0.01,0.0,83.97,94.45,0,0,0.0010,1
20:05:38.272,214031,-0.87,-0.21,-0.01,0.0,83.97,94.45,0,0,0.0029,1
20:05:38.472,214232,-0.87,-0.21,-0.01,0.0,83.97,94.45,0,0,0.0010,1
20:05:38.677,214436,-0.87,-0.21,-0.01,0.0,83.97,94.45,0,0,0.0010,1
20:05:38.878,214637,-0.87,-0.21,-0.01,0.0,83.97,94.45,0,0,0.0016,1
20:05:39.078,214837,-0.87,-0.21,-0.01,0.0,83.97,94.45,0,0,0.0017,1
20:05:39.278,215037,-0.82,-0.04,-0.02,0.0,82.97,93.82,0,0,0.0036,1
20:05:39.478,215237,-0.79,0.05,-0.04,0.0,83.64,94.37,0,0,0.0029,1
20:05:39.683,215442,-0.85,-0.11,-0.03,0.0,84.05,94.66,0,0,0.0023,1
20:05:39.888,215648,-0.87,-0.15,-0.01,0.0,83.78,94.30,0,0,0.0010,1
20:05:40.088,215847,-0.86,-0.14,-0.01,0.0,83.77,94.33,0,0,0.0055,1
20:05:40.288,216047,-0.87,-0.14,-0.01,0.0,83.82,94.46,0,0,0.0023,1
20:05:40.494,216253,-0.88,-0.15,0.01,0.0,83.83,94.47,0,0,0.0017,1
20:05:40.694,216453,-0.87,-0.14,0.01,0.0,83.88,94.46,0,0,0.0010,1
20:05:40.895,216654,-0.89,-0.14,0.01,0.0,83.87,94.51,0,0,0.0035,1
20:05:41.099,216858,-0.90,-0.15,0.01,0.0,83.83,94.51,0,0,0.0029,1
20:05:41.304,217063,-0.90,-0.14,0.00,0.0,83.83,94.52,0,0,0.0024,1
20:05:41.504,217263,-0.90,-0.14,0.00,0.0,83.83,94.52,0,1,0.0024,1
20:05:41.704,217463,-0.90,-0.14,0.00,0.0,83.83,94.52,0,0,0.0023,1
20:05:41.904,217663,-0.90,-0.14,0.00,0.0,83.83,94.52,0,0,0.0010,1
20:05:42.104,217863,-0.90,-0.14,0.00,0.0,83.83,94.52,0,0,0.0010,1
20:05:42.305,218064,-0.90,-0.14,0.00,0.0,83.83,94.52,0,0,0.0010,1
20:05:42.510,218269,-0.90,-0.14,0.00,0.0,83.83,94.52,0,0,0.0010,1
20:05:42.715,218474,-0.90,-0.14,0.00,0.0,83.83,94.52,0,0,0.0017,1
20:05:42.919,218678,-0.90,-0.14,0.00,0.0,83.83,94.52,0,0,0.0010,1
20:05:43.120,218879,-0.90,-0.14,0.00,0.0,83.83,94.52,0,0,0.0029,1
20:05:43.319,219080,-0.90,-0.14,0.00,0.0,83.83,94.52,1,0,0.0010,1
20:05:43.520,219279,-0.90,-0.14,0.00,0.0,83.83,94.52,0,0,0.0054,1
20:05:43.921,219680,-0.90,-0.14,0.00,0.0,83.83,94.52,0,0,0.0036,1
20:05:44.120,219879,-0.90,-0.14,0.00,0.0,83.83,94.52,0,0,0.0010,1
20:05:44.321,220080,-0.90,-0.14,0.00,0.0,83.83,94.52,0,0,0.0036,1
20:05:44.526,220285,-0.90,-0.14,0.00,0.0,83.83,94.52,0,0,0.0029,1
20:05:44.726,220485,-0.90,-0.14,0.00,0.0,83.83,94.52,0,0,0.0017,1
20:05:44.926,220685,-0.90,-0.14,0.00,0.0,83.83,94.52,0,0,0.0010,1
20:05:45.132,220891,-0.90,-0.14,0.00,0.0,83.83,94.52,0,0,0.0035,1
20:05:45.332,221091,-0.90,-0.14,0.00,0.0,83.83,94.52,0,0,0.0010,1
20:05:45.538,221297,-1.59,-0.00,0.30,0.0,81.25,96.28,0,0,0.0010,1
20:05:45.737,221496,-1.17,0.34,2.12,0.0,82.10,94.25,1,0,0.0036,1
20:05:45.938,221697,-1.14,-0.10,2.20,0.0,85.88,95.06,0,0,0.0035,1
20:05:46.137,221896,-1.13,-1.35,1.75,0.0,89.73,95.25,0,0,0.0055,1
20:05:46.338,222097,-1.42,-2.19,0.34,0.0,88.89,96.25,0,0,0.0035,1
20:05:46.538,222297,-1.39,-1.00,-1.89,0.0,79.95,94.43,1,0,0.0010,1
20:05:46.737,222496,-0.62,2.37,-3.98,0.0,68.39,91.80,0,0,0.0017,1
20:05:46.938,222698,-1.95,6.46,-4.00,0.0,61.02,98.58,0,0,0.0010,1
20:05:47.139,222898,-1.43,10.27,-1.88,0.0,57.10,90.95,0,0,0.0017,1
20:05:47.339,223098,0.08,14.39,-1.27,0.0,57.10,90.37,0,0,0.0010,1
20:05:47.544,223303,1.27,13.71,-2.88,0.0,57.89,85.52,0,0,0.0043,1
20:05:47.749,223508,2.17,11.36,-1.71,0.0,67.77,84.64,0,0,0.0010,1
20:05:47.949,223708,3.70,6.93,-1.49,0.0,77.98,80.89,0,0,0.0036,1
20:05:48.150,223909,4.92,4.45,-1.40,0.0,78.45,78.40,0,0,0.0036,1
20:05:48.350,224109,7.64,4.24,-1.29,0.0,71.68,75.15,0,0,0.0010,1
20:05:48.555,224314,3.65,6.59,1.59,0.0,63.34,97.80,0,0,0.0017,1
20:05:48.760,224519,-2.04,8.35,3.78,0.0,64.31,110.39,0,0,0.0036,1
20:05:48.965,224724,-6.47,6.59,5.13,0.0,78.73,113.38,0,0,0.0017,1
20:05:49.165,224924,-8.20,2.69,4.64,0.0,85.65,114.28,0,0,0.0016,1
20:05:49.366,225125,-9.05,1.29,4.51,0.0,80.83,109.20,0,0,0.0017,1
20:05:49.570,225329,-5.93,3.24,3.73,0.0,66.18,98.23,0,0,0.0010,1
20:05:49.771,225530,-2.50,8.30,3.80,0.0,57.10,92.69,0,0,0.0029,1
20:05:49.970,225729,0.32,13.07,3.35,0.0,57.10,86.89,0,0,0.0010,1
20:05:50.171,225930,2.34,15.93,3.45,0.0,57.10,86.53,0,0,0.0029,1
20:05:50.371,226130,3.23,17.07,3.41,0.0,57.10,83.83,0,0,0.0036,1
20:05:50.576,226335,3.57,16.81,3.06,0.0,57.10,85.84,0,0,0.0017,1
20:05:50.777,226536,3.97,16.44,2.85,0.0,57.10,83.34,0,0,0.0023,1
20:05:50.976,226735,4.30,16.79,2.55,0.0,57.10,83.16,0,0,0.0010,1
20:05:51.182,226941,4.49,17.46,2.36,0.0,57.10,83.07,0,0,0.0017,1
20:05:51.381,227140,4.78,18.41,2.14,0.0,57.10,80.95,0,0,0.0010,1
20:05:51.587,227346,6.29,20.72,1.47,0.0,57.10,74.68,0,0,0.0055,1
20:05:51.786,227545,8.72,23.62,1.00,0.0,57.10,68.61,0,0,0.0044,1
20:05:51.987,227746,10.85,26.65,2.00,0.0,57.10,66.54,0,0,0.0017,1
20:05:52.187,227946,12.14,28.56,2.87,0.0,57.10,66.10,0,0,0.0010,1
20:05:52.386,228145,12.01,28.16,2.83,0.0,57.10,69.10,0,0,0.0017,1
20:05:52.592,228351,11.15,25.99,2.92,0.0,57.10,71.62,0,0,0.0010,1
20:05:52.793,228552,9.22,21.87,3.29,0.0,57.10,78.19,0,0,0.0036,1
20:05:52.992,228751,7.09,16.91,3.55,0.0,57.10,82.04,0,0,0.0010,1
20:05:53.197,228956,4.91,12.78,6.90,0.0,63.99,87.82,0,0,0.0016,1
20:05:53.397,229156,2.14,8.76,12.79,0.0,74.04,94.36,0,0,0.0010,1
20:05:53.602,229361,-0.53,4.60,16.09,0.0,84.03,97.38,0,0,0.0042,1
20:05:53.807,229566,-2.51,0.68,17.50,0.0,93.11,100.35,0,0,0.0029,1
20:05:54.007,229766,-4.92,-2.69,19.00,0.0,98.07,106.23,0,0,0.0010,1
20:05:54.213,229972,-7.55,-4.53,20.99,0.0,102.15,109.92,0,0,0.0017,1
20:05:54.412,230171,-7.93,-5.58,21.16,0.0,97.83,105.88,0,0,0.0010,1
20:05:54.612,230371,-6.38,-4.01,20.37,0.0,85.82,101.84,0,0,0.0029,1
20:05:54.818,230577,-3.61,-0.34,18.97,0.0,73.79,97.56,0,0,0.0029,1
20:05:55.018,230777,-0.80,4.76,17.68,0.0,59.46,93.61,0,0,0.0061,1
20:05:55.218,230977,1.21,9.05,17.24,0.0,57.10,92.07,0,0,0.0010,1
20:05:55.423,231182,2.78,12.46,17.14,0.0,57.10,89.57,0,0,0.0023,1
20:05:55.623,231382,2.45,12.09,17.41,0.0,64.91,92.46,0,0,0.0010,1
20:05:55.823,231583,0.23,6.82,17.37,0.0,83.73,94.83,0,0,0.0040,1
20:05:56.028,231787,-2.04,0.94,17.46,0.0,95.19,98.71,0,0,0.0010,1
20:05:56.233,231992,-3.20,-1.61,17.80,0.0,83.64,98.77,0,0,0.0062,1
20:05:56.429,232188,-1.69,2.50,17.88,0.0,64.89,97.13,0,0,0.0055,1
20:05:56.634,232393,0.38,8.43,18.38,0.0,57.10,92.98,0,0,0.0017,1
20:05:56.834,232593,2.51,11.67,17.85,0.0,57.17,89.44,0,0,0.0017,1
20:05:57.033,232792,0.85,8.13,17.44,0.0,79.93,96.06,0,0,0.0017,1
20:05:57.234,232993,-1.91,2.22,17.24,0.0,92.55,98.65,0,0,0.0017,1
20:05:57.435,233194,-3.57,-0.77,17.39,0.0,88.79,102.10,0,0,0.0017,1
20:05:57.639,233398,-4.00,-0.59,17.61,0.0,85.45,101.44,0,0,0.0016,1
20:05:57.839,233598,-4.36,-1.02,17.51,0.0,91.32,102.93,0,0,0.0029,1
20:05:58.039,233798,-6.24,-3.52,18.36,0.0,101.47,108.00,0,0,0.0029,1
20:05:58.240,233999,-8.05,-5.69,19.76,0.0,100.83,110.78,0,0,0.0010,1
20:05:58.441,234200,-8.08,-3.84,20.06,0.0,84.10,107.20,0,0,0.0010,1
20:05:58.640,234399,-4.64,0.48,17.38,0.0,75.69,94.41,0,0,0.0029,1
20:05:58.845,234604,3.43,-1.86,11.32,0.0,91.05,66.10,0,0,0.0032,1
20:05:59.046,234805,3.15,-0.99,12.16,0.0,81.18,94.30,0,0,0.0017,1
20:05:59.251,235010,-1.06,1.92,14.99,0.0,80.97,88.73,0,0,0.0040,1
20:05:59.450,235209,1.72,1.01,13.38,0.0,75.90,99.05,0,0,0.0010,1
20:05:59.651,235410,-4.27,4.79,16.06,0.0,72.57,113.06,0,0,0.0035,1
20:05:59.851,235610,-5.01,5.14,16.59,0.0,73.03,104.60,0,0,0.0010,1
20:06:00.051,235810,-7.90,8.15,18.51,0.0,60.54,118.90,0,0,0.0054,1
20:06:00.251,236010,-11.17,11.18,19.62,0.0,63.76,118.90,0,0,0.0010,1
20:06:00.456,236215,-7.52,8.77,17.84,0.0,69.42,100.30,0,0,0.0054,1
20:06:00.657,236416,-6.00,8.02,17.27,0.0,65.23,115.85,0,0,0.0055,1
20:06:00.856,236615,-11.69,11.60,19.67,0.0,60.62,118.90,0,0,0.0016,1
20:06:01.062,236821,-13.80,12.07,20.33,0.0,64.66,118.90,0,0,0.0010,1
20:06:01.262,237021,-12.39,10.68,19.37,0.0,67.17,117.06,0,0,0.0043,1
20:06:01.463,237222,-8.36,7.57,18.10,0.0,74.66,98.99,0,0,0.0010,1
20:06:01.662,237421,-1.73,3.99,19.36,0.0,77.00,78.65,0,0,0.0017,1
20:06:01.863,237622,3.82,1.25,20.70,0.0,81.79,77.04,0,0,0.0010,1
20:06:02.063,237822,4.47,-0.10,20.61,0.0,81.13,82.96,0,0,0.0035,1
20:06:02.268,238027,5.79,2.05,22.68,0.0,70.69,80.98,0,0,0.0010,1
20:06:02.467,238226,5.16,3.19,24.22,0.0,73.66,84.10,0,0,0.0029,1
20:06:02.668,238427,3.31,3.90,22.29,0.0,75.11,96.03,0,0,0.0029,1
20:06:02.873,238632,-1.25,3.94,18.31,0.0,79.90,103.31,0,0,0.0016,1
20:06:03.073,238832,-2.50,2.24,17.30,0.0,82.54,96.96,0,0,0.0016,1
20:06:03.278,239037,-2.28,2.13,25.02,0.0,78.20,99.64,0,0,0.0048,1
20:06:03.477,239236,-3.07,4.41,28.36,0.0,71.02,107.61,0,0,0.0029,1
20:06:03.882,239641,-6.01,4.23,31.16,0.0,82.42,108.51,0,0,0.0016,1
20:06:04.082,239841,-7.88,3.97,31.67,0.0,80.13,118.87,0,0,0.0010,1
20:06:04.288,240047,-8.28,4.89,31.22,0.0,75.58,107.05,0,0,0.0036,1
20:06:04.693,240452,-0.98,0.33,31.78,0.0,84.18,85.55,0,0,0.0029,1
20:06:04.893,240652,2.16,-1.37,32.31,0.0,83.85,79.24,0,0,0.0010,1
20:06:05.092,240851,5.21,-3.09,32.54,0.0,86.82,72.28,0,0,0.0016,1
20:06:05.297,241056,5.73,-3.48,31.96,0.0,86.72,85.85,0,0,0.0024,1
20:06:05.499,241258,0.47,-0.21,31.33,0.0,85.20,110.60,0,0,0.0042,1
20:06:05.704,241463,-7.11,3.39,31.14,0.0,82.79,118.90,0,0,0.0010,1
20:06:06.108,241867,-17.44,8.98,30.05,0.0,73.46,118.90,0,0,0.0016,1
20:06:06.309,242068,-18.21,9.66,29.40,0.0,72.01,118.90,0,0,0.0010,1
20:06:06.509,242268,-19.87,11.55,27.20,0.0,66.25,118.90,0,0,0.0010,1
20:06:06.714,242473,-23.34,14.72,25.43,0.0,60.63,118.90,0,1,0.0010,1
20:06:06.919,242678,-27.15,17.29,24.15,0.0,57.71,118.90,0,0,0.0024,1
20:06:07.124,242883,-29.05,19.20,24.94,0.0,57.10,118.90,0,0,0.0016,1
20:06:07.324,243083,-29.12,20.01,27.93,0.0,58.21,118.90,0,0,0.0010,1
20:06:07.524,243283,-29.95,19.22,28.09,0.0,62.01,118.90,0,0,0.0010,1
20:06:07.725,243484,-30.33,18.63,27.46,0.0,61.34,118.90,0,0,0.0029,1
20:06:07.930,243689,-30.93,17.77,26.56,0.0,65.48,118.90,0,0,0.0055,1
20:06:08.129,243888,-32.37,16.27,25.12,0.0,70.88,118.90,0,0,0.0010,1
20:06:08.329,244088,-34.39,14.06,22.23,0.0,75.76,118.90,0,0,0.0024,1
20:06:08.534,244293,-36.55,11.27,18.56,0.0,80.89,118.90,0,0,0.0010,1
20:06:08.739,244499,-38.32,8.07,16.39,0.0,86.91,118.90,0,0,0.0024,1
20:06:08.940,244699,-40.35,4.10,14.37,0.0,98.36,118.90,0,0,0.0016,1
20:06:09.140,244899,-42.89,-0.68,12.61,0.0,105.31,118.90,0,0,0.0016,1
20:06:09.345,245104,-43.68,-2.85,11.66,0.0,99.50,118.90,0,0,0.0010,1
20:06:09.546,245305,-43.20,-2.64,11.16,0.0,96.30,118.90,0,0,0.0029,1
20:06:09.746,245505,-42.97,-2.61,10.95,0.0,99.71,118.90,0,0,0.0010,1
20:06:09.945,245704,-42.86,-2.97,10.60,0.0,98.42,118.90,0,0,0.0036,1
20:06:10.151,245910,-42.81,-3.46,9.41,0.0,100.50,118.90,0,0,0.0047,1
20:06:10.351,246110,-42.51,-4.80,7.09,0.0,102.55,118.90,0,0,0.0036,1
20:06:10.551,246310,-41.24,-6.76,3.14,0.0,106.17,118.90,0,0,0.0010,1
20:06:10.751,246510,-38.73,-9.59,-2.39,0.0,109.71,118.90,0,0,0.0036,1
20:06:10.951,246710,-35.71,-12.55,-8.44,0.0,109.90,118.90,0,0,0.0029,1
20:06:11.150,246909,-33.02,-15.01,-13.96,0.0,109.90,118.90,0,0,0.0017,1
20:06:11.350,247109,-30.93,-16.86,-18.91,0.0,109.90,118.90,0,0,0.0016,1
20:06:11.551,247311,-28.91,-17.89,-24.06,0.0,109.90,118.90,0,0,0.0036,1
20:06:11.757,247516,-26.10,-18.11,-29.74,0.0,109.90,118.90,0,0,0.0016,1
20:06:11.956,247715,-22.32,-18.13,-36.52,0.0,109.90,118.90,0,0,0.0010,1
20:06:12.161,247920,-18.02,-16.96,-44.60,0.0,108.15,118.90,0,0,0.0031,1
20:06:12.361,248120,-13.04,-14.13,-55.75,0.0,101.31,118.54,0,0,0.0029,1
20:06:12.566,248325,-9.34,-10.59,-65.06,0.0,94.71,114.91,0,0,0.0016,1
20:06:12.766,248525,-6.95,-8.81,-70.37,0.0,95.66,111.57,0,0,0.0010,1
20:06:12.972,248731,-3.37,-7.55,-75.60,0.0,99.32,103.89,0,0,0.0035,1
20:06:13.172,248931,0.07,-5.68,-80.48,0.0,97.91,95.03,0,0,0.0010,1
20:06:13.372,249131,0.64,-3.30,-85.92,0.0,86.49,90.54,0,0,0.0010,1
20:06:13.577,249336,-0.67,-2.06,-92.46,0.0,80.87,98.42,0,0,0.0055,1
20:06:13.778,249537,-2.40,-4.23,-97.61,0.0,83.43,109.52,0,0,0.0016,1
20:06:13.977,249736,-2.64,-6.19,-100.48,0.0,89.47,109.43,0,0,0.0017,1
20:06:14.177,249936,-0.47,-5.74,-102.26,0.0,96.19,100.13,0,0,0.0017,1
20:06:14.377,250136,1.10,-2.83,-105.12,0.0,94.75,87.50,0,0,0.0010,1
20:06:14.582,250342,2.10,1.84,-108.48,0.0,89.87,77.71,0,0,0.0010,1
20:06:14.782,250541,2.75,4.09,-109.68,0.0,83.09,82.91,0,0,0.0010,1
20:06:14.987,250747,3.13,3.70,-109.16,0.0,86.21,79.55,0,0,0.0010,1
20:06:15.188,250947,2.98,5.99,-108.19,0.0,79.88,71.86,0,0,0.0055,1
20:06:15.388,251147,1.41,6.38,-105.07,0.0,73.99,80.42,0,0,0.0017,1
20:06:15.588,251347,0.78,5.14,-103.23,0.0,79.24,85.44,0,0,0.0055,1
20:06:15.793,251552,1.95,4.16,-102.29,0.0,83.16,85.55,0,0,0.0010,1
20:06:15.993,251752,3.30,2.97,-100.33,0.0,86.51,88.07,0,0,0.0036,1
20:06:16.192,251951,2.39,-0.67,-93.28,0.0,80.52,101.87,1,0,0.0010,1
20:06:16.392,252151,-1.66,-6.85,-76.25,0.0,87.29,118.90,0,0,0.0035,1
20:06:16.598,252357,-5.29,-11.58,-56.80,0.0,98.63,118.90,0,0,0.0010,1
20:06:16.798,252557,-8.83,-13.94,-39.03,0.0,99.90,118.90,0,0,0.0029,1
20:06:16.998,252757,-13.25,-11.74,-23.76,0.0,90.77,118.90,0,0,0.0016,1
20:06:17.199,252958,-15.74,-7.17,-10.18,0.0,83.76,118.90,0,0,0.0024,1
20:06:17.399,253158,-16.88,-2.39,2.39,0.0,79.94,118.90,0,0,0.0024,1
20:06:17.599,253358,-16.82,1.54,15.19,0.0,77.70,118.90,0,0,0.0043,1
20:06:17.799,253558,-14.73,3.22,24.39,0.0,78.50,118.90,0,0,0.0023,1
20:06:18.005,253764,-11.63,4.04,30.85,0.0,77.74,111.57,0,0,0.0017,1
20:06:18.205,253964,-7.08,3.61,32.84,0.0,75.90,100.32,0,0,0.0010,1
20:06:18.405,254164,-4.09,0.97,32.68,0.0,87.69,93.80,0,0,0.0017,1
20:06:18.604,254363,-3.41,-1.72,32.59,0.0,92.24,99.02,0,0,0.0016,1
20:06:18.805,254564,-4.45,-0.92,32.97,0.0,86.06,106.12,0,0,0.0039,1
20:06:19.005,254764,-4.11,0.65,32.52,0.0,80.94,100.96,0,0,0.0010,1
20:06:19.206,254965,-3.75,1.59,34.01,0.0,83.13,103.11,0,0,0.0042,1
20:06:19.411,255170,-4.25,0.06,34.86,0.0,91.29,96.47,0,0,0.0010,1
20:06:19.615,255374,-2.73,-2.64,35.90,0.0,89.65,90.14,0,0,0.0017,1
20:06:19.815,255574,-0.73,-2.42,35.33,0.0,86.06,91.36,0,0,0.0039,1
20:06:20.021,255780,-0.84,-1.89,35.19,0.0,88.69,95.17,0,0,0.0010,1
20:06:20.221,255980,-1.86,-1.46,35.17,0.0,88.47,97.29,0,0,0.0029,1
20:06:20.421,256180,-1.85,-1.50,35.57,0.0,87.08,93.91,0,0,0.0029,1
20:06:20.626,256385,-1.27,-1.49,35.47,0.0,87.82,93.41,0,0,0.0043,1
20:06:20.826,256585,-1.20,-1.95,35.63,0.0,88.49,93.04,0,0,0.0017,1
20:06:21.026,256785,-0.37,-0.76,34.95,0.0,77.06,93.46,0,0,0.0010,1
20:06:21.226,256985,2.38,3.67,33.03,0.0,60.17,90.04,0,0,0.0010,1
20:06:21.431,257190,5.15,7.93,31.74,0.0,57.10,85.47,0,0,0.0010,1
20:06:21.631,257390,5.81,8.42,31.83,0.0,64.23,85.07,0,0,0.0029,1
20:06:21.837,257596,4.70,7.49,32.64,0.0,65.32,88.95,0,0,0.0016,1
20:06:22.042,257801,4.43,7.82,32.38,0.0,66.12,87.12,0,0,0.0016,1
20:06:22.247,258006,1.95,3.03,33.36,0.0,96.23,89.52,0,0,0.0036,1
20:06:22.447,258206,-3.73,-5.57,36.46,0.0,109.90,96.16,0,0,0.0017,1
20:06:22.648,258407,-8.33,-11.68,40.38,0.0,109.90,100.51,0,0,0.0016,1
20:06:22.847,258606,-8.79,-12.36,41.05,0.0,109.90,101.17,0,0,0.0055,1
20:06:23.052,258811,-8.31,-11.61,40.37,0.0,109.90,102.06,0,0,0.0010,1
20:06:23.252,259011,-8.01,-9.13,39.15,0.0,101.57,108.23,0,0,0.0036,1
20:06:23.452,259211,-9.00,-4.85,37.10,0.0,94.41,118.80,1,0,0.0010,1
20:06:23.652,259411,-12.49,0.40,35.50,0.0,87.17,118.90,0,0,0.0017,1
20:06:23.853,259612,-18.34,5.96,33.91,0.0,80.33,118.90,0,0,0.0010,1
20:06:24.053,259812,-22.75,10.08,33.39,0.0,75.11,118.90,1,0,0.0017,1
20:06:24.252,260011,-23.63,11.24,33.31,0.0,73.95,118.90,0,0,0.0010,1
20:06:24.453,260212,-21.88,9.86,33.76,0.0,78.17,118.90,0,0,0.0035,1
20:06:24.658,260417,-18.97,7.96,34.75,0.0,78.06,118.90,1,0,0.0029,1
20:06:24.863,260622,-17.53,7.44,35.64,0.0,78.45,118.90,0,0,0.0010,1
20:06:25.064,260823,-17.45,8.47,36.54,0.0,76.03,118.90,0,0,0.0017,1
20:06:25.262,261021,-16.97,8.50,36.67,0.0,78.34,118.90,0,0,0.0035,1
20:06:25.462,261221,-15.31,5.12,34.79,0.0,88.24,118.90,0,0,0.0010,1
20:06:25.668,261427,-13.44,2.74,34.15,0.0,85.40,118.90,0,0,0.0042,1
20:06:25.868,261627,-14.09,3.97,33.22,0.0,83.61,118.90,0,0,0.0010,1
20:06:26.069,261828,-17.16,5.80,32.64,0.0,81.75,118.90,0,0,0.0010,1
20:06:26.274,262033,-17.43,6.61,33.60,0.0,78.50,118.90,1,0,0.0010,1
20:06:26.674,262433,-3.16,-1.92,35.30,0.0,87.96,78.08,0,0,0.0036,1
20:06:26.873,262632,3.99,-5.43,33.64,0.0,88.82,66.10,0,0,0.0010,1
20:06:27.073,262832,9.76,-7.92,31.91,0.0,94.09,66.10,0,0,0.0017,1
20:06:27.279,263038,12.37,-9.66,31.25,0.0,97.59,66.10,0,0,0.0010,1
20:06:27.484,263243,11.83,-10.29,31.34,0.0,100.78,66.10,0,0,0.0023,1
20:06:27.684,263443,9.31,-9.11,30.86,0.0,96.85,75.67,0,0,0.0010,1
20:06:27.885,263644,5.55,-6.55,30.33,0.0,92.88,89.93,0,0,0.0016,1
20:06:28.090,263849,0.80,-3.34,30.47,0.0,91.36,99.49,0,0,0.0010,1
20:06:28.295,264054,-2.06,-1.84,31.47,0.0,87.14,101.57,0,0,0.0036,1
20:06:28.495,264254,-4.11,-0.14,31.41,0.0,87.09,105.71,0,0,0.0055,1
20:06:28.696,264455,-4.97,0.94,30.24,0.0,81.21,106.41,0,0,0.0036,1
20:06:28.900,264659,-4.94,1.91,29.62,0.0,81.83,104.10,0,0,0.0016,1
20:06:29.101,264860,-4.88,2.10,30.36,0.0,80.87,105.78,0,0,0.0010,1
20:06:29.301,265060,-5.99,2.49,32.12,0.0,84.80,108.13,0,0,0.0017,1
20:06:29.505,265264,-6.75,1.58,33.89,0.0,85.00,108.55,1,0,0.0029,1
20:06:29.706,265465,-6.21,1.79,34.22,0.0,81.59,105.41,0,0,0.0016,1
20:06:29.906,265665,-4.92,2.36,35.03,0.0,78.24,103.14,0,0,0.0023,1
20:06:30.112,265871,-4.51,3.45,36.87,0.0,78.36,105.87,0,0,0.0016,1
20:06:30.312,266071,-4.31,3.74,41.30,0.0,77.65,103.29,0,0,0.0010,1
20:06:30.516,266275,-3.37,4.19,44.86,0.0,75.43,103.24,0,0,0.0010,1
20:06:30.722,266481,-3.26,4.25,50.22,0.0,78.29,102.54,0,0,0.0036,1
20:06:30.921,266680,-3.62,4.48,53.79,0.0,77.83,106.40,0,0,0.0017,1
20:06:31.121,266880,-3.91,5.17,56.53,0.0,77.64,108.61,0,0,0.0017,1
20:06:31.326,267085,-5.61,5.62,59.08,0.0,83.01,110.81,0,0,0.0010,1
20:06:31.527,267286,-7.33,4.25,53.56,0.0,87.79,109.20,0,0,0.0023,1
20:06:31.726,267485,-7.38,2.25,45.11,0.0,86.61,104.35,0,0,0.0029,1
20:06:31.932,267691,-6.50,0.52,40.35,0.0,89.44,102.26,0,0,0.0016,1
20:06:32.132,267891,-5.32,-2.35,36.13,0.0,97.32,96.57,0,0,0.0023,1
20:06:32.332,268091,-4.71,-4.38,33.85,0.0,96.19,96.75,0,0,0.0016,1
20:06:32.533,268292,-3.56,-6.15,32.23,0.0,99.65,92.11,0,0,0.0016,1
20:06:32.732,268491,-2.46,-6.38,30.54,0.0,93.91,92.94,0,0,0.0016,1
20:06:32.932,268691,-1.35,-2.83,28.33,0.0,79.65,99.58,0,0,0.0010,1
20:06:33.132,268891,-2.04,-0.80,27.31,0.0,88.81,97.10,1,0,0.0016,1
20:06:33.333,269092,-2.79,-2.39,26.98,0.0,93.70,97.02,0,0,0.0016,1
20:06:33.532,269291,-2.38,-2.75,27.53,0.0,87.08,95.54,0,0,0.0016,1
20:06:33.738,269497,-1.72,-0.69,27.11,0.0,82.37,97.32,0,0,0.0010,1
20:06:33.938,269697,-1.51,-0.35,26.79,0.0,84.69,94.57,1,0,0.0029,1
20:06:34.143,269902,-1.21,0.32,26.60,0.0,80.27,96.99,0,0,0.0036,1
20:06:34.343,270102,-1.55,2.09,26.35,0.0,77.25,98.28,0,0,0.0017,1
20:06:34.543,270302,-1.08,2.41,26.85,0.0,79.32,95.17,0,0,0.0055,1
20:06:34.743,270502,-1.51,2.31,26.72,0.0,79.28,97.68,0,0,0.0010,1
20:06:34.948,270707,-1.06,1.94,27.31,0.0,80.67,95.11,0,0,0.0016,1
20:06:35.153,270912,-2.82,2.95,26.88,0.0,77.10,105.62,0,0,0.0010,1
20:06:35.353,271112,-2.64,2.95,26.96,0.0,80.35,91.11,0,0,0.0029,1
20:06:35.553,271312,0.83,-0.12,28.24,0.0,85.42,82.46,0,0,0.0029,1
20:06:35.753,271512,-0.17,0.10,28.57,0.0,83.21,105.10,0,0,0.0029,1
20:06:35.954,271713,-3.26,1.62,27.15,0.0,83.22,97.25,0,0,0.0010,1
20:06:36.154,271913,0.47,-1.01,28.02,0.0,85.81,79.91,0,0,0.0029,1
20:06:36.353,272112,0.46,-0.42,28.88,0.0,82.26,106.01,0,0,0.0010,1
20:06:36.559,272318,-3.61,2.65,27.17,0.0,77.67,102.25,0,0,0.0016,1
20:06:36.759,272518,0.35,1.12,28.25,0.0,80.86,76.86,0,0,0.0010,1
20:06:36.964,272723,2.37,-0.01,29.27,0.0,82.75,99.21,0,0,0.0035,1
20:06:37.164,272923,-2.59,2.12,27.31,0.0,81.56,101.75,0,0,0.0029,1
20:06:37.369,273128,0.74,-0.13,27.78,0.0,84.97,75.10,0,0,0.0024,1
20:06:37.568,273327,3.77,-1.09,29.42,0.0,78.62,86.44,0,0,0.0023,1
20:06:37.775,273534,3.89,2.37,28.49,0.0,70.73,87.52,0,0,0.0046,1
20:06:37.974,273733,2.00,-0.58,27.14,0.0,100.42,87.82,0,0,0.0010,1
20:06:38.174,273933,-0.92,-5.95,26.27,0.0,103.24,92.05,0,0,0.0029,1
20:06:38.375,274134,0.18,-4.28,27.13,0.0,84.63,89.02,0,0,0.0029,1
20:06:38.580,274339,3.91,3.42,28.44,0.0,63.79,88.30,0,0,0.0047,1
20:06:38.780,274539,2.14,2.04,28.12,0.0,96.02,88.96,0,0,0.0055,1
20:06:38.979,274739,-1.91,-6.04,27.68,0.0,109.90,92.99,0,0,0.0016,1
20:06:39.180,274939,-3.15,-8.51,27.95,0.0,96.49,94.84,0,0,0.0036,1
20:06:39.380,275139,0.88,-1.58,28.38,0.0,64.85,88.93,0,0,0.0016,1
20:06:39.586,275345,3.60,3.93,28.49,0.0,73.28,89.21,0,0,0.0017,1
20:06:39.786,275545,-0.12,-0.57,28.02,0.0,106.72,93.71,0,0,0.0010,1
20:06:39.986,275745,-4.32,-8.18,27.77,0.0,109.90,96.18,0,0,0.0036,1
20:06:40.191,275950,-2.88,-6.93,26.86,0.0,79.94,94.33,0,1,0.0010,1
20:06:40.391,276150,1.17,2.12,27.02,0.0,59.92,95.74,0,0,0.0035,1
