Timestamp,ElapsedMillis,Yaw,Pitch,Roll,Altitude,YawServo,PitchServo,Pyro1,Pyro2,DeltaTime,State
19:08:29.873,10176,0.48,-0.46,-0.00,0.0,83.50,92.50,1,0,11.1625,0
19:08:29.875,10178,0.48,-0.47,-0.01,0.0,83.50,92.50,1,0,0.0010,0
19:08:29.877,10180,0.48,-0.46,0.01,0.0,83.50,92.50,1,0,0.0029,0
19:08:29.888,10191,0.47,-0.47,0.01,0.0,83.50,92.50,1,0,0.0047,0
19:08:29.890,10193,0.47,-0.47,-0.01,0.0,83.50,92.50,1,0,0.0010,0
19:08:30.072,10375,0.47,-0.47,-0.01,0.0,83.50,92.50,1,0,0.0048,0
19:08:30.272,10575,0.47,-0.47,-0.01,0.0,83.50,92.50,1,0,0.0029,0
19:08:30.473,10776,0.47,-0.47,-0.01,0.0,83.50,92.50,1,0,0.0029,0
19:08:30.673,10976,0.47,-0.47,-0.01,0.0,83.50,92.50,1,0,0.0029,0
19:08:30.879,11182,0.47,-0.47,-0.01,0.0,83.50,92.50,1,0,0.0017,0
19:08:31.083,11386,0.47,-0.47,-0.01,0.0,83.50,92.50,1,0,0.0029,0
19:08:31.284,11587,0.47,-0.47,-0.01,0.0,83.50,92.50,1,0,0.0016,0
19:08:31.483,11786,0.47,-0.47,-0.01,0.0,83.50,92.50,1,0,0.0062,0
19:08:31.688,11991,0.47,-0.47,-0.01,0.0,83.50,92.50,1,0,0.0024,0
19:08:31.889,12192,0.47,-0.47,-0.01,0.0,83.50,92.50,1,0,0.0010,0
19:08:32.089,12392,0.47,-0.47,-0.01,0.0,83.50,92.50,1,0,0.0016,0
19:08:32.289,12592,0.47,-0.47,-0.01,0.0,83.50,92.50,1,0,0.0010,0
19:08:32.489,12793,0.47,-0.47,-0.01,0.0,83.50,92.50,1,0,0.0055,0
19:08:32.690,12993,0.47,-0.47,-0.01,0.0,83.50,92.50,1,0,0.0010,0
19:08:32.888,13191,0.47,-0.47,-0.01,0.0,83.50,92.50,1,0,0.0017,0
19:08:33.094,13397,0.47,-0.47,-0.01,0.0,83.50,92.50,1,0,0.0010,0
19:08:33.294,13597,0.47,-0.47,-0.01,0.0,83.50,92.50,1,0,0.0029,0
19:08:33.494,13797,0.47,-0.47,-0.01,0.0,83.50,92.50,1,0,0.0010,0
19:08:33.694,13997,0.47,-0.47,-0.01,0.0,83.50,92.50,1,0,0.0054,0
19:08:33.895,14198,0.47,-0.47,-0.01,0.0,83.50,92.50,1,0,0.0036,0
19:08:34.100,14403,0.47,-0.47,-0.01,0.0,83.50,92.50,1,0,0.0055,0
19:08:34.299,14602,0.47,-0.47,-0.01,0.0,83.50,92.50,1,0,0.0010,0
19:08:34.505,14808,0.47,-0.47,-0.01,0.0,83.50,92.50,1,0,0.0036,0
19:08:34.705,15009,0.47,-0.47,-0.01,0.0,83.50,92.50,1,0,0.0029,0
19:08:34.910,15213,0.47,-0.47,-0.01,0.0,83.50,92.50,1,0,0.0024,0
19:08:35.112,15415,0.47,-0.47,-0.01,0.0,83.50,92.50,1,0,0.0024,0
19:08:35.311,15614,0.47,-0.47,-0.01,0.0,83.50,92.50,1,0,0.0024,0
19:08:35.511,15815,0.47,-0.47,-0.01,0.0,83.50,92.50,1,0,0.0010,0
19:08:35.715,16018,0.47,-0.47,-0.01,0.0,83.50,92.50,1,0,0.0042,0
19:08:35.921,16224,0.47,-0.47,-0.01,0.0,83.50,92.50,1,0,0.0029,0
19:08:36.121,16424,0.47,-0.47,-0.01,0.0,83.50,92.50,1,0,0.0016,0
19:08:36.321,16624,0.47,-0.47,-0.01,0.0,83.50,92.50,1,0,0.0023,0
19:08:36.520,16823,0.47,-0.47,-0.01,0.0,83.50,92.50,1,0,0.0024,0
19:08:36.722,17025,0.47,-0.47,-0.01,0.0,83.50,92.50,1,0,0.0023,0
19:08:36.926,17229,0.47,-0.47,-0.01,0.0,83.50,92.50,1,0,0.0043,0
19:08:37.126,17429,0.47,-0.47,-0.01,0.0,83.50,92.50,1,0,0.0010,0
19:08:37.327,17630,0.47,-0.47,-0.01,0.0,83.50,92.50,1,0,0.0018,0
19:08:37.527,17830,0.47,-0.47,-0.01,0.0,83.50,92.50,1,0,0.0023,0
19:08:37.726,18029,0.47,-0.47,-0.01,0.0,83.50,92.50,1,0,0.0017,0
19:08:37.927,18230,0.47,-0.47,-0.01,0.0,83.50,92.50,1,0,0.0017,0
19:08:38.127,18430,0.47,-0.47,-0.01,0.0,83.50,92.50,1,0,0.0017,0
19:08:38.326,18629,0.47,-0.47,-0.01,0.0,83.50,92.50,1,0,0.0010,0
19:08:38.526,18829,0.47,-0.47,-0.01,0.0,83.50,92.50,1,0,0.0036,0
19:08:38.732,19035,0.47,-0.47,-0.01,0.0,83.50,92.50,1,0,0.0010,0
19:08:38.932,19236,0.47,-0.47,-0.01,0.0,83.50,92.50,1,0,0.0036,0
19:08:39.133,19436,0.47,-0.47,-0.01,0.0,83.50,92.50,1,0,0.0036,0
19:08:39.336,19639,0.47,-0.47,-0.01,0.0,83.50,92.50,1,0,0.0016,0
19:08:39.537,19840,0.47,-0.47,-0.01,0.0,83.50,92.50,1,0,0.0010,0
19:08:39.737,20040,0.47,-0.47,-0.01,0.0,83.50,92.50,1,0,0.0023,0
19:08:39.937,20240,0.47,-0.47,-0.01,0.0,83.50,92.50,1,0,0.0010,0
19:08:40.142,20445,0.47,-0.47,-0.01,0.0,83.50,92.50,1,0,0.0036,0
19:08:40.343,20647,0.47,-0.47,-0.01,0.0,83.50,92.50,1,0,0.0010,0
19:08:40.542,20845,0.47,-0.47,-0.01,0.0,83.50,92.50,1,0,0.0029,0
19:08:40.742,21046,0.47,-0.47,-0.01,0.0,83.50,92.50,1,0,0.0029,0
19:08:40.947,21250,0.47,-0.47,-0.01,0.0,83.50,92.50,1,0,0.0023,0
19:08:41.147,21450,0.47,-0.47,-0.01,0.0,83.50,92.50,1,0,0.0023,0
19:08:41.348,21651,0.47,-0.47,-0.01,0.0,83.50,92.50,1,0,0.0016,0
19:08:41.558,21861,0.47,-0.47,-0.02,0.0,83.50,92.50,1,0,0.0010,0
19:08:41.758,22061,0.48,-0.46,-0.03,0.0,83.50,92.50,1,0,0.0036,0
19:08:41.958,22261,0.48,-0.48,-0.02,0.0,83.50,92.50,1,0,0.0029,0
19:08:42.157,22460,0.48,-0.49,-0.02,0.0,83.50,92.50,1,0,0.0018,0
19:08:42.363,22666,0.47,-0.49,-0.03,0.0,83.50,92.50,1,0,0.0024,0
19:08:42.568,22871,0.47,-0.48,-0.03,0.0,83.50,92.50,1,0,0.0010,0
19:08:42.768,23071,0.47,-0.48,-0.03,0.0,83.50,92.50,1,0,0.0029,0
19:08:42.969,23272,0.47,-0.48,-0.03,0.0,83.50,92.50,1,0,0.0010,0
19:08:43.169,23472,0.47,-0.48,-0.03,0.0,83.50,92.50,1,0,0.0029,0
19:08:43.369,23672,0.47,-0.48,-0.03,0.0,83.50,92.50,1,0,0.0017,0
19:08:43.569,23872,0.47,-0.48,-0.03,0.0,83.50,92.50,1,0,0.0024,0
19:08:43.774,24077,0.47,-0.48,-0.03,0.0,83.50,92.50,1,0,0.0035,0
19:08:43.974,24277,0.47,-0.48,-0.03,0.0,83.50,92.50,1,0,0.0010,0
19:08:44.176,24479,0.47,-0.48,-0.03,0.0,83.50,92.50,1,0,0.0048,0
19:08:44.380,24683,0.47,-0.48,-0.03,0.0,83.50,92.50,1,0,0.0010,0
19:08:44.579,24882,0.47,-0.48,-0.03,0.0,83.50,92.50,1,0,0.0010,0
19:08:44.784,25087,0.47,-0.48,-0.03,0.0,83.50,92.50,1,0,0.0036,0
19:08:44.985,25288,0.47,-0.48,-0.03,0.0,83.50,92.50,1,0,0.0010,0
19:08:45.190,25493,0.47,-0.48,-0.03,0.0,83.50,92.50,1,0,0.0010,0
19:08:45.390,25693,0.47,-0.48,-0.03,0.0,83.50,92.50,1,0,0.0010,0
19:08:45.594,25897,0.47,-0.48,-0.03,0.0,83.50,92.50,1,0,0.0017,0
19:08:45.795,26098,0.47,-0.48,-0.03,0.0,83.50,92.50,1,0,0.0016,0
19:08:45.995,26298,0.47,-0.48,-0.03,0.0,83.50,92.50,1,0,0.0017,0
19:08:46.194,26497,0.47,-0.48,-0.03,0.0,83.50,92.50,1,0,0.0010,0
19:08:46.395,26698,0.47,-0.48,-0.03,0.0,83.50,92.50,1,0,0.0016,0
19:08:46.595,26898,0.47,-0.48,-0.03,0.0,83.50,92.50,1,0,0.0010,0
19:08:46.796,27099,0.47,-0.48,-0.03,0.0,83.50,92.50,1,0,0.0036,0
19:08:47.000,27303,0.47,-0.48,-0.03,0.0,83.50,92.50,1,0,0.0010,0
19:08:47.205,27508,0.47,-0.48,-0.03,0.0,83.50,92.50,1,0,0.0024,0
19:08:47.406,27709,0.47,-0.48,-0.03,0.0,83.50,92.50,1,0,0.0010,0
19:08:47.606,27909,0.47,-0.48,-0.03,0.0,83.50,92.50,1,0,0.0017,0
19:08:47.805,28108,0.47,-0.48,-0.03,0.0,83.50,92.50,1,0,0.0010,0
19:08:48.006,28309,0.47,-0.48,-0.03,0.0,83.50,92.50,1,0,0.0016,0
19:08:48.212,28515,0.47,-0.48,-0.03,0.0,83.50,92.50,1,0,0.0010,0
19:08:48.411,28714,0.47,-0.49,-0.03,0.0,83.50,92.50,1,0,0.0035,0
19:08:48.611,28914,0.51,-0.45,-0.03,0.0,83.50,92.50,1,0,0.0010,0
19:08:48.811,29114,0.51,-0.46,-0.03,0.0,83.50,92.50,1,0,0.0035,0
19:08:49.017,29320,0.52,-0.45,-0.02,0.0,83.50,92.50,1,0,0.0010,0
19:08:49.217,29520,0.52,-0.45,-0.02,0.0,83.50,92.50,1,0,0.0024,0
19:08:49.417,29720,0.53,-0.45,-0.03,0.0,83.50,92.50,1,0,0.0016,0
19:08:49.618,29921,0.54,-0.45,-0.04,0.0,83.50,92.50,1,0,0.0036,0
19:08:49.818,30121,0.54,-0.44,-0.02,0.0,83.50,92.50,1,0,0.0010,0
19:08:50.019,30322,0.55,-0.42,-0.03,0.0,83.50,92.50,1,0,0.0062,0
19:08:50.219,30522,0.57,-0.41,-0.03,0.0,83.50,92.50,1,0,0.0010,0
19:08:50.420,30723,0.56,-0.42,-0.04,0.0,83.50,92.50,1,0,0.0036,0
19:08:50.620,30923,0.56,-0.42,-0.04,0.0,83.50,92.50,1,0,0.0010,0
19:08:50.824,31127,0.56,-0.42,-0.04,0.0,83.50,92.50,1,0,0.0036,0
19:08:51.031,31334,0.56,-0.42,-0.04,0.0,83.50,92.50,1,0,0.0029,0
19:08:51.230,31533,0.56,-0.43,-0.03,0.0,83.50,92.50,1,0,0.0024,0
19:08:51.430,31733,0.56,-0.43,-0.03,0.0,83.50,92.50,1,0,0.0023,0
19:08:51.631,31934,0.57,-0.43,-0.04,0.0,83.50,92.50,1,0,0.0016,0
19:08:51.830,32133,0.56,-0.44,-0.05,0.0,83.50,92.50,1,0,0.0016,0
19:08:52.036,32339,0.57,-0.43,-0.04,0.0,83.50,92.50,1,0,0.0016,0
19:08:52.236,32539,0.57,-0.43,-0.04,0.0,83.50,92.50,1,0,0.0010,0
19:08:52.435,32738,0.57,-0.43,-0.04,0.0,83.50,92.50,1,0,0.0018,0
19:08:52.636,32939,0.57,-0.43,-0.04,0.0,83.50,92.50,1,0,0.0010,0
19:08:52.836,33139,0.57,-0.42,-0.04,0.0,83.50,92.50,1,0,0.0016,0
19:08:53.036,33339,0.56,-0.41,-0.02,0.0,83.50,92.50,1,0,0.0010,0
19:08:53.241,33544,0.56,-0.43,-0.02,0.0,83.50,92.50,1,0,0.0047,0
19:08:53.441,33744,0.55,-0.43,-0.02,0.0,83.50,92.50,1,0,0.0010,0
19:08:53.640,33943,0.54,-0.41,-0.03,0.0,83.50,92.50,1,0,0.0024,0
19:08:53.842,34145,0.55,-0.40,-0.04,0.0,83.50,92.50,1,0,0.0055,0
19:08:54.046,34350,0.55,-0.40,-0.04,0.0,83.50,92.50,1,0,0.0055,0
19:08:54.246,34549,0.55,-0.40,-0.04,0.0,83.50,92.50,1,0,0.0024,0
19:08:54.446,34749,0.55,-0.40,-0.04,0.0,83.50,92.50,1,0,0.0024,0
19:08:54.647,34950,0.55,-0.40,-0.04,0.0,83.50,92.50,1,0,0.0016,0
19:08:54.846,35149,0.55,-0.40,-0.04,0.0,83.50,92.50,1,0,0.0017,0
19:08:55.047,35350,0.55,-0.40,-0.04,0.0,83.50,92.50,1,0,0.0010,0
19:08:55.252,35555,0.55,-0.40,-0.04,0.0,83.50,92.50,1,0,0.0035,0
19:08:55.452,35755,0.55,-0.40,-0.04,0.0,83.50,92.50,1,0,0.0010,0
19:08:55.653,35956,0.55,-0.40,-0.04,0.0,83.50,92.50,1,0,0.0060,0
19:08:55.853,36156,0.55,-0.40,-0.04,0.0,83.50,92.50,1,0,0.0029,0
19:08:56.058,36361,0.55,-0.40,-0.04,0.0,83.50,92.50,1,0,0.0017,0
19:08:56.257,36560,0.55,-0.40,-0.04,0.0,83.50,92.50,1,0,0.0016,0
19:08:56.457,36760,0.55,-0.40,-0.04,0.0,83.50,92.50,1,0,0.0016,0
19:08:56.662,36965,0.55,-0.40,-0.04,0.0,83.50,92.50,1,0,0.0010,0
19:08:56.863,37166,0.55,-0.40,-0.04,0.0,83.50,92.50,1,0,0.0029,0
19:08:57.068,37371,0.55,-0.40,-0.04,0.0,83.50,92.50,1,0,0.0010,0
19:08:57.267,37570,0.55,-0.40,-0.04,0.0,83.50,92.50,1,0,0.0017,0
19:08:57.468,37771,0.55,-0.40,-0.04,0.0,83.50,92.50,1,0,0.0010,0
19:08:57.668,37971,0.55,-0.40,-0.04,0.0,83.50,92.50,1,0,0.0043,0
19:08:57.868,38171,0.55,-0.40,-0.04,0.0,83.50,92.50,1,0,0.0010,0
19:08:58.069,38372,0.55,-0.40,-0.04,0.0,83.50,92.50,1,0,0.0017,0
19:08:58.269,38572,0.55,-0.40,-0.04,0.0,83.50,92.50,1,0,0.0024,0
19:08:58.470,38773,0.55,-0.40,-0.04,0.0,83.50,92.50,1,0,0.0017,0
19:08:58.674,38977,0.55,-0.40,-0.04,0.0,83.50,92.50,1,0,0.0010,0
19:08:58.873,39176,0.55,-0.40,-0.04,0.0,83.50,92.50,1,0,0.0036,0
19:08:59.080,39383,0.55,-0.40,-0.04,0.0,83.50,92.50,1,0,0.0029,0
19:08:59.280,39583,0.55,-0.40,-0.04,0.0,83.50,92.50,1,0,0.0036,0
19:08:59.479,39782,0.55,-0.40,-0.04,0.0,83.50,92.50,1,0,0.0055,0
19:08:59.679,39982,0.55,-0.40,-0.04,0.0,83.50,92.50,1,0,0.0043,0
19:08:59.880,40183,0.55,-0.39,-0.06,0.0,83.50,92.50,1,0,0.0024,0
19:09:00.084,40387,0.55,-0.39,-0.03,0.0,83.50,92.50,1,0,0.0024,0
19:09:00.285,40588,0.55,-0.39,-0.02,0.0,83.50,92.50,1,0,0.0010,0
19:09:00.484,40787,0.54,-0.37,-0.03,0.0,83.50,92.50,1,0,0.0038,0
19:09:00.684,40987,0.55,-0.35,-0.04,0.0,83.50,92.50,1,0,0.0010,0
19:09:00.884,41187,0.55,-0.35,-0.04,0.0,83.50,92.50,1,0,0.0043,0
19:09:01.085,41388,0.55,-0.35,-0.04,0.0,83.50,92.50,1,0,0.0010,0
19:09:01.285,41588,0.55,-0.35,-0.04,0.0,83.50,92.50,1,0,0.0036,0
19:09:01.486,41789,0.55,-0.35,-0.04,0.0,83.50,92.50,1,0,0.0010,0
19:09:01.690,41993,0.55,-0.35,-0.04,0.0,83.50,92.50,1,0,0.0035,0
19:09:01.891,42194,0.55,-0.35,-0.04,0.0,83.50,92.50,1,0,0.0029,0
19:09:02.096,42399,0.55,-0.35,-0.04,0.0,83.50,92.50,1,0,0.0017,0
19:09:02.296,42600,0.55,-0.35,-0.04,0.0,83.50,92.50,1,0,0.0024,0
19:09:02.496,42799,0.55,-0.35,-0.04,0.0,83.50,92.50,1,0,0.0023,0
19:09:02.696,42999,0.55,-0.35,-0.04,0.0,83.50,92.50,1,0,0.0023,0
19:09:02.896,43199,0.55,-0.35,-0.04,0.0,83.50,92.50,1,0,0.0036,0
19:09:03.096,43399,0.55,-0.35,-0.04,0.0,83.50,92.50,1,0,0.0018,0
19:09:03.297,43600,0.55,-0.35,-0.04,0.0,83.50,92.50,1,0,0.0017,0
19:09:03.496,43799,0.55,-0.35,-0.04,0.0,83.50,92.50,1,0,0.0010,0
19:09:03.702,44005,0.55,-0.35,-0.04,0.0,83.50,92.50,1,0,0.0036,0
19:09:03.902,44205,0.57,-0.32,-0.04,0.0,83.50,92.50,1,0,0.0010,0
19:09:04.102,44405,0.60,-0.30,-0.05,0.0,83.50,92.50,1,0,0.0035,0
19:09:04.302,44605,0.61,-0.32,-0.05,0.0,83.50,92.50,1,0,0.0029,0
19:09:04.508,44811,0.60,-0.33,-0.06,0.0,83.50,92.50,1,0,0.0024,0
19:09:04.707,45010,0.60,-0.34,-0.05,0.0,83.50,92.50,1,0,0.0036,0
19:09:04.908,45212,0.59,-0.34,-0.07,0.0,83.50,92.50,1,0,0.0016,0
19:09:05.108,45411,0.59,-0.35,-0.07,0.0,83.50,92.50,1,0,0.0024,0
19:09:05.307,45610,0.59,-0.35,-0.07,0.0,83.50,92.50,1,0,0.0010,0
19:09:05.508,45811,0.59,-0.35,-0.07,0.0,83.50,92.50,1,0,0.0010,0
19:09:05.708,46011,0.59,-0.35,-0.07,0.0,83.50,92.50,1,0,0.0036,0
19:09:05.909,46212,0.59,-0.35,-0.07,0.0,83.50,92.50,1,0,0.0018,0
19:09:06.109,46412,0.59,-0.35,-0.07,0.0,83.50,92.50,1,0,0.0036,0
19:09:06.314,46617,0.59,-0.35,-0.07,0.0,83.50,92.50,1,0,0.0010,0
19:09:06.513,46816,0.59,-0.35,-0.07,0.0,83.50,92.50,1,0,0.0036,0
19:09:06.715,47018,0.59,-0.35,-0.07,0.0,83.50,92.50,1,0,0.0010,0
19:09:06.915,47218,0.59,-0.35,-0.07,0.0,83.50,92.50,1,0,0.0010,0
19:09:07.116,47419,0.59,-0.35,-0.07,0.0,83.50,92.50,1,0,0.0010,0
19:09:07.316,47619,0.59,-0.35,-0.07,0.0,83.50,92.50,1,0,0.0010,0
19:09:07.521,47824,0.59,-0.35,-0.07,0.0,83.50,92.50,1,0,0.0029,0
19:09:07.720,48023,0.59,-0.35,-0.07,0.0,83.50,92.50,1,0,0.0048,0
19:09:07.921,48224,0.59,-0.35,-0.07,0.0,83.50,92.50,1,0,0.0029,0
19:09:08.120,48423,0.59,-0.35,-0.07,0.0,83.50,92.50,1,0,0.0047,0
19:09:08.320,48623,0.59,-0.35,-0.07,0.0,83.50,92.50,1,0,0.0029,0
19:09:08.526,48829,0.60,-0.35,-0.07,0.0,83.50,92.50,1,0,0.0016,0
19:09:08.726,49030,0.59,-0.36,-0.05,0.0,83.50,92.50,1,0,0.0010,0
19:09:08.926,49229,0.60,-0.35,-0.06,0.0,83.50,92.50,1,0,0.0016,0
19:09:09.131,49434,0.60,-0.34,-0.06,0.0,83.50,92.50,1,0,0.0029,0
19:09:09.331,49634,0.59,-0.35,-0.07,0.0,83.50,92.50,1,0,0.0036,0
19:09:09.533,49836,0.59,-0.36,-0.06,0.0,83.50,92.50,1,0,0.0029,0
19:09:09.736,50039,0.57,-0.37,-0.07,0.0,83.50,92.50,1,0,0.0036,0
19:09:24.832,65135,0.50,-0.50,-0.00,0.0,83.50,92.50,1,0,11.1533,0
19:09:25.032,65335,0.50,-0.51,0.00,0.0,83.50,92.50,1,0,0.0042,0
19:09:25.232,65535,0.51,-0.51,-0.01,0.0,83.50,92.50,1,0,0.0010,0
19:09:25.438,65741,0.52,-0.52,-0.01,0.0,83.50,92.50,1,0,0.0017,0
19:09:25.637,65940,0.51,-0.52,-0.02,0.0,83.50,92.50,1,0,0.0023,0
19:09:25.837,66140,0.53,-0.52,-0.01,0.0,83.50,92.50,1,0,0.0029,0
19:09:26.038,66341,0.54,-0.52,-0.01,0.0,83.50,92.50,1,0,0.0024,0
19:09:26.238,66541,0.56,-0.51,-0.03,0.0,83.50,92.50,1,0,0.0017,0
19:09:26.438,66741,0.53,-0.52,-0.02,0.0,83.50,92.50,1,0,0.0023,0
19:09:26.638,66941,0.54,-0.52,-0.02,0.0,83.50,92.50,1,0,0.0016,0
19:09:26.839,67142,0.54,-0.53,-0.02,0.0,83.50,92.50,1,0,0.0010,0
19:09:27.038,67341,0.54,-0.53,-0.02,0.0,83.50,92.50,1,0,0.0035,0
19:09:27.243,67546,0.53,-0.53,-0.01,0.0,83.50,92.50,1,0,0.0010,0
19:09:27.443,67746,0.53,-0.53,-0.01,0.0,83.50,92.50,1,0,0.0029,0
19:09:27.648,67951,0.49,-0.60,-0.01,0.0,83.50,92.50,1,0,0.0010,0
19:09:27.848,68151,0.48,-0.63,-0.01,0.0,83.50,92.50,1,0,0.0017,0
19:09:28.048,68351,0.46,-0.63,-0.03,0.0,83.50,92.50,1,0,0.0016,0
19:09:28.249,68552,0.43,-0.64,-0.03,0.0,83.50,92.50,1,0,0.0029,0
19:09:28.449,68752,0.50,-0.59,-0.03,0.0,83.50,92.50,1,0,0.0024,0
19:09:28.654,68957,0.49,-0.59,-0.02,0.0,83.50,92.50,1,0,0.0016,0
19:09:28.854,69157,0.51,-0.57,-0.03,0.0,83.50,92.50,1,0,0.0010,0
19:09:29.054,69357,0.51,-0.58,-0.04,0.0,83.50,92.50,1,0,0.0017,0
19:09:29.258,69562,0.51,-0.59,-0.05,0.0,83.50,92.50,1,0,0.0010,0
19:09:29.465,69768,0.50,-0.58,-0.06,0.0,83.50,92.50,1,0,0.0017,0
19:09:29.665,69968,0.50,-0.59,-0.07,0.0,83.50,92.50,1,0,0.0024,0
19:09:29.864,70167,0.52,-0.59,-0.08,0.0,83.50,92.50,1,0,0.0017,0
19:09:30.064,70367,0.52,-0.60,-0.08,0.0,83.50,92.50,1,0,0.0010,0
19:09:30.265,70568,0.52,-0.60,-0.08,0.0,83.50,92.50,1,0,0.0043,0
19:09:30.470,70773,0.52,-0.60,-0.08,0.0,83.50,92.50,1,0,0.0029,0
19:09:30.675,70978,0.52,-0.60,-0.08,0.0,83.50,92.50,1,0,0.0016,0
19:09:30.875,71178,0.52,-0.60,-0.08,0.0,83.50,92.50,1,0,0.0023,0
19:09:31.076,71379,0.52,-0.60,-0.08,0.0,83.50,92.50,1,0,0.0010,0
19:09:31.281,71584,0.52,-0.60,-0.10,0.0,83.50,92.50,1,0,0.0031,0
19:09:31.480,71783,0.52,-0.60,-0.10,0.0,83.50,92.50,1,0,0.0036,0
19:09:31.686,71989,0.54,-0.60,-0.09,0.0,83.50,92.50,1,0,0.0036,0
19:09:31.886,72189,0.53,-0.62,-0.10,0.0,83.50,92.50,1,0,0.0036,0
19:09:32.086,72389,0.54,-0.61,-0.10,0.0,83.50,92.50,1,0,0.0016,0
19:09:32.286,72589,0.53,-0.63,-0.09,0.0,83.50,92.50,1,0,0.0010,0
19:09:32.491,72794,0.53,-0.63,-0.06,0.0,83.50,92.50,1,0,0.0010,0
19:09:32.696,72999,0.53,-0.62,-0.08,0.0,83.50,92.50,1,0,0.0036,0
19:09:32.896,73200,0.53,-0.62,-0.10,0.0,83.50,92.50,1,0,0.0055,0
19:09:33.100,73403,0.55,-0.62,-0.10,0.0,83.50,92.50,1,0,0.0055,0
19:09:33.298,73601,0.56,-0.62,-0.10,0.0,83.50,92.50,1,0,0.0023,0
19:09:33.501,73804,0.56,-0.60,-0.11,0.0,83.50,92.50,1,0,0.0010,0
19:09:33.701,74004,0.57,-0.60,-0.11,0.0,83.50,92.50,1,0,0.0036,0
19:09:33.902,74205,0.58,-0.60,-0.13,0.0,83.50,92.50,1,0,0.0010,0
19:09:34.107,74410,0.58,-0.61,-0.13,0.0,83.50,92.50,1,0,0.0023,0
19:09:34.307,74610,0.57,-0.61,-0.13,0.0,83.50,92.50,1,0,0.0036,0
19:09:34.507,74810,0.60,-0.60,-0.14,0.0,83.50,92.50,1,0,0.0017,0
19:09:34.707,75010,0.57,-0.62,-0.15,0.0,83.50,92.50,1,0,0.0024,0
19:09:34.912,75215,0.53,-0.62,-0.13,0.0,83.50,92.50,1,0,0.0016,0
19:09:35.113,75416,0.51,-0.64,-0.13,0.0,83.50,92.50,1,0,0.0010,0
19:09:35.317,75620,0.47,-0.68,-0.14,0.0,83.50,92.50,1,0,0.0029,0
19:09:35.517,75820,0.48,-0.68,-0.13,0.0,83.50,92.50,1,0,0.0010,0
19:09:35.722,76025,0.49,-0.68,-0.13,0.0,83.50,92.50,1,0,0.0017,0
19:09:35.922,76225,0.49,-0.67,-0.14,0.0,83.50,92.50,1,0,0.0010,0
19:09:36.123,76426,0.51,-0.66,-0.13,0.0,83.50,92.50,1,0,0.0010,0
19:09:36.328,76631,0.49,-0.69,-0.13,0.0,83.50,92.50,1,0,0.0010,0
19:09:36.528,76831,0.49,-0.69,-0.13,0.0,83.50,92.50,1,0,0.0036,0
19:09:36.728,77031,0.51,-0.70,-0.12,0.0,83.50,92.50,1,0,0.0055,0
19:09:36.933,77236,0.51,-0.70,-0.10,0.0,83.50,92.50,1,0,0.0036,0
19:09:37.133,77436,0.51,-0.70,-0.08,0.0,83.50,92.50,1,0,0.0029,0
19:09:37.333,77636,0.52,-0.70,-0.08,0.0,83.50,92.50,1,0,0.0017,0
19:09:37.533,77836,0.52,-0.70,-0.07,0.0,83.50,92.50,1,0,0.0010,0
19:09:37.734,78037,0.53,-0.71,-0.06,0.0,83.50,92.50,1,0,0.0010,0
19:09:37.933,78236,0.54,-0.71,-0.07,0.0,83.50,92.50,1,0,0.0010,0
19:09:38.138,78441,0.54,-0.71,-0.06,0.0,83.50,92.50,1,0,0.0010,0
19:09:38.338,78641,0.54,-0.70,-0.06,0.0,83.50,92.50,1,0,0.0010,0
19:09:38.544,78847,0.54,-0.70,-0.06,0.0,83.50,92.50,1,0,0.0029,0
19:09:38.744,79047,0.54,-0.70,-0.06,0.0,83.50,92.50,1,0,0.0054,0
19:09:38.944,79247,0.54,-0.70,-0.06,0.0,83.50,92.50,1,0,0.0010,0
19:09:39.143,79447,0.54,-0.70,-0.06,0.0,83.50,92.50,1,0,0.0016,0
19:09:39.354,79657,0.54,-0.70,-0.06,0.0,83.50,92.50,1,0,0.0010,0
19:09:39.555,79858,0.54,-0.70,-0.06,0.0,83.50,92.50,1,0,0.0010,0
19:09:39.754,80057,0.56,-0.72,-0.07,0.0,83.50,92.50,1,0,0.0010,0
19:09:39.961,80264,0.56,-0.73,-0.07,0.0,83.50,92.50,1,0,0.0036,0
19:09:40.165,80468,0.56,-0.73,-0.08,0.0,83.50,92.50,1,0,0.0010,0
19:09:40.365,80668,0.57,-0.74,-0.09,0.0,83.50,92.50,1,0,0.0016,0
19:09:40.565,80868,0.57,-0.75,-0.10,0.0,83.50,92.50,1,0,0.0024,0
19:09:40.765,81068,0.56,-0.74,-0.10,0.0,83.50,92.50,1,0,0.0024,0
19:09:40.970,81273,0.56,-0.74,-0.10,0.0,83.50,92.50,1,0,0.0010,0
19:09:41.169,81472,0.56,-0.74,-0.10,0.0,83.50,92.50,1,0,0.0035,0
19:09:41.370,81673,0.56,-0.76,-0.11,0.0,83.50,92.50,1,0,0.0010,0
19:09:41.569,81872,0.55,-0.76,-0.10,0.0,83.50,92.50,1,0,0.0035,0
19:09:41.776,82079,0.56,-0.75,-0.09,0.0,83.50,92.50,1,0,0.0010,0
19:09:41.977,82280,0.56,-0.75,-0.09,0.0,83.50,92.50,1,0,0.0017,0
19:09:42.175,82478,0.56,-0.76,-0.10,0.0,83.50,92.50,1,0,0.0023,0
19:09:42.381,82684,0.57,-0.76,-0.09,0.0,83.50,92.50,1,0,0.0017,0
19:09:42.580,82883,0.56,-0.77,-0.08,0.0,83.50,92.50,1,0,0.0010,0
19:09:42.781,83084,0.57,-0.77,-0.08,0.0,83.50,92.50,1,0,0.0036,0
19:09:42.980,83283,0.57,-0.77,-0.08,0.0,83.50,92.50,1,0,0.0017,0
19:09:43.181,83484,0.57,-0.77,-0.08,0.0,83.50,92.50,1,0,0.0035,0
19:09:43.386,83689,0.57,-0.77,-0.08,0.0,83.50,92.50,1,0,0.0010,0
19:09:43.591,83894,0.57,-0.77,-0.08,0.0,83.50,92.50,1,0,0.0017,0
19:09:43.796,84099,0.57,-0.77,-0.08,0.0,83.50,92.50,1,0,0.0016,0
19:09:43.997,84300,0.58,-0.76,-0.10,0.0,83.50,92.50,1,0,0.0036,0
19:09:44.197,84500,0.59,-0.77,-0.09,0.0,83.50,92.50,1,0,0.0029,0
19:09:44.401,84704,0.58,-0.77,-0.10,0.0,83.50,92.50,1,0,0.0010,0
19:09:44.603,84906,0.59,-0.77,-0.10,0.0,83.50,92.50,1,0,0.0017,0
19:09:44.801,85104,0.60,-0.76,-0.09,0.0,83.50,92.50,1,0,0.0010,0
19:09:45.001,85304,0.60,-0.76,-0.09,0.0,83.50,92.50,1,0,0.0036,0
19:09:45.202,85505,0.66,-0.69,-0.09,0.0,83.50,92.50,1,0,0.0017,0
19:09:45.402,85705,0.63,-0.73,-0.11,0.0,83.50,92.50,1,0,0.0016,0
19:09:45.607,85910,0.62,-0.74,-0.12,0.0,83.50,92.50,1,0,0.0010,0
19:09:45.808,86111,0.68,-0.75,-0.13,0.0,83.50,92.50,1,0,0.0029,0
19:09:46.013,86316,0.66,-0.75,-0.13,0.0,83.50,92.50,1,0,0.0055,0
19:09:46.213,86516,0.66,-0.78,-0.13,0.0,83.50,92.50,1,0,0.0017,0
19:09:46.412,86715,0.69,-0.77,-0.13,0.0,83.50,92.50,1,0,0.0010,0
19:09:46.618,86921,0.68,-0.79,-0.13,0.0,83.50,92.50,1,0,0.0036,0
19:09:46.823,87126,0.66,-0.81,-0.15,0.0,83.50,92.50,1,0,0.0010,0
19:09:47.023,87326,0.66,-0.81,-0.16,0.0,83.50,92.50,1,0,0.0036,0
19:09:47.223,87526,0.66,-0.81,-0.14,0.0,83.50,92.50,1,0,0.0036,0
19:09:47.423,87726,0.67,-0.81,-0.14,0.0,83.50,92.50,1,0,0.0010,0
19:09:47.624,87927,0.67,-0.81,-0.13,0.0,83.50,92.50,1,0,0.0023,0
19:09:47.828,88131,0.67,-0.81,-0.14,0.0,83.50,92.50,1,0,0.0018,0
19:09:48.028,88331,0.67,-0.81,-0.14,0.0,83.50,92.50,1,0,0.0010,0
19:09:48.228,88531,0.67,-0.83,-0.12,0.0,83.50,92.50,1,0,0.0035,0
19:09:48.429,88732,0.67,-0.82,-0.12,0.0,83.50,92.50,1,0,0.0010,0
19:09:48.629,88932,0.68,-0.82,-0.12,0.0,83.50,92.50,1,0,0.0010,0
19:09:48.829,89132,0.68,-0.82,-0.12,0.0,83.50,92.50,1,0,0.0010,0
19:09:49.030,89333,0.68,-0.82,-0.12,0.0,83.50,92.50,1,0,0.0035,0
19:09:49.235,89538,0.68,-0.82,-0.12,0.0,83.50,92.50,1,0,0.0010,0
19:09:49.434,89737,0.68,-0.82,-0.12,0.0,83.50,92.50,1,0,0.0055,0
19:09:49.634,89937,0.68,-0.82,-0.12,0.0,83.50,92.50,1,0,0.0029,0
19:09:49.839,90142,0.68,-0.82,-0.12,0.0,83.50,92.50,1,0,0.0024,0
19:09:50.040,90343,0.68,-0.82,-0.12,0.0,83.50,92.50,1,0,0.0023,0
19:09:50.239,90542,0.68,-0.82,-0.12,0.0,83.50,92.50,1,0,0.0016,0
19:09:50.439,90742,0.68,-0.82,-0.12,0.0,83.50,92.50,1,0,0.0010,0
19:09:50.646,90950,0.68,-0.82,-0.12,0.0,83.50,92.50,1,0,0.0036,0
19:09:50.845,91148,0.68,-0.82,-0.12,0.0,83.50,92.50,1,0,0.0010,0
19:09:51.045,91348,0.68,-0.82,-0.12,0.0,83.50,92.50,1,0,0.0035,0
19:09:51.250,91553,0.68,-0.82,-0.12,0.0,83.50,92.50,1,0,0.0029,0
19:09:51.453,91756,0.68,-0.82,-0.12,0.0,83.50,92.50,1,0,0.0017,0
19:09:51.650,91953,0.68,-0.82,-0.12,0.0,83.50,92.50,1,0,0.0017,0
19:09:51.857,92160,0.68,-0.82,-0.12,0.0,83.50,92.50,1,0,0.0043,0
19:09:52.055,92358,0.68,-0.82,-0.12,0.0,83.50,92.50,1,0,0.0010,0
19:09:52.260,92563,0.68,-0.82,-0.12,0.0,83.50,92.50,1,0,0.0017,0
19:09:52.461,92764,0.68,-0.82,-0.12,0.0,83.50,92.50,1,0,0.0017,0
19:09:52.666,92969,0.68,-0.82,-0.12,0.0,83.50,92.50,1,0,0.0010,0
19:09:52.865,93168,0.68,-0.82,-0.12,0.0,83.50,92.50,1,0,0.0016,0
19:09:53.071,93374,0.68,-0.82,-0.12,0.0,83.50,92.50,1,0,0.0036,0
19:09:53.271,93574,0.68,-0.82,-0.12,0.0,83.50,92.50,1,0,0.0016,0
19:09:53.477,93780,0.68,-0.82,-0.12,0.0,83.50,92.50,1,0,0.0010,0
19:09:53.676,93979,0.68,-0.82,-0.12,0.0,83.50,92.50,1,0,0.0017,0
19:09:53.876,94180,0.68,-0.82,-0.12,0.0,83.50,92.50,1,0,0.0010,0
19:09:54.077,94380,0.68,-0.82,-0.12,0.0,83.50,92.50,1,0,0.0016,0
19:09:54.277,94580,0.68,-0.82,-0.12,0.0,83.50,92.50,1,0,0.0010,0
19:09:54.477,94780,0.68,-0.82,-0.12,0.0,83.50,92.50,1,0,0.0017,0
19:09:54.677,94980,0.68,-0.82,-0.12,0.0,83.50,92.50,1,0,0.0010,0
19:09:54.877,95180,0.68,-0.82,-0.12,0.0,83.50,92.50,1,0,0.0010,0
19:09:55.082,95385,0.68,-0.82,-0.12,0.0,83.50,92.50,1,0,0.0010,0
19:09:55.286,95589,0.68,-0.82,-0.12,0.0,83.50,92.50,1,0,0.0017,0
19:09:55.487,95790,0.68,-0.82,-0.12,0.0,83.50,92.50,1,0,0.0010,0
19:09:55.687,95990,0.68,-0.82,-0.12,0.0,83.50,92.50,1,0,0.0017,0
19:09:55.887,96190,0.68,-0.82,-0.12,0.0,83.50,92.50,1,0,0.0010,0
19:09:56.093,96396,0.68,-0.82,-0.12,0.0,83.50,92.50,1,0,0.0010,0
19:09:56.292,96595,0.68,-0.82,-0.12,0.0,83.50,92.50,1,0,0.0055,0
19:09:56.498,96801,0.68,-0.82,-0.12,0.0,83.50,92.50,1,0,0.0029,0
19:09:56.698,97001,0.68,-0.82,-0.12,0.0,83.50,92.50,1,0,0.0016,0
19:09:56.899,97202,0.68,-0.82,-0.12,0.0,83.50,92.50,1,0,0.0024,0
19:09:57.099,97402,0.68,-0.82,-0.12,0.0,83.50,92.50,1,0,0.0023,0
19:09:57.299,97602,0.68,-0.82,-0.12,0.0,83.50,92.50,1,0,0.0017,0
19:09:57.498,97801,0.68,-0.82,-0.12,0.0,83.50,92.50,1,0,0.0010,0
19:09:57.699,98002,0.68,-0.82,-0.12,0.0,83.50,92.50,1,0,0.0016,0
19:09:57.898,98201,0.68,-0.82,-0.12,0.0,83.50,92.50,1,0,0.0010,0
19:09:58.098,98401,0.68,-0.82,-0.12,0.0,83.50,92.50,1,0,0.0017,0
19:09:58.303,98606,0.68,-0.82,-0.12,0.0,83.50,92.50,1,0,0.0010,0
19:09:58.504,98807,0.68,-0.82,-0.12,0.0,83.50,92.50,1,0,0.0035,0
19:09:58.704,99007,0.68,-0.82,-0.12,0.0,83.50,92.50,1,0,0.0029,0
19:09:58.909,99212,0.68,-0.82,-0.12,0.0,83.50,92.50,1,0,0.0024,0
19:09:59.108,99411,0.68,-0.82,-0.12,0.0,83.50,92.50,1,0,0.0055,0
19:09:59.309,99612,0.68,-0.82,-0.12,0.0,83.50,92.50,1,0,0.0016,0
19:09:59.510,99813,0.68,-0.82,-0.12,0.0,83.50,92.50,1,0,0.0024,0
19:09:59.709,100012,0.68,-0.82,-0.12,0.0,83.50,92.50,1,0,0.0030,0
19:09:59.909,100212,0.68,-0.82,-0.12,0.0,83.50,92.50,1,0,0.0023,0
19:10:00.110,100413,0.68,-0.82,-0.12,0.0,83.50,92.50,1,0,0.0016,0
19:10:00.310,100613,0.68,-0.82,-0.12,0.0,83.50,92.50,1,0,0.0010,0
19:10:00.510,100813,0.68,-0.82,-0.12,0.0,83.50,92.50,1,0,0.0036,0
19:10:00.716,101019,0.68,-0.82,-0.12,0.0,83.50,92.50,1,0,0.0010,0
19:10:00.915,101219,0.68,-0.82,-0.12,0.0,83.50,92.50,1,0,0.0036,0
19:10:01.116,101419,0.68,-0.82,-0.12,0.0,83.50,92.50,1,0,0.0010,0
19:10:01.320,101623,0.68,-0.82,-0.12,0.0,83.50,92.50,1,0,0.0029,0
19:10:01.521,101824,0.68,-0.82,-0.12,0.0,83.50,92.50,1,0,0.0029,0
19:10:01.721,102024,0.68,-0.82,-0.12,0.0,83.50,92.50,1,0,0.0024,0
19:10:01.921,102224,0.68,-0.82,-0.12,0.0,83.50,92.50,1,0,0.0024,0
19:10:02.126,102429,0.68,-0.82,-0.12,0.0,83.50,92.50,1,0,0.0016,0
19:10:02.326,102629,0.68,-0.82,-0.12,0.0,83.50,92.50,1,0,0.0010,0
19:10:02.527,102830,0.68,-0.82,-0.12,0.0,83.50,92.50,1,0,0.0035,0
19:10:02.727,103030,0.68,-0.82,-0.12,0.0,83.50,92.50,1,0,0.0010,0
19:10:02.932,103235,0.68,-0.82,-0.12,0.0,83.50,92.50,1,0,0.0029,0
19:10:03.132,103435,0.68,-0.82,-0.12,0.0,83.50,92.50,1,0,0.0010,0
19:10:03.332,103635,0.68,-0.82,-0.12,0.0,83.50,92.50,1,0,0.0029,0
19:10:03.532,103835,0.68,-0.82,-0.12,0.0,83.50,92.50,1,0,0.0029,0
19:10:03.737,104040,0.68,-0.82,-0.12,0.0,83.50,92.50,1,0,0.0016,0
19:10:03.937,104240,0.68,-0.82,-0.12,0.0,83.50,92.50,1,0,0.0023,0
19:10:04.137,104440,0.68,-0.82,-0.12,0.0,83.50,92.50,1,0,0.0043,0
19:10:04.537,104840,0.68,-0.82,-0.12,0.0,83.50,92.50,1,0,0.0016,0
19:10:04.737,105040,0.68,-0.82,-0.12,0.0,83.50,92.50,1,0,0.0010,0
19:10:04.937,105240,0.68,-0.82,-0.12,0.0,83.50,92.50,1,0,0.0016,0
19:10:05.143,105446,0.68,-0.82,-0.12,0.0,83.50,92.50,1,0,0.0010,0
19:10:05.342,105645,0.68,-0.82,-0.12,0.0,83.50,92.50,1,0,0.0036,0
19:10:05.542,105845,0.68,-0.82,-0.12,0.0,83.50,92.50,1,0,0.0029,0
19:10:05.747,106050,0.68,-0.82,-0.12,0.0,83.50,92.50,1,0,0.0035,0
19:10:05.948,106251,0.68,-0.82,-0.12,0.0,83.50,92.50,1,0,0.0036,0
19:10:06.147,106450,0.68,-0.82,-0.12,0.0,83.50,92.50,1,0,0.0024,0
19:10:06.348,106651,0.68,-0.82,-0.12,0.0,83.50,92.50,1,0,0.0023,0
19:10:06.548,106851,0.68,-0.82,-0.12,0.0,83.50,92.50,1,0,0.0024,0
19:10:06.748,107051,0.68,-0.82,-0.12,0.0,83.50,92.50,1,0,0.0010,0
19:10:06.953,107256,0.68,-0.82,-0.12,0.0,83.50,92.50,1,0,0.0035,0
19:10:07.153,107456,0.68,-0.82,-0.12,0.0,83.50,92.50,1,0,0.0010,0
19:10:07.353,107656,0.68,-0.82,-0.12,0.0,83.50,92.50,1,0,0.0010,0
19:10:07.554,107857,0.68,-0.82,-0.12,0.0,83.50,92.50,1,0,0.0010,0
19:10:07.755,108058,0.68,-0.82,-0.12,0.0,83.50,92.50,1,0,0.0036,0
19:10:07.954,108257,0.68,-0.82,-0.12,0.0,83.50,92.50,1,0,0.0010,0
19:10:08.154,108457,0.68,-0.82,-0.12,0.0,83.50,92.50,1,0,0.0035,0
19:10:08.359,108662,0.68,-0.82,-0.12,0.0,83.50,92.50,1,0,0.0029,0
19:10:08.564,108868,0.68,-0.82,-0.12,0.0,83.50,92.50,1,0,0.0024,0
19:10:08.764,109067,0.68,-0.82,-0.12,0.0,83.50,92.50,1,0,0.0023,0
19:10:08.964,109267,0.68,-0.82,-0.12,0.0,83.50,92.50,1,0,0.0016,0
19:10:09.164,109467,0.68,-0.82,-0.12,0.0,83.50,92.50,1,0,0.0010,0
19:10:09.369,109672,0.68,-0.82,-0.12,0.0,83.50,92.50,1,0,0.0043,0
19:10:09.569,109872,0.68,-0.82,-0.12,0.0,83.50,92.50,1,0,0.0010,0
19:10:09.769,110072,0.68,-0.81,-0.11,0.0,83.50,92.50,1,0,0.0036,0
19:10:09.974,110277,0.69,-0.80,-0.10,0.0,83.50,92.50,1,0,0.0055,0
19:10:10.174,110477,0.70,-0.79,-0.10,0.0,83.50,92.50,1,0,0.0036,0
19:10:10.375,110678,0.70,-0.80,-0.09,0.0,83.50,92.50,1,0,0.0023,0
19:10:10.580,110883,0.71,-0.80,-0.07,0.0,83.50,92.50,1,0,0.0042,0
19:10:10.779,111082,0.72,-0.80,-0.07,0.0,83.50,92.50,1,0,0.0010,0
19:10:10.980,111283,0.71,-0.80,-0.08,0.0,83.50,92.50,1,0,0.0010,0
19:10:11.180,111483,0.74,-0.79,-0.07,0.0,83.50,92.50,1,0,0.0010,0
19:10:11.386,111689,0.72,-0.80,-0.09,0.0,83.50,92.50,1,0,0.0036,0
19:10:11.591,111894,0.72,-0.81,-0.12,0.0,83.50,92.50,1,0,0.0016,0
19:10:11.790,112093,0.72,-0.79,-0.14,0.0,83.50,92.50,1,0,0.0010,0
19:10:11.990,112293,0.73,-0.78,-0.15,0.0,83.50,92.50,1,0,0.0029,0
19:10:12.197,112500,0.71,-0.78,-0.15,0.0,83.50,92.50,1,0,0.0036,0
19:10:12.396,112699,0.67,-0.85,-0.14,0.0,83.50,92.50,1,0,0.0036,0
19:10:12.597,112900,0.85,-0.69,-0.13,0.0,83.50,92.50,1,0,0.0036,0
19:10:12.796,113099,0.83,-0.71,-0.13,0.0,83.50,92.50,1,0,0.0055,0
19:10:12.996,113299,0.88,-0.64,-0.11,0.0,83.50,92.50,1,0,0.0029,0
19:10:13.201,113504,0.85,-0.65,-0.14,0.0,83.50,92.50,1,0,0.0017,0
19:10:13.401,113704,0.86,-0.65,-0.13,0.0,83.50,92.50,1,0,0.0010,0
19:10:13.607,113910,0.87,-0.65,-0.13,0.0,83.50,92.50,1,0,0.0029,0
19:10:13.807,114110,0.87,-0.65,-0.13,0.0,83.50,92.50,1,0,0.0010,0
19:10:14.012,114315,0.86,-0.64,-0.12,0.0,83.50,92.50,1,0,0.0023,0
19:10:14.211,114515,0.87,-0.62,-0.11,0.0,83.50,92.50,1,0,0.0023,0
19:10:14.411,114715,0.88,-0.62,-0.08,0.0,83.50,92.50,1,0,0.0010,0
19:10:14.611,114914,0.88,-0.62,-0.09,0.0,83.50,92.50,1,0,0.0010,0
19:10:14.811,115114,0.90,-0.62,-0.08,0.0,83.50,92.50,1,0,0.0017,0
19:10:15.016,115319,0.91,-0.62,-0.08,0.0,83.50,92.50,1,0,0.0010,0
19:10:15.217,115520,0.89,-0.65,-0.06,0.0,83.50,92.50,1,0,0.0036,0
19:10:15.417,115720,0.89,-0.64,-0.07,0.0,83.50,92.50,1,0,0.0029,0
19:10:15.621,115924,0.90,-0.64,-0.07,0.0,83.50,92.50,1,0,0.0016,0
19:10:15.827,116130,0.92,-0.65,-0.06,0.0,83.50,92.50,1,0,0.0016,0
19:10:16.027,116330,0.91,-0.66,-0.07,0.0,83.50,92.50,1,0,0.0029,0
19:10:16.228,116531,0.93,-0.65,-0.09,0.0,83.50,92.50,1,0,0.0029,0
19:10:16.433,116736,0.93,-0.64,-0.08,0.0,83.50,92.50,1,0,0.0029,0
19:10:16.632,116935,0.90,-0.66,-0.08,0.0,83.50,92.50,1,0,0.0029,0
19:10:16.833,117136,0.89,-0.68,-0.07,0.0,83.50,92.50,1,0,0.0062,0
19:10:17.032,117335,0.87,-0.68,-0.06,0.0,83.50,92.50,1,0,0.0036,0
19:10:17.237,117540,0.87,-0.68,-0.05,0.0,83.50,92.50,1,0,0.0010,0
19:10:17.438,117741,0.89,-0.67,-0.04,0.0,83.50,92.50,1,0,0.0029,0
19:10:17.637,117940,0.88,-0.66,-0.03,0.0,83.50,92.50,1,0,0.0010,0
19:10:17.838,118141,0.87,-0.65,-0.02,0.0,83.50,92.50,1,0,0.0057,0
19:10:18.043,118346,0.87,-0.64,-0.02,0.0,83.50,92.50,1,0,0.0029,0
19:10:18.243,118546,0.87,-0.62,-0.03,0.0,83.50,92.50,1,0,0.0016,0
19:10:18.444,118747,0.86,-0.63,-0.03,0.0,83.50,92.50,1,0,0.0010,0
19:10:18.648,118951,0.86,-0.64,-0.02,0.0,83.50,92.50,1,0,0.0036,0
19:10:18.849,119152,0.86,-0.63,-0.00,0.0,83.50,92.50,1,0,0.0010,0
19:10:19.049,119352,0.87,-0.63,0.00,0.0,83.50,92.50,1,0,0.0047,0
19:10:19.254,119557,0.88,-0.62,0.01,0.0,83.50,92.50,1,0,0.0010,0
19:10:19.454,119757,0.89,-0.63,0.03,0.0,83.50,92.50,1,0,0.0024,0
19:10:19.654,119957,0.89,-0.63,0.03,0.0,83.50,92.50,1,0,0.0016,0
19:10:19.858,120161,0.89,-0.63,0.03,0.0,83.50,92.50,1,0,0.0035,0
19:10:20.058,120361,0.89,-0.63,0.03,0.0,83.50,92.50,1,0,0.0010,0
19:10:20.258,120561,0.89,-0.63,0.03,0.0,83.50,92.50,1,0,0.0017,0
19:10:20.459,120762,0.89,-0.63,0.03,0.0,83.50,92.50,1,0,0.0010,0
19:10:20.659,120962,0.89,-0.63,0.03,0.0,83.50,92.50,1,0,0.0024,0
19:10:20.859,121162,0.89,-0.63,0.03,0.0,83.50,92.50,1,0,0.0024,0
19:10:21.059,121362,0.89,-0.63,0.03,0.0,83.50,92.50,1,0,0.0036,0
19:10:21.259,121562,0.89,-0.63,0.03,0.0,83.50,92.50,1,0,0.0023,0
19:10:21.459,121762,0.87,-0.64,0.02,0.0,83.50,92.50,1,0,0.0023,0
19:10:21.660,121963,0.86,-0.65,0.02,0.0,83.50,92.50,1,0,0.0010,0
19:10:21.865,122168,0.85,-0.67,0.01,0.0,83.50,92.50,1,0,0.0017,0
19:10:22.064,122367,0.85,-0.67,0.01,0.0,83.50,92.50,1,0,0.0010,0
19:10:22.270,122573,0.86,-0.67,0.02,0.0,83.50,92.50,1,0,0.0024,0
19:10:22.470,122773,0.87,-0.65,0.01,0.0,83.50,92.50,1,0,0.0010,0
19:10:22.675,122978,0.87,-0.65,0.00,0.0,83.50,92.50,1,0,0.0042,0
19:10:22.874,123178,0.92,-0.61,0.01,0.0,83.50,92.50,1,0,0.0010,0
19:10:23.076,123379,0.93,-0.60,-0.02,0.0,83.50,92.50,1,0,0.0043,0
19:10:23.274,123577,0.94,-0.61,-0.03,0.0,83.50,92.50,1,0,0.0010,0
19:10:23.475,123778,0.92,-0.63,-0.03,0.0,83.50,92.50,1,0,0.0035,0
19:10:23.675,123978,0.93,-0.62,-0.03,0.0,83.50,92.50,1,0,0.0010,0
19:10:23.881,124184,0.93,-0.63,-0.02,0.0,83.50,92.50,1,0,0.0017,0
19:10:24.080,124383,0.93,-0.64,-0.02,0.0,83.50,92.50,1,0,0.0055,0
19:10:24.281,124584,0.92,-0.62,-0.03,0.0,83.50,92.50,1,0,0.0016,0
19:10:24.481,124784,0.92,-0.63,-0.01,0.0,83.50,92.50,1,0,0.0016,0
19:10:24.681,124984,0.92,-0.64,-0.01,0.0,83.50,92.50,1,0,0.0010,0
19:10:24.881,125184,0.93,-0.64,-0.01,0.0,83.50,92.50,1,0,0.0024,0
19:10:25.086,125389,0.94,-0.64,0.02,0.0,83.50,92.50,1,0,0.0036,0
19:10:25.286,125589,0.95,-0.64,0.01,0.0,83.50,92.50,1,0,0.0010,0
19:10:25.486,125789,0.96,-0.64,0.01,0.0,83.50,92.50,1,0,0.0042,0
19:10:25.692,125995,0.96,-0.64,0.01,0.0,83.50,92.50,1,0,0.0010,0
19:10:25.895,126198,0.96,-0.64,0.01,0.0,83.50,92.50,1,0,0.0017,0
19:10:26.096,126399,0.96,-0.64,0.01,0.0,83.50,92.50,1,0,0.0023,0
19:10:26.296,126599,0.96,-0.64,0.01,0.0,83.50,92.50,1,0,0.0010,0
19:10:26.501,126804,0.96,-0.64,0.01,0.0,83.50,92.50,1,0,0.0016,0
19:10:26.702,127005,0.96,-0.64,0.01,0.0,83.50,92.50,1,0,0.0029,0
19:10:26.902,127205,0.96,-0.64,0.01,0.0,83.50,92.50,1,0,0.0029,0
19:10:27.107,127410,0.96,-0.64,0.01,0.0,83.50,92.50,1,0,0.0029,0
19:10:27.307,127610,0.96,-0.64,0.01,0.0,83.50,92.50,1,0,0.0017,0
19:10:27.511,127814,0.96,-0.64,0.01,0.0,83.50,92.50,1,0,0.0010,0
19:10:27.712,128015,0.96,-0.64,0.01,0.0,83.50,92.50,1,0,0.0050,0
19:10:27.911,128214,0.96,-0.64,0.00,0.0,83.50,92.50,1,0,0.0029,0
19:10:28.112,128415,0.96,-0.64,-0.02,0.0,83.50,92.50,1,0,0.0036,0
19:10:28.312,128615,0.96,-0.65,-0.04,0.0,83.50,92.50,1,0,0.0036,0
19:10:28.517,128820,0.95,-0.66,-0.03,0.0,83.50,92.50,1,0,0.0036,0
19:10:28.717,129020,0.95,-0.66,-0.04,0.0,83.50,92.50,1,0,0.0029,0
19:10:28.916,129219,0.96,-0.66,-0.07,0.0,83.50,92.50,1,0,0.0055,0
19:10:29.117,129420,0.97,-0.65,-0.05,0.0,83.50,92.50,1,0,0.0016,0
19:10:29.317,129620,0.97,-0.65,-0.06,0.0,83.50,92.50,1,0,0.0017,0
19:10:29.522,129825,0.98,-0.65,-0.06,0.0,83.50,92.50,1,0,0.0010,0
19:10:29.723,130026,0.98,-0.66,-0.04,0.0,83.50,92.50,1,0,0.0010,0
19:10:29.924,130227,0.98,-0.66,-0.04,0.0,83.50,92.50,1,0,0.0029,0
19:10:30.124,130427,0.97,-0.67,-0.03,0.0,83.50,92.50,1,0,0.0029,0
19:10:30.324,130627,0.97,-0.67,-0.05,0.0,83.50,92.50,1,0,0.0010,0
19:10:30.525,130828,0.96,-0.66,-0.05,0.0,83.50,92.50,1,0,0.0055,0
19:10:30.729,131032,1.01,-0.61,-0.05,0.0,83.50,92.50,1,0,0.0029,0
19:10:30.929,131232,1.02,-0.59,-0.05,0.0,83.50,92.50,1,0,0.0036,0
19:10:31.130,131433,1.03,-0.58,-0.05,0.0,83.50,92.50,1,0,0.0029,0
19:10:31.329,131632,1.03,-0.57,-0.06,0.0,83.50,92.50,1,0,0.0048,0
19:10:31.529,131832,1.04,-0.57,-0.05,0.0,83.50,92.50,1,0,0.0036,0
19:10:31.730,132033,1.04,-0.58,-0.07,0.0,83.50,92.50,1,0,0.0029,0
19:10:31.931,132234,1.04,-0.56,-0.06,0.0,83.50,92.50,1,0,0.0017,0
19:10:32.130,132433,1.05,-0.56,-0.06,0.0,83.50,92.50,1,0,0.0055,0
19:10:32.331,132634,1.05,-0.56,-0.06,0.0,83.50,92.50,1,0,0.0017,0
19:10:32.535,132838,1.05,-0.56,-0.06,0.0,83.50,92.50,1,0,0.0017,0
19:10:32.735,133038,1.05,-0.56,-0.06,0.0,83.50,92.50,1,0,0.0010,0
19:10:32.941,133244,1.05,-0.56,-0.06,0.0,83.50,92.50,1,0,0.0036,0
19:10:33.140,133443,1.05,-0.56,-0.06,0.0,83.50,92.50,1,0,0.0036,0
19:10:33.340,133643,1.05,-0.56,-0.06,0.0,83.50,92.50,1,0,0.0029,0
19:10:33.540,133843,1.05,-0.56,-0.06,0.0,83.50,92.50,1,0,0.0029,0
19:10:33.746,134049,1.05,-0.56,-0.06,0.0,83.50,92.50,1,0,0.0016,0
19:10:33.946,134249,1.05,-0.56,-0.06,0.0,83.50,92.50,1,0,0.0010,0
19:10:34.145,134448,1.05,-0.56,-0.06,0.0,83.50,92.50,1,0,0.0035,0
19:10:34.352,134655,1.05,-0.56,-0.06,0.0,83.50,92.50,1,0,0.0010,0
19:10:34.556,134859,1.05,-0.56,-0.06,0.0,83.50,92.50,1,0,0.0016,0
19:10:34.756,135059,1.05,-0.56,-0.06,0.0,83.50,92.50,1,0,0.0010,0
19:10:34.962,135265,1.05,-0.56,-0.06,0.0,83.50,92.50,1,0,0.0042,0
19:10:35.163,135466,1.05,-0.56,-0.06,0.0,83.50,92.50,1,0,0.0010,0
19:10:35.362,135665,1.05,-0.56,-0.06,0.0,83.50,92.50,1,0,0.0043,0
19:11:03.934,164237,0.54,-0.51,0.00,0.0,83.50,92.50,1,0,11.0414,0
19:11:04.134,164437,0.54,-0.52,-0.00,0.0,83.50,92.50,1,0,0.0029,0
19:11:04.339,164642,0.55,-0.52,0.01,0.0,83.50,92.50,1,0,0.0010,0
19:11:04.539,164842,0.56,-0.54,0.03,0.0,83.50,92.50,1,0,0.0010,0
19:11:04.739,165042,0.56,-0.53,0.05,0.0,83.50,92.50,1,0,0.0017,0
19:11:04.939,165242,0.56,-0.54,0.05,0.0,83.50,92.50,1,0,0.0010,0
19:11:05.139,165442,0.56,-0.55,0.05,0.0,83.50,92.50,1,0,0.0029,0
19:11:05.339,165642,0.55,-0.56,0.06,0.0,83.50,92.50,1,0,0.0010,0
19:11:05.544,165847,0.55,-0.56,0.06,0.0,83.50,92.50,1,0,0.0017,0
19:11:05.744,166047,0.55,-0.56,0.06,0.0,83.50,92.50,1,0,0.0010,0
19:11:05.944,166247,0.55,-0.56,0.06,0.0,83.50,92.50,1,0,0.0035,0
19:11:06.144,166447,0.55,-0.56,0.06,0.0,83.50,92.50,1,0,0.0029,0
19:11:06.345,166648,0.66,-0.56,-0.47,0.0,83.50,92.50,1,0,0.0036,0
19:11:06.545,166848,0.58,-0.52,0.40,0.0,83.50,92.50,1,0,0.0010,0
19:11:06.746,167049,0.55,-0.55,0.51,0.0,83.50,92.50,1,0,0.0029,0
19:11:06.950,167253,0.51,-0.57,0.16,0.0,83.50,92.50,1,0,0.0036,0
19:11:07.152,167455,0.52,-0.54,-0.11,0.0,83.50,92.50,1,0,0.0024,0
19:11:07.355,167658,0.49,-0.54,-0.09,0.0,83.50,92.50,1,0,0.0010,0
19:11:07.555,167858,0.52,-0.49,-0.08,0.0,83.50,92.50,1,0,0.0016,0
19:11:07.756,168059,0.55,-0.45,-0.07,0.0,83.50,92.50,1,0,0.0010,0
19:11:07.957,168260,0.53,-0.46,-0.07,0.0,83.50,92.50,1,0,0.0029,0
19:11:08.162,168465,0.53,-0.46,-0.08,0.0,83.50,92.50,1,0,0.0055,0
19:11:08.362,168665,0.53,-0.46,-0.08,0.0,83.50,92.50,1,0,0.0010,0
19:11:08.767,169070,0.53,-0.44,0.63,0.0,83.50,92.50,1,0,0.0029,0
19:11:08.972,169275,0.57,-0.39,0.07,0.0,83.50,92.50,1,0,0.0029,0
19:11:09.172,169475,0.48,-0.54,0.03,0.0,83.50,92.50,1,0,0.0024,0
19:11:09.374,169677,0.47,-0.59,0.04,0.0,83.50,92.50,1,0,0.0010,0
19:11:09.574,169877,0.48,-0.55,-0.06,0.0,83.50,92.50,1,0,0.0016,0
19:11:55.801,216104,0.49,-0.58,-0.00,0.0,83.50,92.50,1,0,11.1605,0
19:11:56.006,216309,0.50,-0.60,0.02,0.0,83.50,92.50,1,0,0.0029,0
19:11:56.205,216508,0.50,-0.59,0.01,0.0,83.50,92.50,1,0,0.0055,0
19:11:56.406,216709,0.50,-0.60,0.02,0.0,83.50,92.50,1,0,0.0017,0
19:11:56.611,216914,0.50,-0.60,0.00,0.0,83.50,92.50,1,0,0.0017,0
19:11:56.816,217119,0.49,-0.62,-0.00,0.0,83.50,92.50,1,0,0.0010,0
19:11:57.016,217319,0.49,-0.64,0.03,0.0,83.50,92.50,1,0,0.0024,0
19:11:57.217,217520,0.48,-0.61,1.25,0.0,83.50,92.50,1,0,0.0010,0
19:11:57.422,217725,0.48,-0.62,1.25,0.0,83.50,92.50,1,0,0.0016,0
19:11:57.622,217925,0.47,-0.60,1.16,0.0,83.50,92.50,1,0,0.0010,0
19:11:57.822,218125,0.44,-0.67,1.18,0.0,83.50,92.50,1,0,0.0029,0
19:11:58.028,218331,0.45,-0.67,1.20,0.0,83.50,92.50,1,0,0.0010,0
19:11:58.233,218536,0.46,-0.69,1.21,0.0,83.50,92.50,1,0,0.0036,0
19:11:58.432,218735,0.49,-0.60,1.21,0.0,83.50,92.50,1,0,0.0010,0
19:11:58.632,218935,0.51,-0.44,1.58,0.0,83.50,92.50,1,0,0.0035,0
19:11:58.837,219140,0.52,-0.45,1.63,0.0,83.50,92.50,1,0,0.0029,0
19:11:59.037,219340,0.54,-0.40,1.67,0.0,83.50,92.50,1,0,0.0036,0
19:12:36.530,256833,0.34,-0.66,0.00,0.0,83.50,92.50,1,0,11.0405,0
19:12:36.729,257032,0.34,-0.64,-0.00,0.0,83.50,92.50,1,0,0.0010,0
19:12:36.924,257227,0.34,-0.68,0.01,0.0,83.50,92.50,1,0,0.0010,0
19:12:37.125,257428,0.34,-0.66,0.01,0.0,83.50,92.50,1,0,0.0036,0
19:12:37.324,257627,0.34,-0.61,0.00,0.0,83.50,92.50,1,0,0.0010,0
19:12:37.726,258029,0.36,-0.49,-0.00,0.0,83.50,92.50,1,0,0.0010,0
19:12:37.926,258229,0.36,-0.54,0.04,0.0,83.50,92.50,1,0,0.0035,0
19:12:38.126,258429,0.36,-0.53,0.03,0.0,83.50,92.50,1,0,0.0010,0
19:12:38.332,258635,0.37,-0.55,0.04,0.0,83.50,92.50,1,0,0.0031,0
19:12:38.531,258834,0.38,-0.54,0.02,0.0,83.50,92.50,1,0,0.0010,0
19:12:38.732,259035,0.38,-0.54,-0.00,0.0,83.50,92.50,1,0,0.0048,0
19:12:38.937,259240,0.38,-0.55,-0.01,0.0,83.50,92.50,1,0,0.0036,0
19:12:39.138,259441,0.39,-0.54,-0.01,0.0,83.50,92.50,1,0,0.0036,0
19:12:39.337,259640,0.38,-0.56,-0.00,0.0,83.50,92.50,1,0,0.0010,0
19:12:39.542,259845,0.38,-0.56,-0.01,0.0,83.50,92.50,1,0,0.0016,0
19:12:39.742,260045,0.38,-0.56,-0.01,0.0,83.50,92.50,1,0,0.0036,0
19:12:39.942,260245,0.38,-0.56,-0.01,0.0,83.50,92.50,1,0,0.0036,0
19:12:40.142,260445,0.38,-0.59,-0.00,0.0,83.50,92.50,1,0,0.0029,0
19:12:40.342,260645,0.39,-0.55,-0.02,0.0,83.50,92.50,1,0,0.0010,0
19:12:40.548,260851,0.40,-0.50,-0.02,0.0,83.50,92.50,1,0,0.0010,0
19:12:40.747,261050,0.37,-0.54,-0.01,0.0,83.50,92.50,1,0,0.0055,0
19:12:40.948,261251,0.39,-0.46,-0.01,0.0,83.50,92.50,1,0,0.0036,0
19:12:41.147,261450,0.41,-0.46,0.00,0.0,83.50,92.50,1,0,0.0055,0
19:12:41.347,261650,0.40,-0.53,0.02,0.0,83.50,92.50,1,0,0.0017,0
19:12:41.547,261850,0.41,-0.51,0.03,0.0,83.50,92.50,1,0,0.0016,0
19:12:41.748,262051,0.42,-0.53,0.03,0.0,83.50,92.50,1,0,0.0043,0
19:12:41.948,262251,0.44,-0.53,0.03,0.0,83.50,92.50,1,0,0.0017,0
19:12:42.153,262456,0.46,-0.51,0.04,0.0,83.50,92.50,1,0,0.0010,0
19:12:42.353,262656,0.45,-0.51,0.05,0.0,83.50,92.50,1,0,0.0010,0
19:12:42.553,262856,0.47,-0.49,0.04,0.0,83.50,92.50,1,0,0.0035,0
19:12:42.753,263056,0.45,-0.58,0.08,0.0,83.50,92.50,1,0,0.0010,0
19:13:32.816,313119,0.48,-0.43,-0.00,0.0,83.50,92.50,1,0,11.0322,0
19:13:33.015,313318,0.48,-0.43,0.00,0.0,83.50,92.50,1,0,0.0035,0
19:13:33.216,313519,0.47,-0.43,-0.01,0.0,83.50,92.50,1,0,0.0029,0
19:13:33.416,313719,0.46,-0.43,-0.00,0.0,83.50,92.50,1,0,0.0036,0
19:13:33.616,313919,0.46,-0.43,0.01,0.0,83.50,92.50,1,0,0.0010,0
19:13:33.816,314119,0.45,-0.42,0.02,0.0,83.50,92.50,1,0,0.0036,0
19:13:34.016,314319,0.45,-0.44,0.02,0.0,83.50,92.50,1,0,0.0010,0
19:13:34.216,314519,0.44,-0.43,0.02,0.0,83.50,92.50,1,0,0.0029,0
19:13:34.417,314720,0.44,-0.43,0.02,0.0,83.50,92.50,1,0,0.0036,0
19:13:34.622,314925,0.44,-0.43,0.02,0.0,83.50,92.50,1,0,0.0029,0
19:13:34.821,315124,0.44,-0.43,0.02,0.0,83.50,92.50,1,0,0.0069,0
19:13:35.022,315325,0.44,-0.43,0.02,0.0,83.50,92.50,1,0,0.0017,0
19:13:35.227,315530,0.44,-0.43,0.02,0.0,83.50,92.50,1,0,0.0010,0
19:13:35.426,315729,0.44,-0.43,0.02,0.0,83.50,92.50,1,0,0.0036,0
19:13:35.633,315936,0.44,-0.43,0.02,0.0,83.50,92.50,1,0,0.0010,0
19:13:35.838,316141,0.44,-0.43,0.02,0.0,83.50,92.50,1,0,0.0017,0
19:13:36.038,316341,0.44,-0.43,0.02,0.0,83.50,92.50,1,0,0.0010,0
19:13:36.238,316541,0.44,-0.43,0.02,0.0,83.50,92.50,1,0,0.0036,0
19:13:36.442,316745,0.44,-0.43,0.02,0.0,83.50,92.50,1,0,0.0029,0
19:13:36.642,316945,0.44,-0.43,0.02,0.0,83.50,92.50,1,0,0.0016,0
19:13:36.843,317146,0.44,-0.43,0.02,0.0,83.50,92.50,1,0,0.0010,0
19:13:37.043,317346,0.44,-0.43,0.02,0.0,83.50,92.50,1,0,0.0024,0
19:13:37.244,317547,0.46,-0.40,0.00,0.0,83.50,92.50,1,0,0.0010,0
19:13:37.449,317752,0.49,-0.38,0.01,0.0,83.50,92.50,1,0,0.0035,0
19:13:37.654,317957,0.53,-0.34,0.02,0.0,83.50,92.50,1,0,0.0010,0
19:13:37.853,318156,0.53,-0.35,0.01,0.0,83.50,92.50,1,0,0.0016,0
19:13:38.058,318361,0.50,-0.38,0.03,0.0,83.50,92.50,1,0,0.0010,0
19:13:38.258,318561,0.51,-0.38,0.04,0.0,83.50,92.50,1,0,0.0010,0
19:13:38.458,318761,0.50,-0.39,0.03,0.0,83.50,92.50,1,0,0.0010,0
19:13:38.658,318961,0.49,-0.40,0.02,0.0,83.50,92.50,1,0,0.0024,0
19:13:38.859,319162,0.49,-0.38,0.03,0.0,83.50,92.50,1,0,0.0010,0
19:13:39.060,319363,0.49,-0.38,0.03,0.0,83.50,92.50,1,0,0.0016,0
19:13:39.259,319562,0.50,-0.38,0.05,0.0,83.50,92.50,1,0,0.0010,0
19:13:39.459,319762,0.49,-0.38,0.06,0.0,83.50,92.50,1,0,0.0036,0
19:13:39.660,319963,0.49,-0.38,0.06,0.0,83.50,92.50,1,0,0.0010,0
19:13:39.860,320163,0.51,-0.37,0.07,0.0,83.50,92.50,1,0,0.0016,0
19:13:40.064,320367,0.51,-0.36,0.06,0.0,83.50,92.50,1,0,0.0010,0
19:13:40.264,320567,0.50,-0.36,0.07,0.0,83.50,92.50,1,0,0.0010,0
19:13:40.465,320768,0.49,-0.36,0.08,0.0,83.50,92.50,1,0,0.0036,0
19:13:40.669,320972,0.49,-0.36,0.07,0.0,83.50,92.50,1,0,0.0016,0
19:13:40.869,321172,0.49,-0.36,0.07,0.0,83.50,92.50,1,0,0.0010,0
19:13:41.070,321373,0.49,-0.35,0.07,0.0,83.50,92.50,1,0,0.0017,0
19:13:41.269,321572,0.43,-0.42,0.05,0.0,83.50,92.50,1,0,0.0017,0
19:13:41.474,321777,0.50,-0.30,-1.00,0.0,83.50,92.50,1,0,0.0016,0
19:13:41.675,321978,0.44,-0.41,-0.73,0.0,83.50,92.50,1,0,0.0010,0
19:13:41.874,322177,0.43,-0.46,-0.84,0.0,83.50,92.50,1,0,0.0035,0
19:13:42.076,322379,0.44,-0.45,-1.10,0.0,83.50,92.50,1,0,0.0010,0
19:15:42.676,442979,0.69,-0.37,0.00,0.0,83.50,92.50,1,1,11.1558,0
19:15:42.871,443174,0.68,-0.42,-0.01,0.0,83.50,92.50,1,1,0.0010,0
19:15:43.071,443374,0.66,-0.43,-0.02,0.0,83.50,92.50,1,1,0.0010,0
19:15:43.277,443580,0.66,-0.44,0.00,0.0,83.50,92.50,1,1,0.0010,0
19:15:43.478,443781,0.65,-0.44,-0.00,0.0,83.50,92.50,1,1,0.0010,0
19:15:43.682,443985,0.67,-0.41,0.01,0.0,83.50,92.50,1,1,0.0029,0
19:15:43.882,444185,0.68,-0.40,0.01,0.0,83.50,92.50,1,1,0.0047,0
19:15:44.082,444385,0.71,-0.36,0.03,0.0,83.50,92.50,1,1,0.0017,0
19:15:44.288,444591,0.71,-0.36,0.38,0.0,83.50,92.50,1,1,0.0016,0
19:15:44.489,444792,0.71,-0.34,0.74,0.0,83.50,92.50,1,1,0.0010,0
19:15:44.693,444996,0.75,-0.30,0.69,0.0,83.50,92.50,1,1,0.0057,0
19:15:44.893,445196,0.63,-0.44,0.65,0.0,83.50,92.50,1,1,0.0043,0
19:15:45.093,445396,0.66,-0.37,0.62,0.0,83.50,92.50,1,1,0.0036,0
19:15:45.299,445602,0.64,-0.44,0.57,0.0,83.50,92.50,1,1,0.0010,0
19:15:45.499,445802,0.64,-0.41,0.56,0.0,83.50,92.50,1,1,0.0036,0
19:15:45.699,446002,0.63,-0.43,0.58,0.0,83.50,92.50,1,1,0.0010,0
19:15:45.898,446201,0.62,-0.41,0.56,0.0,83.50,92.50,1,1,0.0010,0
19:15:46.103,446406,0.62,-0.35,0.56,0.0,83.50,92.50,1,1,0.0010,0
19:15:46.303,446606,0.62,-0.31,0.55,0.0,83.50,92.50,1,1,0.0029,0
19:15:46.503,446806,0.63,-0.31,0.57,0.0,83.50,92.50,1,1,0.0047,0
19:15:46.708,447011,0.66,-0.18,0.57,0.0,83.50,92.50,1,1,0.0055,0
19:15:46.909,447212,0.68,-0.13,0.62,0.0,83.50,92.50,1,1,0.0010,0
19:15:47.109,447412,0.79,0.28,-1.02,0.0,83.50,92.50,1,1,0.0016,0
19:15:47.315,447618,0.65,-0.11,-1.07,0.0,83.50,92.50,1,1,0.0029,0
19:16:04.361,464664,0.60,-0.37,-0.00,0.0,83.50,92.50,1,1,11.0307,0
19:16:04.565,464868,0.60,-0.37,0.01,0.0,83.50,92.50,1,1,0.0017,0
19:16:04.766,465069,0.60,-0.38,0.01,0.0,83.50,92.50,1,1,0.0016,0
19:16:04.965,465268,0.59,-0.38,0.01,0.0,83.50,92.50,1,1,0.0016,0
19:16:05.165,465468,0.58,-0.38,0.01,0.0,83.50,92.50,1,1,0.0023,0
19:16:05.365,465668,0.57,-0.39,0.01,0.0,83.50,92.50,1,1,0.0042,0
19:16:05.570,465873,0.57,-0.39,0.02,0.0,83.50,92.50,1,1,0.0010,0
19:16:05.771,466074,0.57,-0.39,0.02,0.0,83.50,92.50,1,1,0.0029,0
19:16:05.972,466275,0.57,-0.39,0.02,0.0,83.50,92.50,1,1,0.0029,0
19:16:06.172,466475,0.57,-0.39,0.02,0.0,83.50,92.50,1,1,0.0029,0
19:16:06.377,466680,0.57,-0.39,0.02,0.0,83.50,92.50,1,1,0.0047,0
19:16:06.577,466880,0.57,-0.39,0.02,0.0,83.50,92.50,1,1,0.0017,0
19:16:06.776,467079,0.57,-0.39,0.02,0.0,83.50,92.50,1,1,0.0017,0
19:16:06.977,467280,0.58,-0.38,0.01,0.0,83.50,92.50,1,1,0.0036,0
19:16:07.176,467479,0.62,-0.35,-0.01,0.0,83.50,92.50,1,1,0.0023,0
19:16:07.377,467680,0.56,-0.42,-0.03,0.0,83.50,92.50,1,1,0.0017,0
19:16:07.577,467880,0.51,-0.47,-0.04,0.0,83.50,92.50,1,1,0.0010,0
19:16:07.782,468085,0.48,-0.50,-0.05,0.0,83.50,92.50,1,1,0.0035,0
19:16:07.987,468290,0.48,-0.50,-0.07,0.0,83.50,92.50,1,1,0.0010,0
19:16:08.186,468489,0.50,-0.49,-0.07,0.0,83.50,92.50,1,1,0.0036,0
19:16:08.387,468690,0.51,-0.50,-0.06,0.0,83.50,92.50,1,1,0.0036,0
19:16:08.586,468889,0.48,-0.52,-0.06,0.0,83.50,92.50,1,1,0.0017,0
19:16:08.792,469095,0.47,-0.53,-0.07,0.0,83.50,92.50,1,1,0.0016,0
19:16:08.998,469301,0.46,-0.54,-0.08,0.0,83.50,92.50,1,1,0.0010,0
19:16:09.197,469500,0.43,-0.57,-0.07,0.0,83.50,92.50,1,1,0.0029,0
19:16:09.398,469701,0.42,-0.58,-0.07,0.0,83.50,92.50,1,1,0.0055,0
19:16:09.604,469907,0.43,-0.58,-0.07,0.0,83.50,92.50,1,1,0.0010,0
19:16:09.807,470110,0.43,-0.60,-0.07,0.0,83.50,92.50,1,1,0.0036,0
19:16:10.014,470317,0.44,-0.61,-0.07,0.0,83.50,92.50,1,1,0.0016,0
19:16:10.213,470516,0.44,-0.62,-0.06,0.0,83.50,92.50,1,1,0.0010,0
19:16:10.417,470720,0.45,-0.63,-0.07,0.0,83.50,92.50,1,1,0.0029,0
19:16:10.618,470921,0.44,-0.65,-0.06,0.0,83.50,92.50,1,1,0.0010,0
19:16:10.823,471126,0.46,-0.65,-0.06,0.0,83.50,92.50,1,1,0.0017,0
19:16:11.023,471326,0.50,-0.62,-0.07,0.0,83.50,92.50,1,1,0.0016,0
19:16:11.222,471525,0.50,-0.62,-0.07,0.0,83.50,92.50,1,1,0.0035,0
19:16:11.423,471726,0.50,-0.63,-0.07,0.0,83.50,92.50,1,1,0.0016,0
19:16:11.624,471927,0.51,-0.62,-0.08,0.0,83.50,92.50,1,1,0.0010,0
19:16:11.823,472126,0.51,-0.62,-0.10,0.0,83.50,92.50,1,1,0.0010,0
19:16:12.029,472332,0.51,-0.62,-0.11,0.0,83.50,92.50,1,1,0.0035,0
19:16:12.229,472532,0.52,-0.63,-0.11,0.0,83.50,92.50,1,1,0.0029,0
19:16:12.434,472737,0.55,-0.60,-0.13,0.0,83.50,92.50,1,1,0.0016,0
19:16:12.633,472936,0.60,-0.56,-0.15,0.0,83.50,92.50,1,1,0.0017,0
19:16:12.834,473137,0.59,-0.56,-0.15,0.0,83.50,92.50,1,1,0.0010,0
19:16:13.034,473337,0.59,-0.55,-0.15,0.0,83.50,92.50,1,1,0.0010,0
19:16:13.234,473537,0.59,-0.55,-0.17,0.0,83.50,92.50,1,1,0.0010,0
19:16:13.439,473742,0.42,-0.69,-0.17,0.0,83.50,92.50,1,1,0.0010,0
19:16:13.644,473947,0.44,-0.64,-0.19,0.0,83.50,92.50,1,1,0.0029,0
19:16:13.844,474147,0.45,-0.60,-0.18,0.0,83.50,92.50,1,1,0.0047,0
19:16:14.044,474347,0.40,-0.67,-0.20,0.0,83.50,92.50,1,1,0.0017,0
19:16:14.244,474547,0.44,-0.61,-0.36,0.0,83.50,92.50,1,1,0.0055,0
19:16:14.444,474747,0.64,-0.25,-0.44,0.0,83.50,92.50,1,1,0.0017,0
19:16:14.649,474952,0.55,-0.48,0.47,0.0,83.50,92.50,1,1,0.0010,0
19:16:14.850,475153,0.47,-0.54,0.45,0.0,83.50,92.50,1,1,0.0045,0
19:16:15.051,475354,0.47,-0.56,0.47,0.0,83.50,92.50,1,1,0.0010,0
19:16:15.255,475558,0.45,-0.54,0.46,0.0,83.50,92.50,1,1,0.0029,0
19:16:15.455,475758,0.46,-0.55,0.48,0.0,83.50,92.50,1,1,0.0055,0
19:16:15.655,475958,0.47,-0.61,0.50,0.0,83.50,92.50,1,1,0.0062,0
19:16:15.861,476164,0.44,-0.82,0.73,0.0,83.50,92.50,1,1,0.0017,0
19:16:16.066,476369,0.45,-0.61,0.80,0.0,83.50,92.50,1,1,0.0010,0
19:16:16.270,476573,0.48,-0.42,0.81,0.0,83.50,92.50,1,1,0.0017,0
19:16:16.471,476774,0.46,-0.56,0.82,0.0,83.50,92.50,1,1,0.0010,0
19:16:16.671,476974,0.47,-0.56,0.85,0.0,83.50,92.50,1,1,0.0043,0
19:16:16.876,477179,0.49,-0.53,0.98,0.0,83.50,92.50,1,1,0.0010,0
19:16:17.076,477379,0.49,-0.38,0.57,0.0,83.50,92.50,1,1,0.0036,0
19:16:17.277,477580,0.41,-0.54,0.52,0.0,83.50,92.50,1,1,0.0029,0
19:16:17.481,477784,0.41,-0.54,0.53,0.0,83.50,92.50,1,1,0.0036,0
19:16:17.681,477984,0.45,-0.45,0.50,0.0,83.50,92.50,1,1,0.0024,0
19:16:17.882,478185,0.42,-0.56,0.52,0.0,83.50,92.50,1,1,0.0016,0
19:16:18.082,478385,0.40,-0.57,0.51,0.0,83.50,92.50,1,1,0.0010,0
19:16:18.287,478590,0.41,-0.57,0.68,0.0,83.50,92.50,1,1,0.0035,0
19:16:18.486,478789,0.43,-0.52,0.75,0.0,83.50,92.50,1,1,0.0010,0
19:16:18.686,478989,0.42,-0.60,0.76,0.0,83.50,92.50,1,1,0.0010,0
19:16:18.887,479190,0.44,-0.59,0.86,0.0,83.50,92.50,1,1,0.0010,0
19:16:19.087,479390,0.41,-0.58,0.86,0.0,83.50,92.50,1,1,0.0029,0
19:16:19.292,479595,0.44,-0.48,0.88,0.0,83.50,92.50,1,1,0.0047,0
19:16:19.492,479795,0.41,-0.63,0.92,0.0,83.50,92.50,1,1,0.0024,0
19:16:19.691,479994,0.43,-0.60,1.02,0.0,83.50,92.50,1,1,0.0023,0
19:16:19.892,480195,0.52,-0.46,1.16,0.0,83.50,92.50,1,1,0.0036,0
19:16:20.092,480395,0.50,-0.51,1.15,0.0,83.50,92.50,1,1,0.0016,0
19:16:20.292,480595,0.77,0.24,0.90,0.0,83.50,92.50,1,1,0.0032,0
19:16:20.493,480796,0.63,-0.10,1.46,0.0,83.50,92.50,1,1,0.0024,0
19:16:20.692,480995,0.58,-0.18,1.48,0.0,83.50,92.50,1,1,0.0017,0
19:16:20.898,481201,0.55,-0.22,1.58,0.0,83.50,92.50,1,1,0.0010,0
19:16:21.098,481401,0.57,-0.24,1.57,0.0,83.50,92.50,1,1,0.0035,0
19:16:21.303,481606,0.56,-0.30,1.73,0.0,83.50,92.50,1,1,0.0010,0
19:16:21.503,481806,0.65,-0.26,0.25,0.0,83.50,92.50,1,1,0.0036,0
19:16:21.702,482005,0.51,-0.27,-0.42,0.0,83.50,92.50,1,1,0.0036,0
19:16:21.902,482205,0.52,-0.27,-0.41,0.0,83.50,92.50,1,1,0.0036,0
19:16:22.104,482407,0.53,-0.25,-0.41,0.0,83.50,92.50,1,1,0.0017,0
19:16:22.309,482612,0.48,-0.31,-0.41,0.0,83.50,92.50,1,1,0.0017,0
19:16:22.508,482811,0.46,-0.33,-0.40,0.0,83.50,92.50,1,1,0.0010,0
19:16:22.709,483012,0.48,-0.32,-0.41,0.0,83.50,92.50,1,1,0.0024,0
19:16:22.909,483212,0.48,-0.32,-0.41,0.0,83.50,92.50,1,1,0.0010,0
19:16:23.109,483412,0.46,-0.32,-0.42,0.0,83.50,92.50,1,1,0.0035,0
19:16:23.308,483611,0.44,-0.32,-0.41,0.0,83.50,92.50,1,1,0.0010,0
19:16:23.508,483811,0.44,-0.33,-0.42,0.0,83.50,92.50,1,1,0.0016,0
19:16:23.708,484011,0.45,-0.31,-0.43,0.0,83.50,92.50,1,1,0.0010,0
19:16:46.616,506919,0.62,-0.36,-0.00,0.0,83.50,92.50,1,1,11.0472,0
19:16:46.815,507118,0.61,-0.35,-1.06,0.0,83.50,92.50,1,1,0.0023,0
19:16:47.016,507319,0.55,-0.38,-2.89,0.0,83.50,92.50,1,1,0.0023,0
19:16:47.215,507518,0.50,-0.45,-3.25,0.0,83.50,92.50,1,1,0.0023,0
19:16:47.415,507718,0.52,-0.42,-3.77,0.0,83.50,92.50,1,1,0.0010,0
19:16:47.615,507918,0.51,-0.43,-4.43,0.0,83.50,92.50,1,1,0.0010,0
19:16:47.815,508118,0.48,-0.48,-4.44,0.0,83.50,92.50,1,1,0.0062,0
19:16:48.021,508324,0.47,-0.47,-4.46,0.0,83.50,92.50,1,1,0.0010,0
19:16:48.221,508524,0.48,-0.46,-4.46,0.0,83.50,92.50,1,1,0.0035,0
19:16:48.421,508724,0.49,-0.47,-4.45,0.0,83.50,92.50,1,1,0.0010,0
19:16:48.626,508929,0.49,-0.46,-4.46,0.0,83.50,92.50,1,1,0.0017,0
19:16:48.827,509130,0.48,-0.47,-4.76,0.0,83.50,92.50,1,1,0.0010,0
19:16:49.026,509329,0.46,-0.49,-4.83,0.0,83.50,92.50,1,1,0.0035,0
19:16:49.227,509530,0.48,-0.46,-4.83,0.0,83.50,92.50,1,1,0.0010,0
19:16:49.431,509734,0.47,-0.48,-4.84,0.0,83.50,92.50,1,1,0.0042,0
19:16:49.631,509934,0.46,-0.47,-4.87,0.0,83.50,92.50,1,1,0.0010,0
19:16:49.831,510134,0.45,-0.49,-4.90,0.0,83.50,92.50,1,1,0.0043,0
19:16:50.031,510334,0.45,-0.49,-4.89,0.0,83.50,92.50,1,1,0.0010,0
19:16:50.231,510534,0.44,-0.49,-4.90,0.0,83.50,92.50,1,1,0.0029,0
19:16:50.437,510740,0.44,-0.49,-4.90,0.0,83.50,92.50,1,1,0.0029,0
19:16:50.636,510939,0.44,-0.49,-4.90,0.0,83.50,92.50,1,1,0.0016,0
19:16:50.836,511139,0.44,-0.49,-4.90,0.0,83.50,92.50,1,1,0.0055,0
19:16:51.036,511339,0.44,-0.49,-4.90,0.0,83.50,92.50,1,1,0.0016,0
19:16:51.237,511540,0.44,-0.49,-4.90,0.0,83.50,92.50,1,1,0.0010,0
19:16:51.442,511745,0.44,-0.49,-4.90,0.0,83.50,92.50,1,1,0.0016,0
19:16:51.637,511940,0.44,-0.49,-4.90,0.0,83.50,92.50,1,1,0.0010,0
19:16:51.838,512141,0.44,-0.49,-4.90,0.0,83.50,92.50,1,1,0.0036,0
19:16:52.044,512347,0.44,-0.49,-4.90,0.0,83.50,92.50,1,1,0.0010,0
19:16:52.243,512546,0.44,-0.49,-4.90,0.0,83.50,92.50,1,1,0.0035,0
19:16:52.447,512750,0.44,-0.49,-4.90,0.0,83.50,92.50,1,1,0.0029,0
19:16:52.647,512950,0.44,-0.49,-4.90,0.0,83.50,92.50,1,1,0.0035,0
19:16:52.848,513151,0.44,-0.49,-4.90,0.0,83.50,92.50,1,1,0.0029,0
19:16:53.048,513351,0.44,-0.49,-4.90,0.0,83.50,92.50,1,1,0.0035,0
19:16:53.248,513551,0.44,-0.49,-4.90,0.0,83.50,92.50,1,1,0.0055,0
19:16:53.448,513751,0.44,-0.49,-4.90,0.0,83.50,92.50,1,1,0.0029,0
19:16:53.650,513953,0.44,-0.49,-4.90,0.0,83.50,92.50,1,1,0.0062,0
19:16:53.854,514157,0.44,-0.49,-4.90,0.0,83.50,92.50,1,1,0.0016,0
19:16:54.054,514357,0.44,-0.49,-4.90,0.0,83.50,92.50,1,1,0.0010,0
19:16:54.253,514556,0.44,-0.49,-4.90,0.0,83.50,92.50,1,1,0.0035,0
19:16:54.459,514762,0.44,-0.49,-4.90,0.0,83.50,92.50,1,1,0.0010,0
19:16:54.659,514962,0.44,-0.49,-4.90,0.0,83.50,92.50,1,1,0.0029,0
19:16:54.859,515162,0.44,-0.49,-4.90,0.0,83.50,92.50,1,1,0.0029,0
19:16:55.059,515362,0.44,-0.49,-4.90,0.0,83.50,92.50,1,1,0.0029,0
19:16:55.260,515563,0.44,-0.49,-4.90,0.0,83.50,92.50,1,1,0.0047,0
19:16:55.464,515767,0.44,-0.49,-4.90,0.0,83.50,92.50,1,1,0.0016,0
19:16:55.664,515967,0.44,-0.49,-4.90,0.0,83.50,92.50,1,1,0.0016,0
19:16:55.865,516168,0.44,-0.49,-4.90,0.0,83.50,92.50,1,1,0.0043,0
19:16:56.070,516373,0.44,-0.49,-4.90,0.0,83.50,92.50,1,1,0.0010,0
19:16:56.275,516578,0.44,-0.49,-4.90,0.0,83.50,92.50,1,1,0.0043,0
19:16:56.481,516784,0.44,-0.49,-4.90,0.0,83.50,92.50,1,1,0.0017,0
19:16:56.680,516983,0.44,-0.49,-4.90,0.0,83.50,92.50,1,1,0.0010,0
19:16:56.880,517183,0.39,-0.56,-4.91,0.0,83.50,92.50,1,1,0.0031,0
19:16:57.085,517388,0.43,-0.52,-4.91,0.0,83.50,92.50,1,1,0.0029,0
19:16:57.286,517589,0.51,-0.42,-4.93,0.0,83.50,92.50,1,1,0.0029,0
19:16:57.486,517789,0.59,-0.31,-4.93,0.0,83.50,92.50,1,1,0.0023,0
19:16:57.691,517994,0.62,-0.28,-4.93,0.0,83.50,92.50,1,1,0.0016,0
19:16:57.896,518199,0.61,-0.30,-4.95,0.0,83.50,92.50,1,1,0.0010,0
19:16:58.095,518398,0.61,-0.59,-6.12,0.0,83.50,92.50,1,1,0.0018,0
19:16:58.301,518604,0.42,-0.92,-6.20,0.0,83.50,92.50,1,1,0.0010,0
19:16:58.500,518803,0.36,-1.06,-6.24,0.0,83.50,92.50,1,1,0.0035,0
19:16:58.700,519003,0.42,-0.98,-6.30,0.0,83.50,92.50,1,1,0.0010,0
19:16:58.901,519204,0.46,-0.91,-6.39,0.0,83.50,92.50,1,1,0.0042,0
19:16:59.107,519410,0.35,-1.05,-6.44,0.0,83.50,92.50,1,1,0.0010,0
19:16:59.311,519614,0.36,-1.08,-6.47,0.0,83.50,92.50,1,1,0.0017,0
19:16:59.511,519814,0.43,-0.96,-6.47,0.0,83.50,92.50,1,1,0.0023,0
19:16:59.716,520019,0.46,-0.91,-6.50,0.0,83.50,92.50,1,1,0.0010,0
19:16:59.917,520220,0.45,-0.91,-6.51,0.0,83.50,92.50,1,1,0.0029,0
19:17:00.117,520420,0.46,-0.90,-6.51,0.0,83.50,92.50,1,1,0.0029,0
19:17:00.322,520625,0.43,-0.92,-6.52,0.0,83.50,92.50,1,1,0.0029,0
19:17:00.521,520824,0.44,-0.90,-6.54,0.0,83.50,92.50,1,1,0.0010,0
19:17:00.727,521030,0.46,-0.89,-6.56,0.0,83.50,92.50,1,1,0.0017,0
19:17:00.926,521229,0.45,-0.92,-6.56,0.0,83.50,92.50,1,1,0.0029,0
19:17:01.132,521435,0.44,-0.94,-6.55,0.0,83.50,92.50,1,1,0.0036,0
19:17:01.332,521635,0.45,-0.95,-6.55,0.0,83.50,92.50,1,1,0.0010,0
19:17:01.531,521834,0.45,-0.95,-6.55,0.0,83.50,92.50,1,1,0.0016,0
19:17:01.737,522040,0.45,-0.95,-6.55,0.0,83.50,92.50,1,1,0.0010,0
19:17:01.937,522240,0.45,-0.95,-6.55,0.0,83.50,92.50,1,1,0.0062,0
19:17:02.138,522441,0.45,-0.95,-6.55,0.0,83.50,92.50,1,1,0.0029,0
19:17:02.342,522645,0.45,-0.95,-6.55,0.0,83.50,92.50,1,1,0.0016,0
19:17:02.542,522845,0.48,-0.93,-6.54,0.0,83.50,92.50,1,1,0.0036,0
19:17:02.743,523046,0.48,-0.92,-6.56,0.0,83.50,92.50,1,1,0.0043,0
19:17:02.943,523246,0.46,-0.93,-6.56,0.0,83.50,92.50,1,1,0.0016,0
19:17:03.142,523445,0.46,-0.92,-6.56,0.0,83.50,92.50,1,1,0.0024,0
19:17:03.343,523646,0.55,-0.84,-6.56,0.0,83.50,92.50,1,1,0.0010,0
19:17:03.548,523851,0.57,-0.87,-6.54,0.0,83.50,92.50,1,1,0.0043,0
19:17:03.749,524052,0.62,-0.84,-6.54,0.0,83.50,92.50,1,1,0.0010,0
19:17:03.948,524251,0.61,-0.84,-6.52,0.0,83.50,92.50,1,1,0.0010,0
19:17:04.150,524453,0.63,-0.81,-6.52,0.0,83.50,92.50,1,1,0.0010,0
19:17:04.349,524652,0.61,-0.83,-6.53,0.0,83.50,92.50,1,1,0.0029,0
19:17:04.553,524856,0.61,-0.83,-6.53,0.0,83.50,92.50,1,1,0.0010,0
19:17:04.759,525062,0.60,-0.84,-6.54,0.0,83.50,92.50,1,1,0.0017,0
19:17:04.958,525261,0.61,-0.84,-6.55,0.0,83.50,92.50,1,1,0.0010,0
19:17:05.158,525461,0.62,-0.82,-6.54,0.0,83.50,92.50,1,1,0.0042,0
19:17:05.359,525662,0.62,-0.83,-6.55,0.0,83.50,92.50,1,1,0.0010,0
19:17:05.564,525867,0.63,-0.81,-6.57,0.0,83.50,92.50,1,1,0.0043,0
19:17:05.763,526066,0.62,-0.81,-6.58,0.0,83.50,92.50,1,1,0.0029,0
19:17:05.964,526267,0.59,-0.82,-6.58,0.0,83.50,92.50,1,1,0.0043,0
19:17:06.169,526472,0.59,-0.82,-6.60,0.0,83.50,92.50,1,1,0.0036,0
19:17:06.364,526667,0.61,-0.79,-6.60,0.0,83.50,92.50,1,1,0.0043,0
19:17:06.566,526869,0.64,-0.78,-6.60,0.0,83.50,92.50,1,1,0.0036,0
19:17:06.766,527069,0.63,-0.80,-6.60,0.0,83.50,92.50,1,1,0.0035,0
19:17:06.967,527270,0.63,-0.82,-6.59,0.0,83.50,92.50,1,1,0.0036,0
19:17:07.172,527475,0.62,-0.83,-6.60,0.0,83.50,92.50,1,1,0.0037,0
19:17:07.371,527674,0.62,-0.82,-6.62,0.0,83.50,92.50,1,1,0.0017,0
19:17:07.572,527875,0.62,-0.83,-6.63,0.0,83.50,92.50,1,1,0.0024,0
19:17:07.772,528075,0.61,-0.83,-6.64,0.0,83.50,92.50,1,1,0.0017,0
19:17:07.972,528275,0.60,-0.84,-6.65,0.0,83.50,92.50,1,1,0.0016,0
19:17:08.172,528475,0.60,-0.84,-6.65,0.0,83.50,92.50,1,1,0.0010,0
19:17:08.372,528675,0.60,-0.84,-6.65,0.0,83.50,92.50,1,1,0.0016,0
19:17:08.571,528874,0.60,-0.84,-6.65,0.0,83.50,92.50,1,1,0.0010,0
19:17:08.771,529074,0.60,-0.84,-6.65,0.0,83.50,92.50,1,1,0.0016,0
19:17:08.976,529279,0.60,-0.84,-6.65,0.0,83.50,92.50,1,1,0.0010,0
19:17:09.177,529480,0.60,-0.84,-6.65,0.0,83.50,92.50,1,1,0.0035,0
19:17:09.382,529685,0.58,-0.86,-6.65,0.0,83.50,92.50,1,1,0.0029,0
19:17:09.582,529885,0.58,-0.86,-6.65,0.0,83.50,92.50,1,1,0.0017,0
19:17:09.783,530086,0.59,-0.84,-6.65,0.0,83.50,92.50,1,1,0.0010,0
19:17:09.989,530292,0.62,-0.81,-6.65,0.0,83.50,92.50,1,1,0.0042,0
19:17:10.186,530489,0.60,-0.82,-6.67,0.0,83.50,92.50,1,1,0.0010,0
19:17:10.388,530691,0.61,-0.80,-6.68,0.0,83.50,92.50,1,1,0.0042,0
