Timestamp,ElapsedMillis,Yaw,Pitch,Roll,Altitude,YawServo,PitchServo,Pyro1,Pyro2,DeltaTime,State
18:58:15.342,182137,0.73,-0.07,-0.00,0.0,83.50,92.50,1,0,11.0455,0
18:58:15.547,182342,0.78,-0.01,0.02,0.0,83.50,92.50,1,0,0.0010,0
18:58:15.748,182542,0.79,0.00,0.02,0.0,83.50,92.50,1,0,0.0036,0
18:58:15.947,182741,0.83,0.03,0.03,0.0,83.50,92.50,1,0,0.0055,0
18:58:16.147,182941,0.80,-0.01,0.04,0.0,83.50,92.50,1,0,0.0017,0
18:58:16.347,183141,0.86,0.05,0.06,0.0,83.50,92.50,1,0,0.0016,0
18:58:16.552,183346,0.81,-0.00,0.06,0.0,83.50,92.50,1,0,0.0043,0
18:58:16.752,183546,0.76,-0.06,0.07,0.0,83.50,92.50,1,0,0.0010,0
18:58:16.952,183746,0.71,-0.12,0.08,0.0,83.50,92.50,1,0,0.0043,0
18:58:17.151,183945,0.75,-0.09,0.07,0.0,83.50,92.50,1,0,0.0010,0
18:58:17.351,184145,0.72,-0.12,0.06,0.0,83.50,92.50,1,0,0.0035,0
18:58:17.555,184349,0.67,-0.17,0.04,0.0,83.50,92.50,1,0,0.0010,0
18:58:17.757,184551,0.69,-0.15,0.04,0.0,83.50,92.50,1,0,0.0029,0
18:58:17.956,184750,0.72,-0.11,0.03,0.0,83.50,92.50,1,0,0.0029,0
18:58:18.162,184956,0.69,-0.14,0.01,0.0,83.50,92.50,1,0,0.0017,0
18:58:18.361,185155,0.72,-0.11,0.02,0.0,83.50,92.50,1,0,0.0055,0
18:58:18.562,185356,0.66,-0.16,0.02,0.0,83.50,92.50,1,0,0.0029,0
18:58:18.762,185556,0.66,-0.17,0.03,0.0,83.50,92.50,1,0,0.0023,0
18:58:18.962,185756,0.68,-0.14,0.03,0.0,83.50,92.50,1,0,0.0043,0
18:58:19.162,185956,0.71,-0.14,0.04,0.0,83.50,92.50,1,0,0.0010,0
18:58:19.367,186161,0.70,-0.16,0.04,0.0,83.50,92.50,1,0,0.0035,0
18:58:19.568,186362,0.73,-0.12,0.03,0.0,83.50,92.50,1,0,0.0010,0
18:58:19.767,186561,0.70,-0.15,0.02,0.0,83.50,92.50,1,0,0.0035,0
18:58:19.967,186761,0.67,-0.18,0.01,0.0,83.50,92.50,1,0,0.0010,0
18:58:20.172,186966,0.67,-0.18,0.02,0.0,83.50,92.50,1,0,0.0017,0
18:58:20.372,187166,0.66,-0.20,0.03,0.0,83.50,92.50,1,0,0.0017,0
18:58:20.571,187365,0.67,-0.19,0.04,0.0,83.50,92.50,1,0,0.0010,0
18:58:20.772,187566,0.64,-0.21,0.04,0.0,83.50,92.50,1,0,0.0010,0
18:58:20.973,187767,0.68,-0.18,0.04,0.0,83.50,92.50,1,0,0.0042,0
18:58:21.173,187967,0.68,-0.19,0.06,0.0,83.50,92.50,1,0,0.0010,0
18:58:21.378,188172,0.68,-0.20,0.07,0.0,83.50,92.50,1,0,0.0010,0
18:58:21.584,188378,0.69,-0.20,0.08,0.0,83.50,92.50,1,0,0.0029,0
18:58:21.784,188578,0.70,-0.20,0.10,0.0,83.50,92.50,1,0,0.0029,0
18:58:21.983,188777,0.71,-0.19,0.08,0.0,83.50,92.50,1,0,0.0029,0
18:58:22.184,188978,0.71,-0.19,0.09,0.0,83.50,92.50,1,0,0.0017,0
18:58:22.384,189178,0.71,-0.19,0.09,0.0,83.50,92.50,1,0,0.0010,0
18:58:22.585,189379,0.71,-0.19,0.09,0.0,83.50,92.50,1,0,0.0035,0
18:58:22.785,189579,0.71,-0.19,0.09,0.0,83.50,92.50,1,0,0.0016,0
18:58:22.989,189783,0.71,-0.19,0.09,0.0,83.50,92.50,1,0,0.0017,0
18:58:23.189,189983,0.71,-0.19,0.09,0.0,83.50,92.50,1,0,0.0010,0
18:58:23.389,190183,0.71,-0.19,0.09,0.0,83.50,92.50,1,0,0.0017,0
18:58:23.588,190382,0.71,-0.19,0.09,0.0,83.50,92.50,1,0,0.0010,0
18:58:23.788,190582,0.71,-0.19,0.09,0.0,83.50,92.50,1,0,0.0016,0
18:58:23.989,190783,0.71,-0.20,0.09,0.0,83.50,92.50,1,0,0.0010,0
18:58:24.188,190982,0.70,-0.18,0.08,0.0,83.50,92.50,1,0,0.0035,0
18:58:24.389,191183,0.69,-0.19,0.10,0.0,83.50,92.50,1,0,0.0010,0
18:58:24.595,191389,0.70,-0.20,0.10,0.0,83.50,92.50,1,0,0.0035,0
18:58:24.795,191589,0.70,-0.21,0.10,0.0,83.50,92.50,1,0,0.0010,0
18:58:25.001,191795,0.72,-0.21,0.10,0.0,83.50,92.50,1,0,0.0024,0
18:58:25.199,191993,0.78,-0.10,-1.08,0.0,83.50,92.50,1,0,0.0024,0
18:58:25.400,192194,0.70,-0.25,-1.17,0.0,83.50,92.50,1,0,0.0036,0
18:58:25.600,192394,0.68,-0.34,-1.31,0.0,83.50,92.50,1,0,0.0024,0
18:58:25.801,192595,0.68,-0.32,-1.79,0.0,83.50,92.50,1,0,0.0024,0
18:58:26.000,192794,0.69,-0.35,-2.24,0.0,83.50,92.50,1,0,0.0017,0
18:58:26.200,192994,0.69,-0.31,-2.30,0.0,83.50,92.50,1,0,0.0016,0
18:58:26.399,193194,0.72,-0.34,-2.60,0.0,83.50,92.50,1,0,0.0010,0
18:58:26.600,193394,0.68,-0.31,-2.79,0.0,83.50,92.50,1,0,0.0017,0
18:58:26.801,193595,0.68,-0.34,-2.81,0.0,83.50,92.50,1,0,0.0010,0
18:58:27.001,193795,0.80,-0.37,-2.80,0.0,83.50,92.50,1,0,0.0036,0
18:58:27.201,193995,0.74,-0.38,-2.85,0.0,83.50,92.50,1,0,0.0010,0
18:59:18.534,245328,0.75,-0.12,-0.00,0.0,83.50,92.50,1,0,11.0463,0
18:59:18.733,245528,0.76,-0.11,0.02,0.0,83.50,92.50,1,0,0.0010,0
18:59:18.934,245728,0.75,-0.13,0.01,0.0,83.50,92.50,1,0,0.0035,0
18:59:19.134,245928,0.75,-0.12,0.01,0.0,83.50,92.50,1,0,0.0029,0
18:59:19.334,246128,0.76,-0.12,0.02,0.0,83.50,92.50,1,0,0.0029,0
18:59:19.538,246332,0.78,-0.11,0.03,0.0,83.50,92.50,1,0,0.0029,0
18:59:19.738,246532,0.78,-0.11,0.03,0.0,83.50,92.50,1,0,0.0017,0
18:59:19.939,246733,0.79,-0.11,0.03,0.0,83.50,92.50,1,0,0.0010,0
18:59:20.139,246933,0.78,-0.12,0.03,0.0,83.50,92.50,1,0,0.0016,0
18:59:20.345,247139,0.79,-0.10,0.02,0.0,83.50,92.50,1,0,0.0010,0
18:59:20.545,247339,0.79,-0.10,0.02,0.0,83.50,92.50,1,0,0.0010,0
18:59:20.745,247539,0.80,-0.08,-0.00,0.0,83.50,92.50,1,0,0.0010,0
18:59:20.945,247739,0.80,-0.08,-0.00,0.0,83.50,92.50,1,0,0.0035,0
18:59:21.150,247944,0.80,-0.08,0.00,0.0,83.50,92.50,1,0,0.0029,0
18:59:21.356,248150,0.80,-0.08,0.00,0.0,83.50,92.50,1,0,0.0017,0
18:59:21.556,248350,0.80,-0.08,0.00,0.0,83.50,92.50,1,0,0.0010,0
18:59:21.755,248549,0.80,-0.08,0.00,0.0,83.50,92.50,1,0,0.0041,0
18:59:21.959,248753,0.80,-0.08,0.00,0.0,83.50,92.50,1,0,0.0010,0
18:59:22.160,248954,0.80,-0.08,0.00,0.0,83.50,92.50,1,0,0.0036,0
18:59:22.365,249159,0.80,-0.08,0.00,0.0,83.50,92.50,1,0,0.0017,0
18:59:22.565,249359,0.80,-0.08,0.00,0.0,83.50,92.50,1,0,0.0010,0
18:59:22.770,249565,0.80,-0.08,0.00,0.0,83.50,92.50,1,0,0.0010,0
18:59:22.970,249764,0.80,-0.08,0.00,0.0,83.50,92.50,1,0,0.0029,0
18:59:23.170,249964,0.80,-0.08,0.00,0.0,83.50,92.50,1,0,0.0029,0
18:59:23.375,250169,0.80,-0.08,0.00,0.0,83.50,92.50,1,0,0.0055,0
18:59:23.575,250369,0.80,-0.08,0.00,0.0,83.50,92.50,1,0,0.0016,0
18:59:23.780,250575,0.80,-0.08,0.00,0.0,83.50,92.50,1,0,0.0010,0
18:59:23.980,250774,0.80,-0.08,0.00,0.0,83.50,92.50,1,0,0.0029,0
18:59:24.180,250974,0.80,-0.08,0.00,0.0,83.50,92.50,1,0,0.0036,0
18:59:24.380,251174,0.80,-0.08,0.00,0.0,83.50,92.50,1,0,0.0036,0
18:59:24.581,251375,0.80,-0.08,0.00,0.0,83.50,92.50,1,0,0.0029,0
18:59:24.786,251580,0.80,-0.08,0.00,0.0,83.50,92.50,1,0,0.0047,0
18:59:24.986,251780,0.80,-0.08,0.00,0.0,83.50,92.50,1,0,0.0036,0
18:59:25.186,251981,0.80,-0.08,0.00,0.0,83.50,92.50,1,0,0.0055,0
18:59:25.386,252180,0.80,-0.08,0.00,0.0,83.50,92.50,1,0,0.0010,0
18:59:25.591,252385,0.80,-0.08,0.00,0.0,83.50,92.50,1,0,0.0029,0
18:59:25.791,252585,0.80,-0.08,0.00,0.0,83.50,92.50,1,0,0.0010,0
18:59:25.992,252786,0.80,-0.08,0.00,0.0,83.50,92.50,1,0,0.0036,0
18:59:26.197,252991,0.80,-0.08,0.00,0.0,83.50,92.50,1,0,0.0036,0
18:59:26.397,253191,0.80,-0.08,0.00,0.0,83.50,92.50,1,0,0.0036,0
18:59:26.597,253391,0.80,-0.08,0.00,0.0,83.50,92.50,1,0,0.0023,0
18:59:26.797,253591,0.80,-0.08,0.00,0.0,83.50,92.50,1,0,0.0029,0
18:59:26.997,253791,0.80,-0.08,0.00,0.0,83.50,92.50,1,0,0.0017,0
18:59:27.203,253997,0.80,-0.08,0.00,0.0,83.50,92.50,1,0,0.0017,0
18:59:27.407,254201,0.80,-0.08,0.00,0.0,83.50,92.50,1,0,0.0010,0
18:59:27.607,254401,0.78,-0.04,3.26,0.0,83.50,92.50,1,0,0.0024,0
18:59:27.808,254602,0.70,-0.14,3.22,0.0,83.50,92.50,1,0,0.0010,0
18:59:28.013,254807,0.71,-0.10,3.66,0.0,83.50,92.50,1,0,0.0016,0
18:59:28.213,255007,0.79,-0.09,6.18,0.0,83.50,92.50,1,0,0.0010,0
18:59:28.413,255207,0.67,-0.04,10.79,0.0,83.50,92.50,1,0,0.0036,0
18:59:28.613,255407,0.64,-0.06,9.12,0.0,83.50,92.50,1,0,0.0010,0
18:59:28.813,255607,0.65,-0.05,9.34,0.0,83.50,92.50,1,0,0.0035,0
18:59:29.017,255811,0.69,-0.05,10.80,0.0,83.50,92.50,1,0,0.0010,0
18:59:29.223,256017,0.68,-0.02,11.08,0.0,83.50,92.50,1,0,0.0017,0
18:59:29.423,256217,0.68,-0.03,11.09,0.0,83.50,92.50,1,0,0.0024,0
18:59:29.623,256418,0.68,-0.02,11.09,0.0,83.50,92.50,1,0,0.0023,0
18:59:29.824,256618,0.70,-0.07,10.92,0.0,83.50,92.50,1,0,0.0010,0
18:59:30.025,256819,0.63,-0.03,10.25,0.0,83.50,92.50,1,0,0.0035,0
18:59:30.225,257019,0.68,-0.00,9.84,0.0,83.50,92.50,1,0,0.0010,0
18:59:30.429,257223,0.76,0.09,9.61,0.0,83.50,92.50,1,0,0.0035,0
18:59:30.634,257428,0.61,-0.07,9.39,0.0,83.50,92.50,1,0,0.0055,0
18:59:30.835,257629,0.51,-0.16,9.40,0.0,83.50,92.50,1,0,0.0024,0
18:59:31.035,257829,0.47,-0.21,9.42,0.0,83.50,92.50,1,0,0.0023,0
18:59:31.234,258028,0.45,-0.22,9.41,0.0,83.50,92.50,1,0,0.0017,0
18:59:31.435,258230,0.46,-0.22,9.41,0.0,83.50,92.50,1,0,0.0055,0
18:59:31.634,258428,0.45,-0.22,9.39,0.0,83.50,92.50,1,0,0.0016,0
18:59:31.834,258629,0.46,-0.23,9.39,0.0,83.50,92.50,1,0,0.0010,0
18:59:32.035,258829,0.46,-0.23,9.38,0.0,83.50,92.50,1,0,0.0016,0
18:59:32.235,259029,0.46,-0.22,9.37,0.0,83.50,92.50,1,0,0.0018,0
18:59:32.435,259229,0.46,-0.23,9.37,0.0,83.50,92.50,1,0,0.0017,0
18:59:32.634,259428,0.39,-0.29,8.91,0.0,83.50,92.50,1,0,0.0010,0
18:59:32.840,259634,0.49,-0.14,8.82,0.0,83.50,92.50,1,0,0.0017,0
18:59:33.040,259834,0.50,-0.14,9.02,0.0,83.50,92.50,1,0,0.0010,0
18:59:33.241,260035,0.51,-0.21,9.02,0.0,83.50,92.50,1,0,0.0029,0
18:59:33.445,260239,0.47,-0.22,8.75,0.0,83.50,92.50,1,0,0.0010,0
18:59:33.645,260439,0.41,-0.33,8.73,0.0,83.50,92.50,1,0,0.0055,0
19:01:01.405,348199,0.57,-0.38,-0.00,0.0,83.50,92.50,1,0,11.0426,0
19:01:01.605,348399,0.56,-0.39,-0.00,0.0,83.50,92.50,1,0,0.0029,0
19:01:01.805,348599,0.55,-0.41,-0.01,0.0,83.50,92.50,1,0,0.0029,0
19:01:02.210,349004,0.57,-0.41,-0.01,0.0,83.50,92.50,1,0,0.0047,0
19:01:02.411,349205,0.56,-0.41,-0.01,0.0,83.50,92.50,1,0,0.0035,0
19:01:02.610,349404,0.57,-0.41,-0.01,0.0,83.50,92.50,1,0,0.0055,0
19:01:02.810,349604,0.57,-0.41,-0.02,0.0,83.50,92.50,1,0,0.0035,0
19:01:03.010,349804,0.57,-0.41,-0.02,0.0,83.50,92.50,1,0,0.0036,0
19:01:03.210,350004,0.57,-0.41,-0.02,0.0,83.50,92.50,1,0,0.0017,0
19:01:03.409,350203,0.57,-0.41,-0.02,0.0,83.50,92.50,1,0,0.0017,0
19:01:03.610,350404,0.57,-0.41,-0.02,0.0,83.50,92.50,1,0,0.0023,0
19:01:03.810,350604,0.57,-0.41,-0.02,0.0,83.50,92.50,1,0,0.0010,0
19:01:04.016,350810,0.57,-0.41,-0.03,0.0,83.50,92.50,1,0,0.0035,0
19:01:04.216,351010,0.55,-0.42,-0.04,0.0,83.50,92.50,1,0,0.0010,0
19:01:04.416,351210,0.56,-0.41,-0.03,0.0,83.50,92.50,1,0,0.0035,0
19:01:04.620,351415,0.56,-0.41,-0.04,0.0,83.50,92.50,1,0,0.0029,0
19:01:04.820,351614,0.53,-0.44,-0.06,0.0,83.50,92.50,1,0,0.0024,0
19:01:05.022,351816,0.53,-0.44,-0.06,0.0,83.50,92.50,1,0,0.0016,0
19:01:05.226,352020,0.53,-0.44,-0.06,0.0,83.50,92.50,1,0,0.0043,0
19:01:05.427,352221,0.53,-0.44,-0.06,0.0,83.50,92.50,1,0,0.0010,0
19:01:05.631,352425,0.53,-0.44,-0.06,0.0,83.50,92.50,1,0,0.0029,0
19:01:05.831,352625,0.53,-0.44,-0.06,0.0,83.50,92.50,1,0,0.0029,0
19:01:06.031,352825,0.53,-0.44,-0.06,0.0,83.50,92.50,1,0,0.0010,0
19:01:06.231,353025,0.53,-0.44,-0.06,0.0,83.50,92.50,1,0,0.0055,0
19:01:06.431,353225,0.53,-0.44,-0.06,0.0,83.50,92.50,1,0,0.0024,0
19:01:06.637,353431,0.53,-0.44,-0.06,0.0,83.50,92.50,1,0,0.0010,0
19:01:06.837,353631,0.53,-0.44,-0.06,0.0,83.50,92.50,1,0,0.0017,0
19:01:07.038,353832,0.53,-0.44,-0.06,0.0,83.50,92.50,1,0,0.0010,0
19:01:07.237,354031,0.53,-0.44,-0.06,0.0,83.50,92.50,1,0,0.0036,0
19:01:07.437,354231,0.53,-0.44,-0.06,0.0,83.50,92.50,1,0,0.0010,0
19:01:07.637,354431,0.53,-0.44,-0.06,0.0,83.50,92.50,1,0,0.0036,0
19:01:07.837,354631,0.53,-0.44,-0.06,0.0,83.50,92.50,1,0,0.0010,0
19:01:08.042,354836,0.53,-0.44,-0.06,0.0,83.50,92.50,1,0,0.0017,0
19:01:08.242,355037,0.56,-0.41,-0.04,0.0,83.50,92.50,1,0,0.0010,0
19:01:08.443,355237,0.56,-0.41,-0.03,0.0,83.50,92.50,1,0,0.0036,0
19:01:08.643,355437,0.58,-0.39,-0.04,0.0,83.50,92.50,1,0,0.0029,0
19:01:08.843,355637,0.58,-0.40,-0.04,0.0,83.50,92.50,1,0,0.0036,0
19:01:09.042,355836,0.60,-0.38,-0.04,0.0,83.50,92.50,1,0,0.0029,0
19:01:09.248,356042,0.59,-0.39,-0.06,0.0,83.50,92.50,1,0,0.0029,0
19:01:09.653,356447,0.59,-0.38,-0.07,0.0,83.50,92.50,1,0,0.0017,0
19:01:09.854,356648,0.59,-0.38,-0.07,0.0,83.50,92.50,1,0,0.0010,0
19:01:10.058,356852,0.59,-0.39,-0.07,0.0,83.50,92.50,1,0,0.0023,0
19:01:10.258,357052,0.60,-0.39,-0.07,0.0,83.50,92.50,1,0,0.0016,0
19:01:10.459,357253,0.59,-0.37,-0.06,0.0,83.50,92.50,1,0,0.0036,0
19:01:10.659,357453,0.59,-0.38,-0.07,0.0,83.50,92.50,1,0,0.0029,0
19:01:10.858,357652,0.61,-0.36,-0.08,0.0,83.50,92.50,1,0,0.0029,0
19:01:11.058,357852,0.60,-0.36,-0.09,0.0,83.50,92.50,1,0,0.0023,0
19:01:11.263,358057,0.60,-0.36,-0.09,0.0,83.50,92.50,1,0,0.0017,0
19:01:11.463,358257,0.60,-0.36,-0.09,0.0,83.50,92.50,1,0,0.0010,0
19:01:11.663,358457,0.60,-0.36,-0.09,0.0,83.50,92.50,1,0,0.0036,0
19:01:11.864,358658,0.60,-0.36,-0.09,0.0,83.50,92.50,1,0,0.0010,0
19:01:12.064,358858,0.60,-0.36,-0.09,0.0,83.50,92.50,1,0,0.0017,0
19:01:12.269,359064,0.60,-0.36,-0.09,0.0,83.50,92.50,1,0,0.0029,0
19:01:12.470,359264,0.60,-0.36,-0.09,0.0,83.50,92.50,1,0,0.0036,0
19:01:12.670,359464,0.60,-0.36,-0.09,0.0,83.50,92.50,1,0,0.0036,0
19:01:12.870,359664,0.60,-0.36,-0.09,0.0,83.50,92.50,1,0,0.0029,0
19:01:13.069,359863,0.60,-0.36,-0.09,0.0,83.50,92.50,1,0,0.0029,0
19:01:13.270,360064,0.60,-0.36,-0.09,0.0,83.50,92.50,1,0,0.0029,0
19:01:13.474,360268,0.61,-0.35,-0.09,0.0,83.50,92.50,1,0,0.0062,0
19:01:13.674,360468,0.59,-0.35,-0.08,0.0,83.50,92.50,1,0,0.0036,0
19:01:13.875,360669,0.61,-0.33,-0.09,0.0,83.50,92.50,1,0,0.0043,0
19:01:14.074,360868,0.59,-0.34,-0.10,0.0,83.50,92.50,1,0,0.0010,0
19:01:14.279,361073,0.60,-0.34,-0.12,0.0,83.50,92.50,1,0,0.0013,0
19:01:14.480,361274,0.60,-0.34,-0.13,0.0,83.50,92.50,1,0,0.0010,0
19:01:14.680,361474,0.60,-0.34,-0.13,0.0,83.50,92.50,1,0,0.0036,0
19:01:14.881,361675,0.60,-0.34,-0.13,0.0,83.50,92.50,1,0,0.0029,0
19:01:15.081,361875,0.60,-0.34,-0.13,0.0,83.50,92.50,1,0,0.0029,0
19:01:15.286,362080,0.60,-0.34,-0.13,0.0,83.50,92.50,1,0,0.0055,0
19:01:15.486,362280,0.60,-0.34,-0.13,0.0,83.50,92.50,1,0,0.0017,0
19:01:15.687,362481,0.60,-0.34,-0.13,0.0,83.50,92.50,1,0,0.0036,0
19:01:15.886,362680,0.60,-0.34,-0.13,0.0,83.50,92.50,1,0,0.0016,0
19:01:16.086,362880,0.60,-0.34,-0.13,0.0,83.50,92.50,1,0,0.0017,0
19:01:16.286,363080,0.60,-0.34,-0.13,0.0,83.50,92.50,1,0,0.0023,0
19:01:16.491,363285,0.60,-0.34,-0.13,0.0,83.50,92.50,1,0,0.0010,0
19:01:16.692,363486,0.60,-0.34,-0.13,0.0,83.50,92.50,1,0,0.0043,0
19:01:16.892,363686,0.60,-0.34,-0.13,0.0,83.50,92.50,1,0,0.0010,0
19:01:17.091,363885,0.60,-0.34,-0.13,0.0,83.50,92.50,1,0,0.0029,0
19:01:17.296,364090,0.60,-0.34,-0.13,0.0,83.50,92.50,1,0,0.0010,0
19:01:17.497,364291,0.60,-0.34,-0.13,0.0,83.50,92.50,1,0,0.0016,0
19:01:17.702,364496,0.60,-0.34,-0.13,0.0,83.50,92.50,1,0,0.0024,0
19:01:17.904,364698,0.60,-0.34,-0.13,0.0,83.50,92.50,1,0,0.0010,0
19:01:18.108,364902,0.60,-0.34,-0.13,0.0,83.50,92.50,1,0,0.0029,0
19:01:18.308,365102,0.60,-0.34,-0.13,0.0,83.50,92.50,1,0,0.0029,0
19:01:18.513,365307,0.60,-0.34,-0.13,0.0,83.50,92.50,1,0,0.0017,0
19:01:18.713,365507,0.60,-0.34,-0.13,0.0,83.50,92.50,1,0,0.0010,0
19:01:18.918,365712,0.60,-0.34,-0.13,0.0,83.50,92.50,1,0,0.0029,0
19:01:19.117,365911,0.60,-0.34,-0.13,0.0,83.50,92.50,1,0,0.0036,0
19:01:19.322,366116,0.60,-0.34,-0.13,0.0,83.50,92.50,1,0,0.0023,0
19:01:19.524,366318,0.60,-0.34,-0.13,0.0,83.50,92.50,1,0,0.0010,0
19:01:19.723,366517,0.60,-0.34,-0.13,0.0,83.50,92.50,1,0,0.0036,0
19:01:19.929,366723,0.60,-0.34,-0.13,0.0,83.50,92.50,1,0,0.0010,0
19:01:20.128,366922,0.60,-0.34,-0.13,0.0,83.50,92.50,1,0,0.0029,0
19:01:20.328,367122,0.60,-0.34,-0.13,0.0,83.50,92.50,1,0,0.0029,0
19:01:20.532,367326,0.60,-0.34,-0.13,0.0,83.50,92.50,1,0,0.0016,0
19:01:20.734,367528,0.60,-0.34,-0.13,0.0,83.50,92.50,1,0,0.0010,0
19:01:20.938,367732,0.60,-0.34,-0.13,0.0,83.50,92.50,1,0,0.0038,0
19:01:21.138,367932,0.60,-0.34,-0.13,0.0,83.50,92.50,1,0,0.0010,0
19:01:21.338,368132,0.60,-0.34,-0.13,0.0,83.50,92.50,1,0,0.0035,0
19:01:21.538,368332,0.60,-0.34,-0.13,0.0,83.50,92.50,1,0,0.0010,0
19:01:21.744,368538,0.60,-0.34,-0.13,0.0,83.50,92.50,1,0,0.0024,0
19:01:21.949,368743,0.60,-0.34,-0.13,0.0,83.50,92.50,1,0,0.0024,0
19:01:22.149,368943,0.60,-0.34,-0.13,0.0,83.50,92.50,1,0,0.0043,0
19:01:22.349,369143,0.60,-0.34,-0.13,0.0,83.50,92.50,1,0,0.0010,0
19:01:22.548,369342,0.60,-0.34,-0.13,0.0,83.50,92.50,1,0,0.0010,0
19:01:22.749,369543,0.57,-0.34,-0.14,0.0,83.50,92.50,1,0,0.0010,0
19:01:22.950,369744,0.56,-0.37,-0.14,0.0,83.50,92.50,1,0,0.0035,0
19:01:23.149,369943,0.57,-0.37,-0.15,0.0,83.50,92.50,1,0,0.0010,0
19:01:23.350,370144,0.58,-0.36,-0.14,0.0,83.50,92.50,1,0,0.0010,0
19:01:23.549,370343,0.54,-0.40,-0.14,0.0,83.50,92.50,1,0,0.0010,0
19:01:23.750,370544,0.53,-0.40,-0.15,0.0,83.50,92.50,1,0,0.0029,0
19:01:23.954,370748,0.55,-0.39,-0.15,0.0,83.50,92.50,1,0,0.0029,0
19:01:24.155,370949,0.56,-0.37,-0.12,0.0,83.50,92.50,1,0,0.0024,0
19:01:24.355,371149,0.55,-0.39,-0.14,0.0,83.50,92.50,1,0,0.0024,0
19:01:24.554,371348,0.56,-0.38,-0.14,0.0,83.50,92.50,1,0,0.0016,0
19:01:24.755,371549,0.59,-0.35,-0.13,0.0,83.50,92.50,1,0,0.0024,0
19:01:24.960,371754,0.58,-0.39,-0.13,0.0,83.50,92.50,1,0,0.0036,0
19:01:25.161,371955,0.58,-0.39,-0.15,0.0,83.50,92.50,1,0,0.0017,0
19:01:25.361,372155,0.57,-0.40,-0.14,0.0,83.50,92.50,1,0,0.0010,0
19:01:25.561,372355,0.58,-0.40,-0.13,0.0,83.50,92.50,1,0,0.0010,0
19:01:25.761,372555,0.55,-0.42,-0.13,0.0,83.50,92.50,1,0,0.0010,0
19:01:25.961,372755,0.58,-0.38,-0.14,0.0,83.50,92.50,1,0,0.0010,0
19:01:26.166,372960,0.56,-0.41,-0.15,0.0,83.50,92.50,1,0,0.0036,0
19:01:26.366,373160,0.54,-0.43,-0.15,0.0,83.50,92.50,1,0,0.0010,0
19:01:26.565,373359,0.55,-0.41,-0.16,0.0,83.50,92.50,1,0,0.0024,0
19:01:26.766,373560,0.56,-0.39,-0.17,0.0,83.50,92.50,1,0,0.0048,0
19:01:26.966,373760,0.58,-0.37,-0.16,0.0,83.50,92.50,1,0,0.0055,0
19:01:27.167,373961,0.58,-0.37,-0.17,0.0,83.50,92.50,1,0,0.0036,0
19:01:27.371,374165,0.56,-0.39,-0.18,0.0,83.50,92.50,1,0,0.0018,0
19:01:27.572,374366,0.56,-0.39,-0.03,0.0,83.50,92.50,1,0,0.0010,0
19:01:27.777,374571,0.51,-0.41,0.01,0.0,83.50,92.50,1,0,0.0036,0
19:01:27.977,374771,0.55,-0.39,0.01,0.0,83.50,92.50,1,0,0.0029,0
19:01:28.182,374976,0.55,-0.40,0.04,0.0,83.50,92.50,1,0,0.0017,0
19:01:28.383,375177,0.57,-0.41,0.04,0.0,83.50,92.50,1,0,0.0024,0
19:01:28.582,375376,0.60,-0.38,0.04,0.0,83.50,92.50,1,0,0.0024,0
19:01:28.782,375576,0.56,-0.38,0.04,0.0,83.50,92.50,1,0,0.0016,0
19:01:28.983,375777,0.51,-0.43,0.08,0.0,83.50,92.50,1,0,0.0017,0
19:01:29.184,375978,0.55,-0.40,0.10,0.0,83.50,92.50,1,0,0.0010,0
19:01:29.393,376187,0.56,-0.41,0.11,0.0,83.50,92.50,1,0,0.0035,0
19:01:29.592,376386,0.52,-0.45,0.11,0.0,83.50,92.50,1,0,0.0029,0
19:01:29.793,376587,0.51,-0.45,0.12,0.0,83.50,92.50,1,0,0.0018,0
19:01:29.993,376787,0.50,-0.47,0.11,0.0,83.50,92.50,1,0,0.0010,0
19:01:30.193,376987,0.48,-0.49,0.11,0.0,83.50,92.50,1,0,0.0016,0
19:01:30.393,377187,0.51,-0.46,0.09,0.0,83.50,92.50,1,0,0.0010,0
19:01:30.598,377392,0.42,-0.55,0.09,0.0,83.50,92.50,1,0,0.0042,0
19:01:30.799,377593,0.51,-0.46,0.08,0.0,83.50,92.50,1,0,0.0010,0
19:01:30.999,377793,0.40,-0.58,0.07,0.0,83.50,92.50,1,0,0.0043,0
19:01:31.198,377992,0.50,-0.49,0.09,0.0,83.50,92.50,1,0,0.0010,0
19:01:31.399,378193,0.46,-0.43,1.35,0.0,83.50,92.50,1,0,0.0010,0
19:01:31.604,378398,0.54,-0.38,-1.61,0.0,83.50,92.50,1,0,0.0010,0
19:02:55.318,462112,0.49,-0.48,-0.00,0.0,83.50,92.50,1,0,11.0211,0
19:02:55.524,462318,0.49,-0.47,0.01,0.0,83.50,92.50,1,0,0.0016,0
19:02:55.724,462518,0.48,-0.47,0.01,0.0,83.50,92.50,1,0,0.0010,0
19:02:55.924,462718,0.48,-0.47,0.01,0.0,83.50,92.50,1,0,0.0017,0
19:02:56.129,462923,0.48,-0.48,0.02,0.0,83.50,92.50,1,0,0.0010,0
19:02:56.328,463122,0.47,-0.48,0.02,0.0,83.50,92.50,1,0,0.0036,0
19:02:56.529,463323,0.48,-0.48,0.03,0.0,83.50,92.50,1,0,0.0054,0
19:02:56.734,463528,0.48,-0.47,0.03,0.0,83.50,92.50,1,0,0.0024,0
19:02:56.934,463728,0.48,-0.47,0.04,0.0,83.50,92.50,1,0,0.0023,0
19:02:57.135,463929,0.48,-0.47,0.06,0.0,83.50,92.50,1,0,0.0017,0
19:02:57.334,464128,0.48,-0.47,0.06,0.0,83.50,92.50,1,0,0.0010,0
19:02:57.539,464333,0.48,-0.47,0.06,0.0,83.50,92.50,1,0,0.0010,0
19:02:57.739,464533,0.48,-0.47,0.07,0.0,83.50,92.50,1,0,0.0029,0
19:02:57.944,464738,0.49,-0.46,0.05,0.0,83.50,92.50,1,0,0.0017,0
19:02:58.144,464938,0.49,-0.47,0.07,0.0,83.50,92.50,1,0,0.0016,0
19:02:58.345,465139,0.48,-0.46,0.07,0.0,83.50,92.50,1,0,0.0036,0
19:02:58.544,465338,0.49,-0.46,0.05,0.0,83.50,92.50,1,0,0.0023,0
19:02:58.745,465539,0.49,-0.45,0.04,0.0,83.50,92.50,1,0,0.0016,0
19:02:58.945,465739,0.49,-0.45,0.04,0.0,83.50,92.50,1,0,0.0010,0
19:02:59.145,465939,0.49,-0.45,0.04,0.0,83.50,92.50,1,0,0.0017,0
19:02:59.345,466139,0.49,-0.45,0.04,0.0,83.50,92.50,1,0,0.0010,0
19:02:59.550,466344,0.49,-0.45,0.04,0.0,83.50,92.50,1,0,0.0035,0
19:02:59.749,466543,0.49,-0.45,0.04,0.0,83.50,92.50,1,0,0.0010,0
19:02:59.955,466749,0.49,-0.45,0.04,0.0,83.50,92.50,1,0,0.0059,0
19:03:00.156,466950,0.60,-0.38,2.64,0.0,83.50,92.50,1,0,0.0055,0
19:03:00.356,467150,0.78,-0.39,-1.42,0.0,83.50,92.50,1,0,0.0024,0
19:03:00.555,467349,0.85,-0.27,-3.17,0.0,83.50,92.50,1,0,0.0016,0
19:03:00.760,467554,0.86,-0.28,-3.19,0.0,83.50,92.50,1,0,0.0017,0
19:03:00.960,467754,0.78,-0.41,-3.18,0.0,83.50,92.50,1,0,0.0010,0
19:03:01.159,467953,0.79,-0.40,-3.19,0.0,83.50,92.50,1,0,0.0044,0
19:03:01.360,468154,0.79,-0.45,-3.19,0.0,83.50,92.50,1,0,0.0010,0
19:03:01.565,468359,0.80,-0.42,-3.18,0.0,83.50,92.50,1,0,0.0029,0
19:03:01.765,468559,0.80,-0.44,-3.17,0.0,83.50,92.50,1,0,0.0029,0
19:03:18.013,484807,0.59,-0.46,0.00,0.0,83.50,92.50,1,0,11.1535,0
19:03:18.212,485006,0.58,-0.46,0.00,0.0,83.50,92.50,1,0,0.0043,0
19:03:18.418,485212,0.57,-0.46,-0.01,0.0,83.50,92.50,1,0,0.0016,0
19:03:18.616,485410,0.57,-0.46,-0.00,0.0,83.50,92.50,1,0,0.0010,0
19:03:18.817,485611,0.56,-0.45,0.01,0.0,83.50,92.50,1,0,0.0023,0
19:03:19.019,485813,0.56,-0.45,0.01,0.0,83.50,92.50,1,0,0.0012,0
19:03:19.216,486010,0.56,-0.46,0.01,0.0,83.50,92.50,1,0,0.0010,0
19:03:19.422,486216,0.55,-0.47,0.02,0.0,83.50,92.50,1,0,0.0010,0
19:03:19.622,486416,0.55,-0.48,0.01,0.0,83.50,92.50,1,0,0.0055,0
19:03:19.830,486624,0.55,-0.48,-0.00,0.0,83.50,92.50,1,0,0.0029,0
19:03:20.030,486824,0.55,-0.47,-0.00,0.0,83.50,92.50,1,0,0.0036,0
19:03:20.233,487027,0.54,-0.47,-0.02,0.0,83.50,92.50,1,0,0.0010,0
19:03:20.432,487226,0.56,-0.47,-0.02,0.0,83.50,92.50,1,0,0.0031,0
19:03:20.633,487427,0.56,-0.47,-0.02,0.0,83.50,92.50,1,0,0.0036,0
19:03:20.835,487629,0.56,-0.47,-0.02,0.0,83.50,92.50,1,0,0.0055,0
19:03:21.039,487833,0.56,-0.47,-0.02,0.0,83.50,92.50,1,0,0.0029,0
19:03:21.239,488033,0.56,-0.47,-0.02,0.0,83.50,92.50,1,0,0.0036,0
19:03:21.438,488232,0.56,-0.47,-0.02,0.0,83.50,92.50,1,0,0.0016,0
19:03:21.639,488433,0.56,-0.47,-0.02,0.0,83.50,92.50,1,0,0.0017,0
19:03:21.844,488638,0.54,-0.48,-0.02,0.0,83.50,92.50,1,0,0.0010,0
19:03:22.044,488838,0.55,-0.49,-0.01,0.0,83.50,92.50,1,0,0.0010,0
19:03:22.243,489037,0.55,-0.49,-0.01,0.0,83.50,92.50,1,0,0.0010,0
19:03:22.447,489241,0.55,-0.51,-0.00,0.0,83.50,92.50,1,0,0.0029,0
19:03:22.648,489442,0.55,-0.51,0.02,0.0,83.50,92.50,1,0,0.0010,0
19:03:22.848,489642,0.55,-0.51,0.02,0.0,83.50,92.50,1,0,0.0036,0
19:03:23.048,489842,0.55,-0.51,0.02,0.0,83.50,92.50,1,0,0.0010,0
19:03:23.254,490048,0.55,-0.51,0.02,0.0,83.50,92.50,1,0,0.0010,0
19:03:23.455,490249,0.55,-0.51,0.02,0.0,83.50,92.50,1,0,0.0010,0
19:03:23.660,490454,0.55,-0.51,0.02,0.0,83.50,92.50,1,0,0.0036,0
19:03:23.859,490653,0.55,-0.51,0.02,0.0,83.50,92.50,1,0,0.0036,0
19:03:24.060,490854,0.55,-0.51,0.02,0.0,83.50,92.50,1,0,0.0016,0
19:03:24.261,491055,0.55,-0.51,0.02,0.0,83.50,92.50,1,0,0.0010,0
19:03:24.461,491255,0.55,-0.51,0.02,0.0,83.50,92.50,1,0,0.0016,0
19:03:24.661,491455,0.55,-0.51,0.02,0.0,83.50,92.50,1,0,0.0010,0
19:03:24.867,491661,0.55,-0.51,0.02,0.0,83.50,92.50,1,0,0.0055,0
19:03:25.070,491864,0.55,-0.51,0.02,0.0,83.50,92.50,1,0,0.0010,0
19:03:25.266,492060,0.55,-0.51,0.02,0.0,83.50,92.50,1,0,0.0029,0
19:03:25.471,492265,0.55,-0.51,0.02,0.0,83.50,92.50,1,0,0.0010,0
19:03:25.671,492465,0.54,-0.52,0.00,0.0,83.50,92.50,1,0,0.0023,0
19:03:25.872,492666,0.55,-0.51,0.01,0.0,83.50,92.50,1,0,0.0062,0
19:03:26.071,492865,0.54,-0.51,0.03,0.0,83.50,92.50,1,0,0.0017,0
19:03:26.271,493065,0.55,-0.51,0.04,0.0,83.50,92.50,1,0,0.0016,0
19:03:26.476,493270,0.55,-0.50,0.03,0.0,83.50,92.50,1,0,0.0036,0
19:03:26.677,493471,0.55,-0.49,0.03,0.0,83.50,92.50,1,0,0.0010,0
19:03:26.877,493671,0.55,-0.49,-0.00,0.0,83.50,92.50,1,0,0.0029,0
19:03:27.077,493871,0.55,-0.49,-0.01,0.0,83.50,92.50,1,0,0.0010,0
19:03:27.277,494071,0.55,-0.50,-0.03,0.0,83.50,92.50,1,0,0.0017,0
19:03:27.483,494277,0.53,-0.51,-0.04,0.0,83.50,92.50,1,0,0.0010,0
19:03:27.688,494482,0.49,-0.54,-0.05,0.0,83.50,92.50,1,0,0.0023,0
19:03:27.889,494683,0.49,-0.55,-0.05,0.0,83.50,92.50,1,0,0.0010,0
19:03:28.089,494884,0.49,-0.55,-0.04,0.0,83.50,92.50,1,0,0.0017,0
19:03:28.293,495087,0.50,-0.55,-0.04,0.0,83.50,92.50,1,0,0.0010,0
19:03:28.492,495286,0.50,-0.56,-0.01,0.0,83.50,92.50,1,0,0.0029,0
19:03:28.692,495486,0.50,-0.56,-0.01,0.0,83.50,92.50,1,0,0.0029,0
19:03:28.898,495692,0.50,-0.56,-0.01,0.0,83.50,92.50,1,0,0.0023,0
19:03:29.099,495893,0.50,-0.56,-0.01,0.0,83.50,92.50,1,0,0.0036,0
19:03:29.299,496093,0.50,-0.56,-0.01,0.0,83.50,92.50,1,0,0.0017,0
19:03:29.498,496292,0.50,-0.56,-0.01,0.0,83.50,92.50,1,0,0.0010,0
19:03:29.698,496492,0.50,-0.56,-0.01,0.0,83.50,92.50,1,0,0.0016,0
19:03:29.899,496693,0.50,-0.56,-0.01,0.0,83.50,92.50,1,0,0.0010,0
19:03:30.098,496892,0.50,-0.56,-0.01,0.0,83.50,92.50,1,0,0.0017,0
19:03:30.298,497092,0.50,-0.56,-0.01,0.0,83.50,92.50,1,0,0.0010,0
19:03:30.500,497294,0.50,-0.56,-0.01,0.0,83.50,92.50,1,0,0.0024,0
19:03:30.704,497498,0.50,-0.56,-0.01,0.0,83.50,92.50,1,0,0.0010,0
19:03:30.905,497699,0.50,-0.56,-0.01,0.0,83.50,92.50,1,0,0.0016,0
19:03:31.110,497904,0.50,-0.56,-0.01,0.0,83.50,92.50,1,0,0.0036,0
19:03:31.309,498103,0.50,-0.56,-0.01,0.0,83.50,92.50,1,0,0.0023,0
19:03:31.509,498303,0.50,-0.56,-0.01,0.0,83.50,92.50,1,0,0.0010,0
19:03:31.715,498510,0.50,-0.56,-0.01,0.0,83.50,92.50,1,0,0.0010,0
19:03:31.920,498714,0.50,-0.56,-0.01,0.0,83.50,92.50,1,0,0.0010,0
19:03:32.120,498914,0.50,-0.56,-0.01,0.0,83.50,92.50,1,0,0.0024,0
19:03:32.321,499115,0.50,-0.56,-0.01,0.0,83.50,92.50,1,0,0.0023,0
19:03:32.520,499314,0.50,-0.56,-0.01,0.0,83.50,92.50,1,0,0.0023,0
19:03:32.720,499514,0.50,-0.56,-0.01,0.0,83.50,92.50,1,0,0.0023,0
19:03:32.921,499715,0.50,-0.56,-0.01,0.0,83.50,92.50,1,0,0.0017,0
19:03:33.125,499919,0.50,-0.56,-0.01,0.0,83.50,92.50,1,0,0.0010,0
19:03:33.324,500118,0.49,-0.58,0.21,0.0,83.50,92.50,1,0,0.0036,0
19:03:33.526,500320,0.53,-0.55,0.35,0.0,83.50,92.50,1,0,0.0010,0
19:03:33.731,500525,0.47,-0.63,0.40,0.0,83.50,92.50,1,0,0.0010,0
19:03:33.931,500725,0.50,-0.60,0.42,0.0,83.50,92.50,1,0,0.0055,0
19:03:34.136,500930,0.50,-0.60,0.44,0.0,83.50,92.50,1,0,0.0023,0
19:03:34.336,501130,0.50,-0.59,0.45,0.0,83.50,92.50,1,0,0.0016,0
19:03:34.538,501332,0.47,-0.60,0.44,0.0,83.50,92.50,1,0,0.0016,0
19:03:34.737,501531,0.48,-0.59,0.46,0.0,83.50,92.50,1,0,0.0010,0
19:03:34.936,501730,0.48,-0.59,0.45,0.0,83.50,92.50,1,0,0.0038,0
19:03:35.137,501931,0.47,-0.59,0.45,0.0,83.50,92.50,1,0,0.0010,0
19:03:35.336,502130,0.47,-0.59,0.44,0.0,83.50,92.50,1,0,0.0017,0
19:03:35.535,502329,0.48,-0.58,0.46,0.0,83.50,92.50,1,0,0.0010,0
19:03:35.736,502530,0.48,-0.58,0.44,0.0,83.50,92.50,1,0,0.0017,0
19:03:35.937,502731,0.48,-0.59,0.45,0.0,83.50,92.50,1,0,0.0010,0
19:03:36.137,502931,0.48,-0.59,0.44,0.0,83.50,92.50,1,0,0.0036,0
19:03:36.336,503130,0.48,-0.60,0.43,0.0,83.50,92.50,1,0,0.0017,0
19:03:36.542,503336,0.48,-0.60,0.43,0.0,83.50,92.50,1,0,0.0010,0
19:03:36.747,503541,0.48,-0.60,0.43,0.0,83.50,92.50,1,0,0.0010,0
19:03:36.947,503741,0.48,-0.60,0.43,0.0,83.50,92.50,1,0,0.0024,0
19:03:37.146,503940,0.48,-0.60,0.43,0.0,83.50,92.50,1,0,0.0023,0
19:03:37.347,504141,0.48,-0.60,0.43,0.0,83.50,92.50,1,0,0.0036,0
19:03:37.547,504341,0.48,-0.60,0.43,0.0,83.50,92.50,1,0,0.0010,0
19:03:37.748,504542,0.48,-0.60,0.43,0.0,83.50,92.50,1,0,0.0017,0
19:03:37.952,504746,0.48,-0.60,0.43,0.0,83.50,92.50,1,0,0.0010,0
19:03:38.152,504946,0.48,-0.60,0.43,0.0,83.50,92.50,1,0,0.0035,0
19:03:38.352,505147,0.48,-0.60,0.43,0.0,83.50,92.50,1,0,0.0010,0
19:04:04.139,530933,0.48,-0.55,-0.00,0.0,83.50,92.50,1,0,11.0462,0
19:04:04.340,531134,0.48,-0.57,-0.01,0.0,83.50,92.50,1,0,0.0010,0
19:04:04.539,531333,0.48,-0.57,-0.01,0.0,83.50,92.50,1,0,0.0017,0
19:04:04.745,531539,0.47,-0.59,-0.01,0.0,83.50,92.50,1,0,0.0010,0
19:04:04.945,531739,0.48,-0.60,-0.01,0.0,83.50,92.50,1,0,0.0029,0
19:04:05.144,531938,0.48,-0.61,-0.02,0.0,83.50,92.50,1,0,0.0010,0
19:04:05.345,532139,0.49,-0.62,-0.03,0.0,83.50,92.50,1,0,0.0029,0
19:04:05.545,532339,0.49,-0.63,-0.03,0.0,83.50,92.50,1,0,0.0029,0
19:04:05.751,532545,0.49,-0.63,-0.04,0.0,83.50,92.50,1,0,0.0017,0
19:04:05.950,532745,0.49,-0.63,-0.02,0.0,83.50,92.50,1,0,0.0010,0
19:04:06.151,532945,0.50,-0.64,-0.03,0.0,83.50,92.50,1,0,0.0016,0
19:04:06.350,533144,0.50,-0.63,-0.04,0.0,83.50,92.50,1,0,0.0016,0
19:04:06.551,533346,0.50,-0.64,-0.04,0.0,83.50,92.50,1,0,0.0029,0
19:04:07.150,533944,0.50,-0.64,-0.04,0.0,83.50,92.50,1,0,0.0010,0
19:04:07.356,534150,0.50,-0.64,-0.04,0.0,83.50,92.50,1,0,0.0010,0
19:04:07.555,534349,0.50,-0.64,-0.04,0.0,83.50,92.50,1,0,0.0010,0
19:04:07.755,534549,0.50,-0.64,-0.04,0.0,83.50,92.50,1,0,0.0031,0
19:04:07.961,534755,0.50,-0.64,-0.04,0.0,83.50,92.50,1,0,0.0029,0
19:04:08.161,534955,0.51,-0.63,-0.02,0.0,83.50,92.50,1,0,0.0055,0
19:04:08.361,535155,0.53,-0.65,-0.01,0.0,83.50,92.50,1,0,0.0047,0
19:04:08.565,535359,0.57,-0.62,-0.02,0.0,83.50,92.50,1,0,0.0055,0
19:04:08.766,535560,0.53,-0.68,-0.00,0.0,83.50,92.50,1,0,0.0055,0
19:04:08.966,535760,0.58,-0.62,0.01,0.0,83.50,92.50,1,0,0.0017,0
19:04:09.172,535966,0.60,-0.62,0.00,0.0,83.50,92.50,1,0,0.0010,0
19:04:09.378,536172,0.60,-0.65,-0.00,0.0,83.50,92.50,1,0,0.0017,0
19:04:09.577,536371,0.62,-0.63,0.02,0.0,83.50,92.50,1,0,0.0010,0
19:04:09.777,536571,0.62,-0.63,0.03,0.0,83.50,92.50,1,0,0.0043,0
19:04:09.982,536777,0.66,-0.60,0.04,0.0,83.50,92.50,1,0,0.0029,0
19:04:10.187,536981,0.66,-0.59,0.03,0.0,83.50,92.50,1,0,0.0017,0
19:04:10.387,537181,0.67,-0.58,0.03,0.0,83.50,92.50,1,0,0.0016,0
19:04:10.592,537386,0.66,-0.59,0.03,0.0,83.50,92.50,1,0,0.0046,0
19:04:10.792,537586,0.66,-0.59,0.03,0.0,83.50,92.50,1,0,0.0029,0
19:04:10.992,537786,0.66,-0.59,0.05,0.0,83.50,92.50,1,0,0.0010,0
19:04:11.194,537988,0.66,-0.60,0.05,0.0,83.50,92.50,1,0,0.0055,0
19:04:11.393,538187,0.66,-0.60,0.05,0.0,83.50,92.50,1,0,0.0010,0
19:04:11.593,538387,0.66,-0.60,0.05,0.0,83.50,92.50,1,0,0.0055,0
19:04:11.798,538592,0.66,-0.60,0.05,0.0,83.50,92.50,1,0,0.0036,0
19:04:11.999,538793,0.67,-0.59,0.05,0.0,83.50,92.50,1,0,0.0017,0
19:04:12.199,538993,0.70,-0.57,0.05,0.0,83.50,92.50,1,0,0.0010,0
19:04:12.398,539192,0.66,-0.59,0.03,0.0,83.50,92.50,1,0,0.0024,0
19:04:12.604,539398,0.68,-0.59,0.01,0.0,83.50,92.50,1,0,0.0010,0
19:04:12.804,539598,0.67,-0.60,0.00,0.0,83.50,92.50,1,0,0.0017,0
19:04:13.005,539799,0.66,-0.60,-0.01,0.0,83.50,92.50,1,0,0.0029,0
19:04:13.205,539999,0.66,-0.61,-0.02,0.0,83.50,92.50,1,0,0.0029,0
19:04:13.406,540200,0.66,-0.61,-0.02,0.0,83.50,92.50,1,0,0.0010,0
19:04:13.604,540398,0.67,-0.61,-0.01,0.0,83.50,92.50,1,0,0.0029,0
19:04:13.810,540604,0.67,-0.61,-0.01,0.0,83.50,92.50,1,0,0.0029,0
19:04:14.010,540804,0.67,-0.61,-0.01,0.0,83.50,92.50,1,0,0.0047,0
19:04:14.209,541003,0.67,-0.61,-0.01,0.0,83.50,92.50,1,0,0.0017,0
19:04:14.409,541203,0.67,-0.61,-0.01,0.0,83.50,92.50,1,0,0.0029,0
19:04:14.610,541404,0.67,-0.61,-0.01,0.0,83.50,92.50,1,0,0.0016,0
19:04:14.810,541604,0.67,-0.61,-0.01,0.0,83.50,92.50,1,0,0.0016,0
19:04:15.010,541804,0.62,-0.61,-0.01,0.0,83.50,92.50,1,0,0.0023,0
19:04:15.212,542006,0.65,-0.56,0.00,0.0,83.50,92.50,1,0,0.0016,0
19:04:15.410,542205,0.64,-0.56,0.00,0.0,83.50,92.50,1,0,0.0036,0
19:04:15.610,542404,0.65,-0.57,0.03,0.0,83.50,92.50,1,0,0.0024,0
19:04:15.811,542605,0.69,-0.55,0.02,0.0,83.50,92.50,1,0,0.0023,0
19:04:16.012,542806,0.68,-0.53,-1.01,0.0,83.50,92.50,1,0,0.0017,0
19:04:16.212,543006,0.57,-0.64,-1.83,0.0,83.50,92.50,1,0,0.0029,0
19:04:16.412,543206,0.57,-0.63,-2.32,0.0,83.50,92.50,1,0,0.0016,0
19:04:16.612,543406,0.59,-0.59,-2.36,0.0,83.50,92.50,1,0,0.0036,0
19:04:16.813,543607,0.60,-0.61,-2.36,0.0,83.50,92.50,1,0,0.0010,0
19:04:17.013,543807,0.59,-0.64,-2.37,0.0,83.50,92.50,1,0,0.0055,0
19:04:17.213,544007,0.59,-0.64,-2.40,0.0,83.50,92.50,1,0,0.0010,0
19:04:17.418,544212,0.59,-0.67,-2.38,0.0,83.50,92.50,1,0,0.0029,0
19:04:17.619,544413,0.59,-0.62,-2.38,0.0,83.50,92.50,1,0,0.0010,0
