Timestamp,ElapsedMillis,Yaw,Pitch,Roll,Altitude,YawServo,PitchServo
21:36:55.988,187030,2.93,5.87,-0.91,729.4,10.04,4.24
21:36:56.215,187257,-5.32,3.95,-0.26,-0.0,-9.57,3.63
21:36:56.273,187315,-7.31,6.05,-0.20,0.1,-9.59,8.62
21:36:56.329,187371,-8.55,8.45,-0.25,0.1,-8.58,11.45
21:36:56.387,187429,-8.09,10.00,-0.36,-0.0,-4.74,10.37
21:36:56.443,187486,-5.23,9.51,-0.32,0.1,3.04,5.50
21:36:56.501,187543,-1.85,7.78,-0.23,0.1,7.09,1.00
21:36:56.672,187715,0.20,1.77,-0.28,0.1,-4.11,-2.46
21:36:56.730,187772,-2.35,1.71,-0.31,0.0,-7.77,1.03
21:36:56.787,187829,-4.99,3.17,-0.28,0.1,-9.45,5.27
21:36:56.844,187886,-7.54,5.50,-0.25,0.2,-11.27,9.59
21:36:56.959,188001,-10.11,10.42,-0.41,0.2,-7.88,12.32
21:36:57.016,188058,-7.78,11.46,-0.38,0.2,-0.19,10.22
21:36:57.073,188115,-5.17,11.28,-0.34,0.1,3.35,7.40
21:36:57.130,188172,-2.25,10.16,-0.27,0.1,5.26,4.45
21:36:57.188,188230,0.22,8.36,-0.17,0.0,5.77,1.61
21:36:57.244,188286,1.57,6.52,-0.14,0.1,4.20,0.02
21:36:57.301,188343,1.25,4.58,-0.17,0.1,0.43,-1.05
21:36:57.358,188400,-0.58,3.51,-0.20,0.1,-4.94,-0.00
21:36:57.417,188459,-2.85,3.76,-0.22,0.2,-7.67,3.27
21:36:57.473,188515,-5.20,5.16,-0.23,0.1,-9.32,7.24
21:36:57.531,188573,-7.51,7.17,-0.22,0.0,-10.63,9.98
21:36:57.588,188630,-9.32,9.40,-0.29,-0.0,-11.08,12.13
21:36:57.645,188687,-9.08,11.31,-0.30,-0.0,-6.55,12.19
21:36:57.702,188745,-7.81,12.22,-0.27,0.0,-2.35,11.28
21:36:57.758,188801,-5.72,12.28,-0.24,0.0,0.99,9.10
21:36:57.817,188859,-3.46,11.32,-0.21,0.0,2.74,6.08
21:36:57.874,188916,-1.46,9.56,-0.19,-0.0,3.07,3.26
21:36:57.931,188973,-0.23,7.28,-0.16,-0.0,2.46,0.22
21:36:57.989,189031,-0.28,4.89,-0.18,-0.0,-0.48,-1.81
21:36:58.045,189087,-1.80,2.94,-0.23,-0.0,-5.12,-1.91
21:36:58.159,189201,-6.04,4.13,-0.28,-0.0,-9.78,6.98
21:36:58.217,189259,-7.95,6.57,-0.30,0.1,-10.23,10.93
21:36:58.274,189316,-9.65,9.43,-0.33,0.1,-10.81,13.75
21:36:58.331,189373,-9.84,11.71,-0.39,0.0,-8.00,14.71
21:36:58.388,189430,-8.16,12.89,-0.34,0.0,-1.91,12.56
21:36:58.446,189488,-5.35,13.11,-0.28,-0.0,2.07,10.52
21:36:58.503,189545,-2.30,12.09,-0.21,0.1,5.17,6.96
21:36:58.560,189602,0.75,10.15,-0.11,0.1,6.82,3.45
21:36:58.617,189659,3.29,7.83,-0.04,0.0,7.19,1.30
21:36:58.674,189716,4.32,5.30,-0.08,-0.1,4.93,-0.55
21:36:58.732,189774,3.05,3.27,-0.15,0.1,-2.11,-1.63
21:36:58.789,189831,0.67,1.82,-0.21,0.1,-6.28,-0.57
21:36:58.846,189888,-2.37,1.51,-0.26,0.2,-9.46,1.75
21:36:58.903,189945,-5.12,2.36,-0.27,0.2,-11.33,5.35
21:36:58.960,190002,-7.78,3.69,-0.29,0.1,-12.17,7.42
21:36:59.017,190059,-9.75,4.61,-0.31,0.0,-11.90,7.17
21:36:59.131,190173,-10.47,5.29,-0.32,0.1,-7.74,5.78
21:36:59.190,190232,-10.35,5.42,-0.32,0.0,-7.25,5.82
21:36:59.247,190289,-10.08,5.24,-0.32,0.1,-6.83,5.02
21:36:59.304,190346,-9.66,4.89,-0.31,0.0,-6.16,4.26
21:36:59.360,190402,-9.08,4.61,-0.31,0.1,-5.60,4.35
21:36:59.417,190459,-8.59,4.21,-0.32,0.1,-5.44,3.99
21:36:59.474,190516,-8.21,3.19,-0.32,0.1,-5.63,1.95
21:36:59.532,190574,-7.41,1.94,-0.31,0.1,-4.23,0.50
21:36:59.589,190631,-6.58,0.86,-0.29,0.1,-3.55,0.22
21:36:59.647,190689,-5.91,-0.29,-0.28,0.1,-3.54,-0.76
21:36:59.704,190746,-5.46,-1.25,-0.27,0.2,-3.85,-0.83
21:36:59.760,190802,-5.00,-2.31,-0.29,0.1,-3.80,-1.55
21:36:59.817,190860,-4.57,-3.06,-0.29,0.0,-3.36,-1.33
21:36:59.875,190917,-3.86,-4.21,-0.28,-0.0,-2.50,-3.06
21:36:59.932,190974,-3.05,-4.95,-0.26,0.0,-1.77,-2.64
21:36:59.989,191031,-2.42,-5.25,-0.26,0.0,-1.67,-1.73
21:37:00.047,191089,-1.90,-5.41,-0.26,-0.0,-1.65,-1.48
21:37:00.103,191145,-1.22,-5.73,-0.24,0.1,-1.06,-1.98
21:37:00.161,191203,-0.43,-6.17,-0.25,0.0,-0.37,-2.62
21:37:00.218,191260,0.09,-6.35,-0.24,-0.0,-0.33,-2.26
21:37:00.275,191317,0.48,-6.47,-0.24,-0.0,-0.58,-2.14
21:37:00.333,191375,0.70,-6.45,-0.25,-0.1,-0.90,-1.85
21:37:00.390,191432,0.79,-6.49,-0.24,-0.1,-1.14,-1.97
21:37:00.447,191489,0.77,-6.62,-0.24,0.0,-1.42,-2.35
21:37:00.504,191546,0.64,-6.69,-0.24,-0.0,-1.71,-2.33
21:37:00.561,191603,0.33,-6.68,-0.25,-0.1,-2.43,-2.15
21:37:00.619,191661,0.01,-6.55,-0.25,-0.0,-2.62,-1.77
21:37:00.675,191717,-0.25,-6.51,-0.25,-0.0,-2.61,-2.04
21:37:00.733,191775,-0.53,-6.35,-0.25,-0.0,-2.83,-1.71
21:37:00.790,191832,-0.74,-6.18,-0.26,0.1,-2.88,-1.53
21:37:00.847,191889,-0.87,-6.06,-0.27,-0.0,-2.78,-1.62
21:37:00.904,191946,-0.83,-5.95,-0.27,0.0,-2.25,-1.67
21:37:00.962,192004,-0.86,-5.84,-0.28,-0.0,-2.46,-1.64
21:37:01.019,192061,-0.94,-5.66,-0.28,-0.1,-2.61,-1.40
21:37:01.076,192118,-0.95,-5.47,-0.27,0.0,-2.51,-1.34
21:37:01.134,192176,-0.89,-5.11,-0.28,-0.0,-2.30,-0.69
21:37:01.190,192232,-0.78,-4.67,-0.29,-0.0,-2.11,-0.28
21:37:01.248,192290,-0.64,-4.24,-0.29,0.0,-1.98,-0.04
21:37:01.305,192347,-0.45,-3.87,-0.28,0.1,-1.72,0.04
21:37:01.362,192404,-0.22,-3.53,-0.29,-0.1,-1.45,0.15
21:37:01.419,192461,0.07,-3.15,-0.28,-0.0,-1.18,0.39
21:37:01.477,192519,0.31,-2.77,-0.28,-0.2,-1.10,0.62
21:37:01.534,192576,0.49,-2.33,-0.28,-0.1,-1.15,1.08
21:37:01.591,192633,0.66,-2.04,-0.28,-0.1,-1.10,0.86
21:37:01.648,192690,0.85,-1.91,-0.28,-0.1,-0.93,0.54
21:37:01.705,192747,1.05,-1.73,-0.28,0.0,-0.75,0.72
21:37:01.763,192805,1.20,-1.49,-0.29,0.1,-0.78,1.00
21:37:01.819,192861,1.28,-1.21,-0.28,0.1,-0.89,1.26
21:37:01.876,192918,1.32,-0.98,-0.29,0.1,-0.94,1.30
21:37:01.934,192976,1.29,-0.70,-0.29,0.1,-1.17,1.52
21:37:01.991,193033,1.22,-0.40,-0.30,0.1,-1.27,1.80
21:37:02.048,193091,1.13,-0.30,-0.30,0.1,-1.40,1.43
21:37:02.105,193147,1.06,-0.24,-0.30,0.1,-1.40,1.31
21:37:02.163,193205,0.88,-0.21,-0.31,0.2,-1.66,1.21
21:37:02.220,193262,0.60,-0.05,-0.31,0.2,-2.16,1.61
21:37:02.277,193319,0.36,0.29,-0.31,0.1,-2.23,2.30
21:37:02.334,193376,0.17,0.48,-0.30,0.1,-2.19,2.09
21:37:02.392,193434,0.07,0.52,-0.31,0.1,-2.05,1.75
21:37:02.449,193491,0.05,0.49,-0.31,0.1,-1.87,1.54
21:37:02.505,193548,0.01,0.45,-0.31,0.0,-1.90,1.46
21:37:02.563,193605,-0.07,0.52,-0.32,-0.0,-2.04,1.75
21:37:02.620,193662,-0.14,0.68,-0.32,0.0,-2.13,2.08
21:37:02.677,193719,-0.07,0.99,-0.31,0.0,-1.73,2.64
21:37:02.735,193777,0.16,1.26,-0.32,0.1,-1.23,2.80
21:37:02.792,193834,0.42,1.38,-0.32,0.0,-0.95,2.46
21:37:02.849,193891,0.64,1.64,-0.32,0.0,-0.84,2.89
21:37:02.907,193949,0.90,2.02,-0.32,0.1,-0.72,3.41
21:37:02.964,194006,1.65,3.00,-0.30,0.1,0.74,5.16
21:37:03.021,194063,2.67,4.44,-0.28,0.0,2.41,7.74
21:37:03.079,194121,3.96,5.90,-0.27,0.0,3.54,8.56
21:37:03.135,194177,5.21,6.50,-0.24,0.0,4.44,7.03
21:37:03.192,194234,6.12,6.36,-0.23,-0.0,4.14,5.17
21:37:03.250,194292,6.91,5.87,-0.21,-0.0,4.63,3.92
21:37:03.306,194348,6.08,4.91,-0.24,-0.1,0.34,2.31
21:37:03.364,194406,4.48,3.63,-0.30,0.1,-2.68,0.69
21:37:03.421,194463,2.63,2.39,-0.35,0.0,-4.67,-0.13
21:37:03.479,194521,0.49,1.44,-0.41,0.0,-6.22,-0.03
21:37:03.535,194577,-1.32,1.66,-0.44,0.0,-7.03,2.67
21:37:03.592,194634,-2.69,2.97,-0.44,0.0,-6.78,6.33
21:37:03.650,194692,-3.36,4.97,-0.41,-0.0,-5.55,9.11
21:37:03.707,194749,-3.00,6.96,-0.34,-0.1,-2.83,10.83
21:37:03.764,194806,-1.86,8.61,-0.27,0.1,-0.13,11.23
21:37:03.821,194863,-0.07,9.64,-0.20,0.1,2.54,10.22
21:37:03.879,194921,2.03,9.76,-0.15,0.2,4.14,8.43
21:37:03.936,194978,3.69,9.24,-0.13,0.1,5.22,6.26
21:37:03.993,195035,5.28,7.91,-0.16,0.1,5.35,3.71
21:37:04.051,195093,6.37,6.02,-0.21,0.0,4.98,1.35
21:37:04.107,195149,6.64,4.08,-0.26,0.1,3.41,-0.36
21:37:04.164,195206,6.22,2.28,-0.31,-0.0,1.29,-1.23
21:37:04.221,195263,5.08,0.69,-0.34,0.1,-0.85,-1.50
21:37:04.278,195320,3.28,0.08,-0.38,-0.0,-3.74,0.18
21:37:04.336,195378,1.04,0.68,-0.41,0.1,-6.20,3.50
21:37:04.393,195435,-1.33,2.29,-0.41,0.0,-7.79,6.84
21:37:04.450,195493,-3.33,4.58,-0.42,0.1,-8.23,9.93
21:37:04.510,195552,-4.34,6.70,-0.39,0.1,-7.08,11.77
21:37:04.565,195607,-4.54,8.76,-0.34,0.2,-4.86,12.47
21:37:04.622,195664,-3.92,10.53,-0.28,0.1,-2.78,12.82
21:37:04.679,195721,-2.33,11.52,-0.21,0.1,0.89,12.00
21:37:04.737,195779,0.05,12.02,-0.13,0.1,3.85,10.95
21:37:04.794,195836,2.75,11.80,-0.07,0.1,6.41,9.20
21:37:04.851,195893,5.36,10.93,-0.06,-0.0,7.76,7.22
21:37:04.908,195950,7.25,9.89,-0.04,0.1,8.11,5.76
21:37:04.965,196007,8.40,8.67,-0.06,0.0,6.66,4.80
21:37:05.023,196065,8.72,7.47,-0.10,0.0,4.92,4.23
21:37:05.079,196121,8.19,6.32,-0.14,0.1,2.40,3.51
21:37:05.137,196179,6.99,5.23,-0.18,0.1,0.32,3.23
21:37:05.194,196236,5.31,4.58,-0.22,0.0,-1.95,3.70
21:37:05.251,196293,3.32,4.43,-0.25,0.0,-4.14,4.86
21:37:05.308,196350,1.28,4.73,-0.28,-0.0,-5.26,6.26
21:37:05.365,196407,-0.32,5.20,-0.30,-0.1,-5.50,7.05
21:37:05.423,196465,-1.27,5.42,-0.32,0.0,-4.60,6.71
21:37:05.480,196522,-1.78,5.54,-0.32,-0.1,-3.66,6.46
21:37:05.537,196579,-2.09,5.68,-0.33,-0.1,-3.30,6.61
21:37:05.595,196637,-2.28,6.00,-0.33,-0.0,-3.11,7.28
21:37:05.651,196693,-2.37,6.59,-0.32,0.0,-2.92,8.21
21:37:05.709,196751,-2.38,7.38,-0.31,0.0,-2.78,9.20
21:37:05.766,196808,-2.30,8.30,-0.29,-0.0,-2.50,10.29
21:37:05.823,196865,-2.12,9.31,-0.25,0.0,-2.12,11.24
21:37:05.880,196922,-1.85,10.52,-0.21,0.1,-1.78,12.27
21:37:05.938,196980,-1.57,11.89,-0.15,0.1,-1.70,13.28
21:37:43.458,234500,3.15,12.89,-1.63,0.1,6.52,53.29
21:37:43.516,234558,2.36,9.46,-0.01,0.1,8.74,35.13
21:37:43.573,234615,2.41,9.46,-0.01,0.2,1.65,5.76
21:37:43.630,234672,2.46,9.46,-0.00,0.2,1.63,5.82
21:37:43.687,234729,2.47,9.46,-0.00,0.3,1.56,5.88
21:37:43.745,234787,2.49,9.46,-0.01,0.3,1.59,5.96
21:37:43.802,234844,2.50,9.47,-0.01,0.4,1.62,5.99
21:37:43.860,234902,2.51,9.46,-0.02,0.4,1.63,6.03
21:37:43.916,234958,2.52,9.47,-0.02,0.1,1.63,6.12
21:37:43.973,235015,2.53,9.47,-0.02,0.1,1.67,6.16
21:37:44.031,235073,2.53,9.47,-0.02,0.1,1.67,6.22
21:37:44.088,235130,2.54,9.46,-0.03,0.2,1.69,6.22
21:37:44.144,235186,2.53,9.48,-0.03,0.2,1.69,6.36
21:37:44.201,235244,2.53,9.48,-0.03,0.3,1.68,6.39
21:37:44.259,235301,2.52,9.49,-0.03,0.4,1.70,6.47
21:37:44.316,235358,2.52,9.49,-0.03,0.4,1.71,6.47
21:37:44.374,235416,2.51,9.49,-0.03,0.3,1.73,6.55
21:37:44.430,235472,2.51,9.49,-0.03,0.2,1.74,6.62
21:37:44.488,235530,2.51,9.50,-0.03,0.2,1.77,6.69
21:37:44.545,235587,2.52,9.50,-0.04,0.3,1.80,6.72
21:37:44.603,235645,2.53,9.50,-0.03,0.3,1.82,6.80
21:37:44.659,235701,2.54,9.50,-0.04,0.1,1.85,6.79
21:37:44.717,235759,2.56,9.50,-0.04,0.2,1.91,6.88
21:37:44.774,235816,2.58,9.50,-0.03,0.3,1.91,6.95
21:37:44.830,235873,2.59,9.50,-0.03,0.3,1.93,6.99
21:37:44.888,235930,2.60,9.50,-0.03,0.3,1.92,7.04
21:37:44.945,235987,2.60,9.50,-0.03,0.2,1.94,7.11
21:37:45.002,236044,2.61,9.49,-0.03,0.3,1.96,7.15
21:37:45.060,236102,2.62,9.49,-0.03,0.3,2.01,7.17
21:37:45.117,236159,2.62,9.49,-0.03,0.3,2.00,7.27
21:37:45.174,236216,2.62,9.49,-0.03,0.2,2.01,7.30
21:37:45.231,236273,2.62,9.49,-0.02,0.1,2.01,7.38
21:37:45.289,236331,2.62,9.48,-0.03,0.0,2.03,7.38
21:37:45.345,236387,2.62,9.47,-0.03,0.2,2.05,7.44
21:37:45.403,236445,2.61,9.48,-0.02,0.3,2.05,7.53
21:37:45.460,236502,2.60,9.48,-0.03,0.3,2.02,7.59
21:37:45.517,236559,2.58,9.48,-0.02,0.2,2.02,7.65
21:37:45.574,236616,2.56,9.49,-0.03,0.2,2.05,7.72
21:37:45.632,236674,2.54,9.50,-0.03,0.2,2.03,7.76
21:37:45.689,236731,2.51,9.51,-0.01,0.3,2.03,7.83
21:37:45.746,236788,1.94,9.81,0.01,0.3,0.42,8.73
21:37:45.804,236846,1.79,9.41,-0.00,0.2,1.31,7.09
21:37:45.860,236902,1.53,8.75,-0.03,0.1,0.87,5.99
21:37:45.918,236960,1.46,7.93,-0.05,0.2,1.22,5.31
21:37:45.975,237017,1.40,7.05,-0.09,0.1,1.35,4.25
21:37:46.032,237074,1.32,6.27,-0.11,0.2,1.22,4.33
21:37:46.088,237131,1.24,5.52,-0.13,0.1,1.20,3.96
21:37:46.146,237188,1.05,4.93,-0.14,0.2,0.78,3.94
21:37:46.204,237246,0.87,4.23,-0.16,0.2,0.72,3.30
21:37:46.261,237303,0.71,3.20,-0.20,0.3,0.71,2.13
21:37:46.318,237360,0.63,2.16,-0.21,0.3,0.83,1.21
21:37:46.375,237418,0.52,1.05,-0.25,0.2,0.68,0.48
21:37:46.433,237475,0.40,0.05,-0.26,0.3,0.60,0.14
21:37:46.490,237532,0.35,-0.81,-0.28,0.2,0.75,0.05
21:37:46.547,237589,0.41,-1.32,-0.29,0.2,1.03,0.26
21:37:46.605,237647,0.41,-1.57,-0.30,0.3,0.92,0.93
21:37:46.662,237704,0.28,-1.78,-0.30,0.4,0.51,0.94
21:37:46.718,237760,0.18,-2.14,-0.31,0.3,0.49,0.42
21:37:46.775,237817,0.10,-2.73,-0.33,0.3,0.55,-0.50
21:37:46.833,237875,0.16,-3.22,-0.33,0.3,0.86,-0.73
21:37:46.890,237932,0.29,-3.36,-0.34,0.2,1.19,0.01
21:37:46.947,237989,0.31,-3.22,-0.33,0.2,0.95,0.74
21:37:47.004,238046,0.25,-2.98,-0.31,0.3,0.68,1.23
21:37:47.062,238104,0.22,-2.79,-0.31,0.1,0.74,1.17
21:37:47.120,238162,0.22,-2.63,-0.30,0.2,0.77,1.23
21:37:47.176,238218,0.26,-2.49,-0.29,0.2,0.91,1.19
21:37:47.233,238275,0.27,-2.32,-0.29,0.2,0.92,1.33
21:37:47.290,238332,0.25,-2.17,-0.28,0.3,0.80,1.43
21:37:47.347,238389,0.23,-2.05,-0.27,0.3,0.73,1.40
21:37:47.406,238448,0.19,-1.96,-0.27,0.2,0.74,1.33
21:37:47.463,238505,0.13,-1.90,-0.26,0.2,0.61,1.32
21:37:47.519,238561,0.13,-1.75,-0.27,0.3,0.74,1.58
21:37:47.577,238619,0.34,-1.25,-0.27,0.2,1.27,2.51
21:37:47.634,238676,0.63,-0.19,-0.24,0.2,1.80,4.60
21:37:47.691,238733,0.95,1.57,-0.22,0.2,2.03,7.30
21:37:47.748,238790,1.21,3.70,-0.16,0.2,2.06,9.39
21:37:47.806,238848,1.46,5.70,-0.11,0.2,2.19,10.73
21:37:47.862,238904,1.70,7.30,-0.06,0.2,2.35,10.98
21:37:47.919,238961,1.91,8.50,-0.02,0.3,2.39,10.54
21:37:47.976,239018,2.04,8.87,-0.01,0.3,2.29,9.07
21:37:48.033,239075,2.24,8.26,-0.04,0.2,2.54,6.14
21:37:48.091,239133,2.78,7.09,-0.07,0.1,3.61,4.12
21:37:48.148,239190,3.85,5.75,-0.15,0.2,5.42,2.98
21:37:48.205,239247,5.15,4.79,-0.21,0.2,7.08,2.88
21:37:48.262,239304,6.47,4.42,-0.26,0.1,8.10,4.22
21:37:48.320,239362,7.88,4.43,-0.31,0.2,8.93,5.25
21:37:48.378,239420,9.13,4.67,-0.33,0.2,9.47,6.04
21:37:48.435,239477,10.26,4.81,-0.36,0.2,9.96,5.98
21:37:48.492,239534,11.47,4.86,-0.40,0.2,10.73,5.89
21:37:48.548,239590,12.64,4.79,-0.44,0.2,11.63,5.51
21:37:48.606,239648,12.89,4.79,-0.44,0.2,9.99,5.69
21:37:48.663,239705,12.15,4.79,-0.40,0.2,6.89,5.69
21:37:48.720,239762,10.75,4.68,-0.36,0.2,4.63,5.49
21:37:48.777,239819,8.99,4.48,-0.31,0.2,2.40,5.03
21:37:48.835,239877,6.83,4.44,-0.25,0.3,0.46,5.46
21:37:48.892,239934,4.63,4.53,-0.18,0.3,-0.93,5.81
21:37:48.949,239991,2.53,4.71,-0.12,0.2,-1.89,6.20
21:37:49.006,240048,0.93,4.82,-0.08,0.1,-2.28,6.18
21:37:49.063,240105,-0.67,4.88,-0.04,0.1,-2.88,6.11
21:37:49.120,240162,-2.03,4.92,-0.01,0.1,-3.05,6.11
21:37:49.177,240219,-2.88,5.01,-0.00,0.1,-2.66,6.32
21:37:49.235,240277,-3.12,5.07,0.01,0.2,-1.27,6.28
21:37:49.292,240334,-2.52,4.94,0.00,0.2,1.10,5.83
21:37:49.349,240391,-1.22,4.72,-0.02,0.3,3.58,5.54
21:37:49.406,240448,0.48,4.43,-0.06,0.2,5.81,5.09
21:37:49.464,240506,2.26,4.25,-0.11,0.2,7.10,5.25
21:37:49.521,240563,3.95,4.17,-0.15,0.1,7.99,5.55
21:37:49.577,240619,5.24,4.18,-0.20,0.2,8.07,5.72
21:37:49.635,240677,5.86,4.21,-0.21,0.2,6.76,5.94
21:37:49.692,240734,5.49,4.07,-0.20,0.2,4.15,5.46
21:37:49.749,240791,4.51,3.50,-0.19,0.2,2.04,4.29
21:37:49.807,240849,3.36,2.60,-0.17,0.1,0.97,2.89
21:37:49.865,240907,2.44,1.55,-0.18,0.1,0.72,1.75
21:37:49.921,240963,1.96,0.57,-0.19,0.1,1.41,1.15
21:37:49.978,241020,1.78,-0.08,-0.20,0.2,2.15,1.57
21:37:50.035,241077,1.87,-0.04,-0.21,0.2,2.93,3.12
21:37:50.093,241135,2.03,0.81,-0.19,0.2,3.26,5.75
21:37:50.151,241193,2.16,2.35,-0.13,0.2,3.28,8.19
21:37:50.207,241249,2.34,4.38,-0.08,0.2,3.50,10.62
21:37:50.263,241305,2.49,6.26,-0.02,0.2,3.58,11.95
21:37:50.322,241364,2.53,7.89,0.04,0.2,3.35,12.41
21:37:50.378,241420,2.51,8.92,0.09,0.3,3.20,11.65
21:37:50.435,241477,2.47,8.57,0.06,0.3,3.16,8.24
21:37:50.494,241536,2.33,7.06,0.01,0.3,2.81,4.54
21:37:50.551,241593,2.15,4.85,-0.08,0.3,2.63,1.62
21:37:50.607,241649,1.89,2.23,-0.14,0.2,2.37,-0.94
21:37:50.665,241707,1.60,-0.03,-0.19,0.1,1.99,-2.43
21:37:50.722,241764,1.27,-2.29,-0.24,0.2,1.73,-3.23
21:37:50.779,241821,1.09,-4.30,-0.28,0.2,1.98,-3.78
21:37:50.837,241879,1.05,-5.66,-0.30,0.1,2.30,-3.48
21:37:50.895,241937,1.08,-6.73,-0.32,0.2,2.55,-3.09
21:37:50.952,241994,1.06,-7.37,-0.33,0.3,2.41,-2.48
21:37:51.008,242050,0.95,-7.72,-0.32,0.3,2.17,-2.08
21:37:51.065,242107,0.72,-7.90,-0.31,0.2,1.74,-1.73
21:37:51.123,242165,0.44,-8.14,-0.30,0.2,1.39,-2.05
21:37:51.179,242221,0.19,-8.45,-0.30,0.2,1.32,-2.38
21:37:51.237,242279,0.11,-8.75,-0.29,0.2,1.66,-2.74
21:37:51.293,242335,0.15,-8.92,-0.30,0.2,1.97,-2.52
21:37:51.351,242393,0.28,-8.87,-0.30,0.2,2.33,-2.06
21:37:51.409,242451,0.35,-8.53,-0.29,0.2,2.18,-1.20
21:37:51.465,242507,0.55,-7.78,-0.29,0.2,2.61,0.10
21:37:51.522,242564,0.83,-6.57,-0.27,0.3,3.00,1.90
21:37:51.579,242621,1.03,-5.45,-0.27,0.3,3.08,2.65
21:37:51.636,242678,1.58,-2.55,-0.22,0.3,3.78,6.80
21:37:51.694,242736,2.29,-0.22,-0.19,0.3,4.86,8.36
21:37:51.752,242794,2.90,1.78,-0.14,0.2,5.23,9.09
21:37:51.808,242850,3.04,3.78,-0.09,0.2,4.15,10.30
21:37:51.866,242908,3.08,5.27,-0.05,0.3,3.93,9.79
21:37:51.923,242965,3.11,6.45,-0.02,0.2,3.80,9.94
21:37:51.980,243022,3.21,7.21,0.01,0.2,4.15,9.47
21:37:52.038,243080,3.22,7.73,0.02,0.2,3.93,9.19
21:37:52.095,243137,3.21,7.77,0.03,0.2,3.89,8.07
21:37:52.152,243194,3.16,7.78,0.03,0.1,3.78,7.93
21:37:52.209,243251,3.08,7.84,0.04,0.2,3.68,8.15
21:37:52.266,243308,2.98,7.91,0.05,0.2,3.63,8.24
21:37:52.323,243365,2.86,8.00,0.05,0.2,3.47,8.44
21:37:52.381,243423,2.70,8.13,0.06,0.2,3.27,8.66
21:37:52.438,243480,2.49,8.28,0.07,0.3,3.11,8.80
21:37:52.495,243537,2.29,8.44,0.09,0.3,2.96,9.02
21:37:52.552,243594,2.08,8.60,0.09,0.3,2.87,9.14
21:37:52.609,243651,1.89,8.77,0.11,0.3,2.81,9.29
21:37:52.666,243708,1.73,8.93,0.11,0.3,2.78,9.39
21:37:52.724,243766,1.60,9.07,0.12,0.3,2.74,9.56
21:37:52.781,243823,1.47,9.21,0.13,0.3,2.72,9.66
21:37:52.838,243880,1.36,9.36,0.14,0.2,2.73,9.82
21:37:52.896,243938,1.31,9.47,0.15,0.2,2.79,9.89
21:37:52.952,243994,1.29,9.55,0.15,0.3,2.91,9.87
21:37:53.010,244052,1.33,9.60,0.15,0.2,3.05,9.91
21:37:53.066,244108,1.40,9.62,0.14,0.3,3.20,9.91
21:37:53.124,244166,1.48,9.62,0.15,0.3,3.28,9.89
21:37:53.181,244223,1.59,9.61,0.14,0.3,3.42,9.89
21:37:53.238,244280,1.71,9.58,0.13,0.3,3.53,9.90
21:37:53.296,244338,1.84,9.54,0.13,0.3,3.67,9.90
21:37:53.353,244395,2.00,9.48,0.13,0.2,3.82,9.91
21:37:53.409,244452,2.15,9.45,0.13,0.2,3.91,9.97
21:38:30.878,281920,3.71,3.98,0.13,0.1,13.29,38.71
21:38:30.934,281976,3.17,4.38,0.00,0.0,2.23,2.39
21:38:31.106,282148,3.23,4.38,0.02,0.1,2.03,2.72
21:38:31.164,282206,3.20,4.37,0.02,0.0,1.95,2.73
21:38:31.221,282263,3.23,4.35,0.02,0.0,2.07,2.73
21:38:31.278,282320,3.24,4.29,0.03,0.0,2.11,2.60
21:38:31.335,282377,3.24,4.21,0.02,0.1,2.09,2.51
21:38:31.392,282434,3.16,4.13,0.02,0.2,1.90,2.52
21:38:31.449,282491,3.07,4.08,0.02,0.2,1.78,2.57
21:38:31.506,282548,3.04,3.86,0.01,0.1,1.96,2.14
21:38:31.679,282721,2.49,2.29,-0.02,0.2,0.99,0.13
21:38:31.735,282777,2.13,1.71,-0.04,0.2,0.65,-0.05
21:38:31.793,282835,2.06,1.23,-0.05,0.3,1.31,-0.07
21:38:31.849,282891,2.00,0.90,-0.05,0.3,1.33,0.04
21:38:31.907,282949,1.89,0.48,-0.07,0.3,1.17,-0.40
21:38:31.964,283006,1.70,-0.09,-0.07,0.1,0.92,-0.98
21:38:32.022,283064,1.22,-0.85,-0.09,0.1,0.04,-2.00
21:38:32.079,283121,0.49,-1.48,-0.09,0.0,-1.15,-2.25
21:38:32.136,283178,-0.20,-1.82,-0.09,-0.1,-1.56,-1.69
21:38:32.193,283235,-0.38,-1.85,-0.09,0.0,-0.50,-0.98
21:38:32.250,283292,-0.27,-1.73,-0.08,0.1,0.43,-0.40
21:38:32.308,283350,-0.28,-1.70,-0.07,0.1,0.18,-0.63
21:38:32.365,283407,-0.49,-1.67,-0.07,0.2,-0.46,-0.63
21:38:32.422,283464,-0.62,-1.53,-0.07,0.2,-0.47,-0.29
21:38:32.480,283522,-0.65,-1.36,-0.06,0.2,-0.15,-0.12
21:38:32.536,283578,-0.65,-1.24,-0.06,0.3,-0.13,-0.20
21:38:32.594,283636,-0.58,-1.11,-0.05,0.2,0.11,-0.13
21:38:32.650,283692,-0.49,-0.97,-0.05,0.2,0.18,0.01
21:38:32.708,283750,-0.38,-0.83,-0.05,0.3,0.35,0.09
21:38:32.765,283807,-0.26,-0.53,-0.04,0.1,0.42,0.58
21:38:32.823,283865,0.02,0.13,-0.04,0.2,0.91,1.87
21:38:32.879,283921,0.68,1.19,-0.01,0.0,2.09,3.34
21:38:32.936,283979,1.67,2.39,0.02,0.2,3.53,4.54
21:38:32.994,284036,2.78,3.40,0.03,0.3,4.63,4.69
21:38:33.050,284092,3.57,4.11,0.04,0.2,4.54,4.64
21:38:33.108,284150,4.00,4.58,0.05,0.2,3.96,4.31
21:38:33.165,284207,4.03,4.70,0.05,0.2,2.93,3.55
21:38:33.223,284265,3.86,4.56,0.05,0.1,2.31,2.75
21:38:33.280,284322,3.51,4.30,0.04,0.1,1.73,2.40
21:38:33.336,284379,3.22,4.07,0.04,0.1,1.57,2.26
21:38:33.395,284437,3.08,3.96,0.04,0.1,1.93,2.48
21:38:33.451,284493,3.04,4.02,0.05,0.1,2.12,3.01
21:38:33.508,284550,3.21,4.16,0.05,0.1,2.79,3.28
21:38:33.565,284608,3.47,4.35,0.06,0.2,3.27,3.59
21:38:33.622,284664,3.61,4.52,0.06,0.1,3.07,3.68
21:38:33.679,284721,3.70,4.61,0.06,0.1,2.99,3.57
21:38:33.737,284779,3.77,4.68,0.07,0.2,3.03,3.59
21:38:33.795,284837,3.65,4.74,0.07,0.3,2.58,3.61
21:38:33.852,284894,3.44,4.75,0.07,0.1,2.17,3.52
21:38:33.909,284951,3.35,4.76,0.08,0.2,2.37,3.52
21:38:33.966,285008,3.41,4.76,0.08,0.2,2.84,3.60
21:38:34.023,285065,3.49,4.77,0.08,0.0,2.93,3.61
21:38:34.080,285122,3.69,4.83,0.08,0.0,3.36,3.80
21:38:34.138,285180,3.87,4.96,0.09,0.1,3.50,4.07
21:38:34.194,285236,4.04,5.03,0.10,0.1,3.57,4.02
21:38:34.252,285294,4.24,5.05,0.12,0.1,3.76,3.95
21:38:34.309,285351,4.24,5.04,0.10,0.2,3.41,3.84
21:38:34.366,285408,4.18,5.05,0.12,0.2,3.16,3.97
21:38:34.423,285465,4.13,5.04,0.10,0.3,3.21,3.95
21:38:34.480,285522,4.09,5.01,0.10,0.3,3.17,3.89
21:38:34.539,285581,4.09,5.00,0.10,0.2,3.35,3.96
21:38:34.595,285637,4.06,5.00,0.09,0.2,3.25,4.00
21:38:34.652,285694,4.05,5.03,0.10,0.3,3.34,4.14
21:38:34.709,285751,4.02,5.01,0.10,0.2,3.29,4.03
21:38:34.767,285809,3.99,4.96,0.09,0.2,3.30,3.95
21:38:34.824,285866,3.99,4.91,0.09,0.2,3.39,3.98
21:38:34.881,285923,3.94,4.90,0.09,0.2,3.25,4.05
21:38:34.938,285980,3.94,4.90,0.09,0.3,3.36,4.10
21:38:34.995,286037,4.00,4.91,0.09,0.3,3.59,4.22
21:38:35.053,286095,4.06,4.94,0.10,0.3,3.68,4.27
21:38:35.110,286152,4.11,4.93,0.10,0.2,3.69,4.23
21:38:35.167,286209,4.08,4.89,0.10,0.2,3.54,4.13
21:38:35.224,286266,4.07,4.87,0.11,0.2,3.54,4.20
21:38:35.281,286323,4.09,4.89,0.10,0.3,3.67,4.34
21:38:35.339,286381,4.18,4.95,0.11,0.2,3.94,4.48
21:38:35.396,286438,4.22,4.91,0.09,0.2,3.83,4.29
21:38:35.452,286494,4.29,4.85,0.11,0.1,4.00,4.18
21:38:35.510,286552,4.30,4.85,0.11,0.2,3.95,4.33
21:38:35.567,286609,4.25,4.94,0.11,0.2,3.67,4.65
21:38:35.625,286667,4.29,5.03,0.12,0.1,3.97,4.79
21:38:35.682,286724,4.38,5.06,0.10,0.1,4.18,4.70
21:38:35.739,286781,4.44,4.99,0.11,0.2,4.19,4.45
21:38:35.796,286838,4.42,4.87,0.11,0.2,4.03,4.20
21:38:35.853,286895,4.45,4.74,0.10,0.2,4.12,4.12
21:38:35.910,286952,4.48,4.71,0.10,0.2,4.26,4.41
21:38:35.967,287009,4.49,4.74,0.11,0.2,4.19,4.59
21:38:36.025,287067,4.51,4.75,0.10,0.3,4.26,4.60
21:38:36.082,287124,4.53,4.74,0.10,0.3,4.29,4.56
21:38:36.139,287181,4.54,4.72,0.10,0.2,4.36,4.54
21:38:36.196,287238,4.49,4.73,0.10,0.3,4.14,4.65
21:38:36.253,287295,4.47,4.75,0.11,0.2,4.24,4.73
21:38:36.310,287352,4.45,4.76,0.11,0.2,4.26,4.74
21:38:36.368,287410,4.47,4.78,0.10,0.1,4.37,4.79
21:38:36.424,287466,4.52,4.87,0.10,0.2,4.54,5.01
21:38:36.483,287525,4.59,5.00,0.11,0.1,4.62,5.25
21:38:36.540,287582,4.66,4.97,0.10,0.2,4.68,4.96
21:38:36.597,287639,4.73,4.91,0.10,0.3,4.77,4.75
21:38:36.654,287696,4.78,4.91,0.11,0.2,4.79,4.93
21:38:36.711,287753,4.79,4.96,0.12,0.2,4.71,5.14
21:38:36.768,287810,4.76,5.01,0.13,0.3,4.66,5.21
21:38:36.826,287868,4.69,4.98,0.12,0.2,4.50,5.06
21:38:36.882,287924,4.60,4.89,0.12,0.1,4.45,4.87
21:38:36.940,287982,4.52,4.88,0.13,0.2,4.43,5.02
21:38:36.997,288039,4.56,4.91,0.13,0.3,4.76,5.20
21:38:37.054,288096,4.57,4.94,0.13,0.3,4.77,5.25
21:38:37.112,288154,4.59,4.94,0.13,0.2,4.78,5.22
21:38:37.169,288211,4.62,4.91,0.14,0.3,4.87,5.16
21:38:37.226,288268,4.64,4.85,0.13,0.2,4.88,5.06
21:38:37.284,288326,4.73,4.89,0.14,0.1,5.14,5.34
21:38:37.340,288382,4.74,4.98,0.14,0.1,5.00,5.56
21:38:37.397,288439,4.76,5.01,0.14,0.2,4.99,5.50
21:38:37.454,288496,4.88,5.03,0.14,0.2,5.40,5.51
21:38:37.512,288554,4.92,4.99,0.12,0.1,5.28,5.33
21:38:37.569,288611,4.91,4.92,0.12,0.2,5.12,5.26
21:38:37.626,288668,4.96,4.86,0.12,0.2,5.34,5.25
21:38:37.684,288726,4.99,4.85,0.12,0.2,5.34,5.40
21:38:37.741,288783,5.04,4.89,0.13,0.2,5.43,5.56
21:38:37.797,288839,5.06,4.91,0.13,0.3,5.44,5.62
21:38:37.855,288897,5.08,4.91,0.13,0.2,5.47,5.57
21:38:37.912,288954,5.08,4.84,0.14,0.2,5.42,5.41
21:38:37.970,289012,5.06,4.79,0.14,0.1,5.40,5.41
21:38:38.026,289068,5.07,4.81,0.14,0.1,5.50,5.60
21:38:38.084,289126,5.03,4.79,0.14,0.2,5.40,5.58
21:38:38.141,289183,5.04,4.77,0.15,0.2,5.54,5.55
21:38:38.198,289240,5.09,4.81,0.15,0.1,5.70,5.76
21:38:38.255,289297,5.11,4.81,0.15,0.1,5.66,5.72
21:38:38.312,289354,5.13,4.81,0.15,0.2,5.70,5.73
21:38:38.370,289412,5.15,4.82,0.14,0.2,5.80,5.79
21:38:38.428,289470,5.15,4.80,0.16,0.2,5.72,5.69
21:38:38.484,289526,5.13,4.80,0.16,0.2,5.71,5.79
21:38:38.541,289583,5.13,4.83,0.15,0.2,5.78,5.92
21:38:38.599,289641,5.17,4.85,0.16,0.2,5.99,5.91
21:38:38.656,289698,5.19,4.84,0.16,0.2,5.91,5.88
21:38:38.713,289755,5.17,4.86,0.16,0.2,5.87,5.99
21:38:38.770,289812,5.17,4.85,0.17,0.1,5.95,5.95
21:38:38.827,289869,5.12,4.83,0.16,0.1,5.78,5.92
21:38:38.884,289926,5.14,4.88,0.16,0.2,5.99,6.14
21:38:38.942,289984,5.12,4.94,0.16,0.2,5.97,6.26
21:38:38.999,290041,5.11,4.97,0.17,0.3,6.00,6.21
21:38:39.056,290098,5.10,4.97,0.17,0.2,5.99,6.18
21:38:39.113,290155,5.06,4.97,0.16,0.3,5.97,6.24
21:38:39.171,290213,5.06,4.99,0.17,0.3,6.05,6.25
21:38:39.227,290269,5.07,5.00,0.17,0.2,6.11,6.31
21:38:39.284,290326,5.04,5.01,0.17,0.3,6.03,6.37
21:38:39.342,290384,5.04,4.96,0.17,0.2,6.15,6.18
21:38:39.399,290441,5.02,4.97,0.17,0.2,6.13,6.35
21:38:39.457,290499,5.02,5.00,0.16,0.3,6.18,6.48
21:38:39.514,290556,5.03,5.04,0.17,0.4,6.24,6.54
21:38:39.571,290613,5.02,5.05,0.17,0.3,6.21,6.52
21:38:39.627,290669,5.04,5.04,0.17,0.2,6.32,6.50
21:38:39.685,290727,5.04,5.04,0.17,0.2,6.35,6.55
21:38:39.742,290784,5.04,5.07,0.17,0.2,6.34,6.62
21:38:39.800,290842,5.02,5.08,0.17,0.2,6.32,6.64
21:38:39.856,290898,5.01,5.07,0.17,0.2,6.36,6.63
21:38:39.914,290956,5.05,5.10,0.17,0.3,6.50,6.74
21:38:39.971,291013,5.06,5.12,0.16,0.3,6.52,6.76
21:38:40.028,291070,5.07,5.13,0.17,0.3,6.54,6.80
21:38:40.086,291128,5.09,5.13,0.17,0.2,6.60,6.79
21:38:40.143,291185,5.09,5.12,0.17,0.2,6.56,6.80
21:38:40.200,291242,5.11,5.12,0.17,0.2,6.66,6.84
21:38:40.258,291300,5.12,5.10,0.17,0.2,6.69,6.79
21:38:40.315,291357,5.15,5.10,0.17,0.2,6.76,6.90
21:38:40.372,291414,5.15,5.11,0.18,0.1,6.73,6.94
21:38:40.428,291470,5.15,5.13,0.19,0.1,6.71,6.98
21:38:40.486,291528,5.18,5.14,0.19,0.2,6.89,7.03
21:38:40.543,291585,5.19,5.16,0.19,0.1,6.86,7.08
21:38:40.600,291643,5.23,5.17,0.19,0.1,6.98,7.11
21:38:40.657,291699,5.22,5.20,0.19,0.1,6.91,7.22
21:38:40.716,291758,5.22,5.18,0.19,0.0,6.96,7.08
21:38:40.772,291814,5.22,5.17,0.20,0.1,6.97,7.11
21:38:40.829,291871,5.25,5.16,0.20,0.1,7.11,7.16
21:38:50.124,301166,5.31,5.57,1.09,-0.1,11.34,12.31
21:38:50.295,301337,2.76,4.47,-0.01,0.2,1.78,2.75
21:38:50.352,301394,2.74,4.45,-0.02,0.2,1.65,2.74
21:38:50.409,301451,2.71,4.45,-0.02,0.3,1.62,2.79
21:38:50.466,301508,2.67,4.45,-0.02,0.3,1.58,2.82
21:38:50.523,301565,2.67,4.42,-0.02,0.3,1.71,2.76
21:38:50.581,301623,2.68,4.42,-0.03,0.3,1.79,2.83
21:38:50.638,301680,2.69,4.45,-0.02,0.3,1.78,2.96
21:38:50.695,301737,2.69,4.45,-0.03,0.3,1.74,2.91
21:38:50.752,301794,2.71,4.42,-0.03,0.3,1.84,2.86
21:38:50.810,301852,2.72,4.38,-0.03,0.3,1.81,2.82
21:38:50.867,301909,2.78,4.37,-0.03,0.3,1.99,2.90
21:38:50.924,301966,2.86,4.38,-0.03,0.3,2.13,2.98
21:38:50.980,302022,2.82,4.40,-0.03,0.3,1.88,3.08
21:38:51.039,302081,2.78,4.38,-0.03,0.2,1.81,2.98
21:38:51.095,302137,2.75,4.31,-0.03,0.3,1.87,2.86
21:38:51.152,302194,2.76,4.28,-0.03,0.2,1.96,2.92
21:38:51.210,302252,2.73,4.28,-0.03,0.2,1.86,3.04
21:38:51.268,302310,2.74,4.25,-0.04,0.2,1.94,3.00
21:38:51.324,302367,2.76,4.24,-0.03,0.3,2.06,3.04
21:38:51.381,302423,2.74,4.22,-0.04,0.2,1.90,2.99
21:38:51.438,302480,2.74,4.25,-0.03,0.2,2.03,3.19
21:38:51.496,302538,2.74,4.23,-0.04,0.2,2.01,3.15
21:38:51.553,302595,2.73,4.16,-0.04,0.3,2.00,2.94
21:38:51.610,302652,2.72,4.08,-0.05,0.3,2.02,2.90
21:38:51.668,302710,2.74,4.03,-0.06,0.2,2.07,2.95
21:38:51.725,302767,2.82,4.03,-0.05,0.4,2.34,3.12
21:38:51.781,302823,2.81,4.03,-0.07,0.5,2.09,3.14
21:38:51.839,302881,2.80,4.02,-0.07,0.4,2.10,3.10
21:38:51.896,302938,2.76,4.00,-0.07,0.3,2.08,3.14
21:38:51.953,302995,2.76,3.98,-0.07,0.3,2.11,3.11
21:38:52.011,303053,2.77,3.97,-0.06,0.3,2.22,3.16
21:38:52.067,303109,2.78,3.99,-0.07,0.3,2.20,3.26
21:38:52.125,303167,2.80,4.01,-0.07,0.4,2.29,3.33
21:38:52.182,303224,2.80,4.00,-0.08,0.3,2.24,3.31
21:38:52.239,303281,2.78,3.95,-0.08,0.3,2.22,3.15
21:38:52.296,303338,2.77,3.94,-0.09,0.4,2.21,3.27
21:38:52.354,303396,2.78,3.92,-0.10,0.4,2.30,3.24
21:38:52.411,303453,2.81,3.95,-0.10,0.5,2.39,3.41
21:38:52.469,303511,2.83,3.94,-0.10,0.3,2.36,3.33
21:38:52.526,303568,2.84,3.91,-0.10,0.3,2.42,3.31
21:38:52.582,303624,2.81,3.90,-0.10,0.2,2.30,3.31
21:38:52.640,303682,2.80,3.92,-0.10,0.2,2.34,3.46
21:38:52.697,303739,2.83,3.91,-0.10,0.2,2.46,3.39
21:38:52.753,303795,2.85,3.89,-0.11,0.3,2.50,3.41
21:38:52.812,303854,2.87,3.88,-0.12,0.2,2.50,3.40
21:38:52.869,303911,2.85,3.85,-0.13,0.2,2.41,3.37
21:38:52.926,303968,2.85,3.82,-0.13,0.1,2.48,3.38
21:38:52.983,304025,2.82,3.76,-0.13,0.2,2.42,3.33
21:38:53.039,304081,2.82,3.71,-0.13,0.3,2.50,3.29
21:38:53.097,304139,2.81,3.70,-0.14,0.3,2.48,3.41
21:38:53.154,304196,2.82,3.76,-0.14,0.3,2.55,3.63
21:38:53.212,304254,2.81,3.77,-0.14,0.2,2.56,3.61
21:38:53.270,304312,2.78,3.76,-0.13,0.2,2.46,3.52
21:38:53.326,304368,2.77,3.79,-0.14,0.3,2.52,3.63
21:38:53.383,304425,2.78,3.85,-0.14,0.3,2.59,3.77
21:38:53.440,304482,2.84,3.90,-0.14,0.3,2.78,3.81
21:38:53.498,304540,2.88,3.91,-0.15,0.3,2.74,3.72
21:38:53.555,304597,2.87,3.89,-0.15,0.5,2.63,3.68
21:38:53.612,304654,2.88,3.86,-0.15,0.5,2.74,3.64
21:38:53.669,304711,2.87,3.85,-0.17,0.5,2.67,3.74
21:38:53.726,304768,2.85,3.86,-0.17,0.4,2.69,3.77
21:38:53.784,304826,2.84,3.85,-0.17,0.4,2.68,3.78
21:38:53.840,304882,2.86,3.85,-0.17,0.4,2.78,3.81
21:38:53.898,304940,2.89,3.85,-0.17,0.3,2.83,3.82
21:38:53.955,304997,2.87,3.92,-0.16,0.1,2.77,4.06
21:38:54.012,305054,2.81,4.03,-0.15,0.3,2.65,4.27
21:38:54.070,305112,2.76,3.99,-0.16,0.4,2.63,3.98
21:38:54.127,305169,2.77,3.90,-0.16,0.3,2.77,3.70
21:38:54.184,305226,2.82,3.86,-0.18,0.3,2.96,3.85
21:38:54.241,305283,2.91,3.86,-0.18,0.3,3.05,3.97
21:38:54.298,305340,2.96,3.89,-0.17,0.2,3.12,4.09
21:38:54.356,305398,2.91,3.90,-0.18,0.3,2.81,4.09
21:38:54.413,305455,2.82,3.85,-0.17,0.2,2.66,3.91
21:38:54.470,305512,2.75,3.79,-0.18,0.3,2.68,3.91
21:38:54.527,305569,2.80,3.77,-0.19,0.4,2.99,3.96
21:38:54.585,305627,2.85,3.77,-0.18,0.3,3.09,4.07
21:38:54.641,305683,2.87,3.77,-0.19,0.2,3.03,4.09
21:38:54.698,305740,2.85,3.78,-0.19,0.2,2.96,4.15
21:38:54.756,305798,2.83,3.71,-0.20,0.1,2.94,3.95
21:38:54.813,305855,2.86,3.66,-0.20,0.2,3.05,3.91
21:38:54.871,305913,2.90,3.65,-0.21,0.1,3.19,4.10
21:38:54.928,305970,2.91,3.65,-0.21,0.3,3.15,4.12
21:38:54.984,306026,2.85,3.63,-0.20,0.3,2.94,4.09
21:38:55.042,306084,2.84,3.62,-0.21,0.2,3.02,4.09
21:38:55.099,306141,2.86,3.63,-0.20,0.3,3.18,4.19
21:38:55.156,306198,2.91,3.64,-0.20,0.2,3.27,4.21
21:38:55.213,306255,2.95,3.68,-0.20,0.3,3.30,4.35
21:38:55.270,306312,2.92,3.67,-0.21,0.2,3.12,4.26
21:38:55.328,306370,2.87,3.64,-0.21,0.2,3.05,4.19
21:38:55.385,306427,2.82,3.66,-0.20,0.2,3.06,4.31
21:38:55.442,306484,2.73,3.66,-0.21,0.2,2.90,4.34
21:38:55.499,306541,2.67,3.68,-0.20,0.3,2.96,4.38
21:38:55.556,306598,2.63,3.70,-0.20,0.3,2.97,4.43
21:38:55.613,306655,2.60,3.71,-0.20,0.3,3.03,4.44
21:38:55.671,306713,2.60,3.71,-0.20,0.3,3.09,4.42
21:38:55.728,306770,2.57,3.70,-0.20,0.2,3.04,4.42
21:38:55.786,306828,2.54,3.69,-0.21,0.2,3.06,4.41
21:38:55.843,306885,2.53,3.70,-0.21,0.2,3.05,4.52
21:38:55.899,306942,2.44,3.59,-0.20,0.2,2.90,4.21
21:38:55.957,306999,2.23,3.25,-0.21,0.4,2.48,3.54
21:38:56.014,307056,1.78,2.71,-0.22,0.3,1.69,2.63
21:38:56.071,307113,1.24,2.09,-0.22,0.3,1.03,2.04
21:38:56.129,307171,0.76,1.57,-0.22,0.3,0.94,1.99
21:38:56.185,307228,0.45,1.37,-0.22,0.3,1.10,2.57
21:38:56.242,307284,0.26,1.37,-0.21,0.3,1.31,3.14
21:38:56.300,307342,0.04,1.40,-0.21,0.3,1.20,3.34
21:38:56.357,307399,-0.20,1.27,-0.20,0.3,1.01,2.84
21:38:56.415,307457,-0.59,0.96,-0.20,0.2,0.32,2.23
21:38:56.472,307514,-0.96,0.52,-0.21,0.3,0.19,1.60
21:38:56.529,307571,-1.27,0.17,-0.21,0.3,0.17,1.60
21:38:56.586,307628,-1.47,0.00,-0.22,0.2,0.19,1.91
21:38:56.643,307685,-1.61,-0.09,-0.22,0.2,0.29,2.08
21:38:56.701,307743,-1.75,-0.16,-0.22,0.2,0.27,2.16
21:38:56.757,307799,-1.86,-0.24,-0.22,0.3,0.24,2.05
21:38:56.815,307857,-2.07,-0.36,-0.22,0.2,-0.18,1.86
21:38:56.871,307913,-2.30,-0.51,-0.22,0.2,-0.38,1.74
21:38:56.929,307971,-2.42,-0.59,-0.23,0.2,-0.24,1.79
21:38:56.986,308028,-2.44,-0.64,-0.24,0.3,0.04,1.86
21:38:57.044,308086,-2.46,-0.66,-0.24,0.3,-0.01,1.95
21:38:57.100,308142,-2.45,-0.68,-0.24,0.3,0.10,1.93
21:38:57.158,308200,-2.47,-0.74,-0.25,0.2,-0.02,1.78
21:38:57.215,308257,-2.48,-0.82,-0.25,0.3,-0.02,1.68
21:38:57.272,308314,-2.47,-0.83,-0.25,0.3,0.00,1.81
21:38:57.329,308371,-2.43,-0.82,-0.25,0.3,0.13,1.87
21:38:57.387,308429,-2.38,-0.79,-0.25,0.3,0.13,1.95
21:38:57.444,308486,-2.41,-0.83,-0.26,0.4,-0.04,1.77
21:38:57.501,308543,-2.49,-0.92,-0.25,0.4,-0.23,1.60
21:38:57.558,308600,-2.58,-0.94,-0.25,0.4,-0.37,1.69
21:38:57.615,308657,-2.67,-0.93,-0.25,0.3,-0.42,1.76
21:38:57.673,308715,-2.66,-0.92,-0.26,0.3,-0.21,1.80
21:38:57.730,308772,-2.64,-0.98,-0.26,0.3,-0.18,1.59
21:38:57.787,308829,-2.66,-1.06,-0.26,0.3,-0.29,1.48
21:38:57.844,308886,-2.71,-1.06,-0.27,0.3,-0.39,1.65
21:38:57.902,308944,-2.77,-1.06,-0.27,0.3,-0.52,1.69
21:38:57.958,309000,-2.81,-1.09,-0.28,0.3,-0.46,1.57
21:38:58.016,309058,-2.80,-1.13,-0.28,0.4,-0.36,1.54
21:38:58.073,309115,-2.75,-1.16,-0.29,0.4,-0.28,1.51
21:38:58.130,309172,-2.69,-1.17,-0.29,0.3,-0.21,1.50
21:38:58.187,309229,-2.54,-1.09,-0.30,0.3,0.08,1.80
21:38:58.244,309286,-2.49,-1.04,-0.31,0.2,-0.14,1.80
21:38:58.302,309344,-2.46,-1.12,-0.31,0.3,-0.19,1.39
21:38:58.359,309401,-2.42,-1.24,-0.30,0.3,-0.14,1.23
21:38:58.416,309458,-2.40,-1.32,-0.32,0.4,-0.24,1.23
21:38:58.473,309515,-2.34,-1.30,-0.32,0.4,-0.09,1.41
21:38:58.531,309573,-2.28,-1.22,-0.32,0.4,-0.03,1.72
21:38:58.588,309630,-2.22,-1.24,-0.32,0.3,-0.02,1.47
21:38:58.645,309687,-2.22,-1.34,-0.32,0.2,-0.20,1.14
21:38:58.702,309744,-2.22,-1.35,-0.33,0.2,-0.21,1.36
21:38:58.760,309802,-2.22,-1.25,-0.34,0.2,-0.21,1.66
21:38:58.816,309858,-2.25,-1.23,-0.34,0.2,-0.32,1.56
21:38:58.874,309916,-2.30,-1.27,-0.34,0.2,-0.40,1.32
21:38:58.931,309973,-2.33,-1.30,-0.34,0.3,-0.41,1.28
21:38:58.988,310030,-2.36,-1.27,-0.34,0.3,-0.43,1.48
21:38:59.046,310088,-2.39,-1.25,-0.34,0.4,-0.46,1.46
21:38:59.103,310145,-2.42,-1.26,-0.35,0.3,-0.50,1.38
21:38:59.160,310202,-2.46,-1.23,-0.35,0.3,-0.55,1.45
21:38:59.217,310259,-2.46,-1.16,-0.35,0.3,-0.46,1.64
21:38:59.274,310316,-2.49,-1.12,-0.35,0.3,-0.57,1.57
21:38:59.331,310373,-2.53,-1.16,-0.35,0.3,-0.62,1.33
21:38:59.388,310430,-2.54,-1.17,-0.34,0.3,-0.60,1.37
21:38:59.446,310488,-2.53,-1.15,-0.35,0.4,-0.55,1.45
21:38:59.502,310544,-2.55,-1.17,-0.34,0.3,-0.64,1.38
21:38:59.560,310602,-2.59,-1.24,-0.35,0.3,-0.74,1.21
21:38:59.617,310659,-2.63,-1.30,-0.35,0.3,-0.75,1.17
21:38:59.675,310717,-2.84,-1.37,-0.36,0.4,-1.20,1.14
21:38:59.732,310774,-2.97,-1.37,-0.35,0.3,-1.23,1.23
21:38:59.790,310832,-3.10,-1.44,-0.36,0.3,-1.33,1.05
21:38:59.847,310889,-3.16,-1.53,-0.36,0.3,-1.24,0.90
21:38:59.903,310945,-3.08,-1.56,-0.36,0.3,-0.88,1.06
21:38:59.960,311002,-2.98,-1.59,-0.36,0.3,-0.74,1.03
21:39:00.018,311060,-2.94,-1.72,-0.36,0.3,-0.89,0.71
21:39:00.075,311117,-3.11,-1.88,-0.35,0.3,-1.43,0.51
21:39:14.514,325556,5.30,3.25,-1.06,-0.1,1.11,0.57
21:39:14.799,325841,3.57,4.74,0.15,0.4,2.41,2.82
21:39:14.856,325898,3.60,4.78,0.16,0.5,2.35,3.12
21:39:14.914,325956,3.50,4.73,0.15,0.4,2.08,2.96
21:39:14.972,326014,3.34,4.56,0.15,0.4,1.77,2.60
21:39:15.028,326070,3.21,4.37,0.15,0.4,1.77,2.37
21:39:15.085,326127,3.12,4.31,0.13,0.4,1.81,2.62
21:39:15.143,326185,3.16,4.31,0.14,0.3,2.19,2.90
21:39:15.199,326241,3.23,4.31,0.14,0.4,2.31,2.91
21:39:15.257,326299,3.29,4.31,0.13,0.5,2.40,2.93
21:39:15.315,326357,3.32,4.29,0.14,0.4,2.36,2.92
21:39:15.372,326414,3.28,4.25,0.13,0.4,2.22,2.85
21:39:15.429,326471,3.21,4.21,0.13,0.3,2.02,2.86
21:39:15.486,326528,3.21,4.21,0.14,0.4,2.22,2.97
21:39:15.543,326585,3.26,4.21,0.14,0.3,2.43,3.01
21:39:15.600,326642,3.36,4.23,0.14,0.4,2.63,3.05
21:39:15.657,326699,3.41,4.26,0.13,0.4,2.54,3.13
21:39:15.715,326757,3.45,4.30,0.14,0.4,2.60,3.21
21:39:15.771,326813,3.46,4.32,0.13,0.4,2.52,3.21
21:39:15.829,326871,3.50,4.30,0.13,0.3,2.64,3.11
21:39:15.887,326929,3.55,4.24,0.13,0.2,2.73,3.02
21:39:15.943,326985,3.58,4.16,0.12,0.3,2.68,2.96
21:39:16.000,327042,3.57,4.16,0.12,0.3,2.61,3.15
21:39:16.058,327100,3.59,4.20,0.11,0.4,2.75,3.32
21:39:16.115,327157,3.59,4.24,0.11,0.3,2.72,3.32
21:39:16.172,327214,3.58,4.25,0.11,0.2,2.70,3.32
21:39:16.229,327271,3.60,4.24,0.11,0.2,2.79,3.29
21:39:16.287,327329,3.62,4.21,0.10,0.4,2.82,3.23
21:39:16.343,327385,3.68,4.18,0.10,0.5,2.98,3.23
21:39:16.401,327443,3.69,4.20,0.10,0.5,2.84,3.40
21:39:16.457,327499,3.72,4.21,0.09,0.4,2.97,3.41
21:39:16.515,327557,3.79,4.24,0.10,0.4,3.14,3.50
21:39:16.572,327614,3.82,4.24,0.09,0.4,3.06,3.46
21:39:16.630,327672,3.84,4.24,0.09,0.5,3.09,3.46
21:39:16.687,327729,3.87,4.25,0.09,0.5,3.17,3.54
21:39:16.744,327786,3.86,4.25,0.09,0.4,3.06,3.55
21:39:16.802,327844,3.81,4.27,0.10,0.3,2.98,3.61
21:39:16.858,327900,3.74,4.27,0.10,0.4,2.90,3.61
21:39:16.916,327958,3.70,4.22,0.10,0.3,2.97,3.44
21:39:16.973,328015,3.65,4.14,0.10,0.3,2.90,3.35
21:39:17.030,328072,3.72,4.10,0.08,0.4,3.22,3.45
21:39:17.087,328129,3.82,4.13,0.08,0.5,3.45,3.65
21:39:17.144,328186,3.81,4.15,0.07,0.4,3.23,3.71
21:39:17.201,328243,3.76,4.10,0.08,0.5,3.09,3.52
21:39:17.259,328301,3.62,3.94,0.07,0.3,2.87,3.21
21:39:17.316,328358,3.43,3.73,0.07,0.4,2.57,2.94
21:39:17.373,328415,3.21,3.45,0.06,0.4,2.44,2.65
21:39:17.430,328472,2.85,3.20,0.05,0.5,2.00,2.54
21:39:17.487,328529,2.41,2.84,0.05,0.4,1.44,2.18
21:39:17.544,328586,1.82,2.55,0.05,0.5,0.84,2.04
21:39:17.602,328644,1.27,2.24,0.05,0.4,0.33,1.82
21:39:17.659,328701,0.74,1.93,0.05,0.5,0.21,1.74
21:39:17.716,328758,0.27,1.66,0.05,0.5,0.02,1.65
21:39:17.774,328816,-0.23,1.37,0.04,0.5,-0.22,1.48
21:39:17.830,328872,-0.59,1.15,0.04,0.4,-0.17,1.49
21:39:17.888,328930,-0.90,0.96,0.04,0.4,-0.28,1.44
21:39:17.945,328987,-1.14,0.80,0.05,0.4,-0.22,1.41
21:39:18.002,329044,-1.36,0.65,0.05,0.4,-0.34,1.39
21:39:18.059,329101,-1.49,0.54,0.04,0.4,-0.17,1.40
21:39:18.117,329159,-1.67,0.41,0.05,0.4,-0.39,1.28
21:39:18.174,329216,-1.90,0.22,0.06,0.4,-0.67,1.09
21:39:18.231,329273,-2.17,0.05,0.05,0.4,-0.93,0.96
21:39:18.288,329330,-2.52,-0.16,0.05,0.3,-1.36,0.78
21:39:18.346,329388,-2.80,-0.38,0.05,0.4,-1.36,0.60
21:39:18.402,329444,-3.04,-0.57,0.05,0.4,-1.47,0.52
21:39:18.460,329502,-3.22,-0.66,0.04,0.5,-1.50,0.69
21:39:18.517,329559,-3.32,-0.71,0.05,0.5,-1.30,0.78
21:39:18.574,329616,-3.39,-0.81,0.04,0.5,-1.28,0.65
21:39:18.631,329673,-3.49,-0.94,0.05,0.4,-1.42,0.45
21:39:18.689,329731,-3.55,-1.08,0.04,0.3,-1.43,0.31
21:39:18.746,329788,-3.56,-1.12,0.04,0.4,-1.28,0.54
21:39:18.802,329844,-3.56,-1.10,0.03,0.4,-1.32,0.69
21:39:18.860,329902,-3.53,-1.04,0.03,0.3,-1.21,0.81
21:39:18.918,329960,-3.51,-1.00,0.03,0.3,-1.26,0.82
21:39:18.974,330016,-3.51,-0.99,0.02,0.4,-1.34,0.74
21:39:19.032,330075,-3.53,-0.99,0.02,0.5,-1.45,0.66
21:39:19.089,330131,-3.49,-0.96,0.02,0.4,-1.29,0.79
21:39:19.146,330188,-3.45,-0.92,0.02,0.5,-1.27,0.83
21:39:19.203,330245,-3.42,-0.92,0.01,0.6,-1.25,0.76
21:39:19.261,330303,-3.41,-0.93,0.01,0.5,-1.34,0.70
21:39:19.318,330360,-3.42,-0.94,0.00,0.4,-1.40,0.68
21:39:19.374,330416,-3.45,-0.97,-0.00,0.4,-1.52,0.61
21:39:19.433,330475,-3.46,-0.98,0.01,0.4,-1.54,0.62
21:39:19.489,330531,-3.46,-0.95,0.01,0.4,-1.47,0.77
21:39:19.547,330589,-3.45,-0.88,0.01,0.4,-1.46,0.87
21:39:19.604,330646,-3.46,-0.82,0.01,0.4,-1.58,0.93
21:39:19.661,330703,-3.42,-0.80,0.00,0.4,-1.40,0.81
21:39:19.719,330761,-3.44,-0.81,-0.00,0.4,-1.60,0.71
21:39:19.775,330817,-3.42,-0.81,-0.01,0.4,-1.51,0.73
21:39:19.833,330875,-3.44,-0.80,-0.00,0.3,-1.61,0.78
21:39:19.889,330931,-3.46,-0.81,-0.00,0.3,-1.67,0.74
21:39:19.946,330988,-3.46,-0.83,-0.00,0.4,-1.61,0.71
21:39:20.004,331046,-3.40,-0.87,-0.01,0.4,-1.52,0.56
21:39:20.061,331103,-3.30,-0.88,-0.01,0.4,-1.34,0.63
21:39:20.118,331160,-3.23,-0.87,-0.02,0.5,-1.36,0.69
21:39:20.176,331218,-3.20,-0.85,-0.02,0.4,-1.48,0.74
21:39:20.232,331274,-3.21,-0.82,-0.02,0.4,-1.56,0.79
21:39:20.290,331332,-3.25,-0.85,-0.03,0.3,-1.70,0.60
21:39:20.348,331390,-3.24,-0.90,-0.03,0.3,-1.63,0.49
21:39:20.405,331447,-3.19,-0.91,-0.03,0.4,-1.51,0.61
21:39:20.462,331504,-3.15,-0.89,-0.04,0.4,-1.53,0.68
21:39:20.519,331561,-3.16,-0.89,-0.04,0.5,-1.65,0.63
21:39:20.576,331618,-3.18,-0.89,-0.03,0.5,-1.70,0.65
21:39:20.633,331675,-3.13,-0.89,-0.03,0.4,-1.57,0.63
21:39:20.691,331733,-3.10,-0.90,-0.03,0.4,-1.56,0.60
21:39:20.748,331790,-3.07,-0.92,-0.03,0.3,-1.61,0.52
21:39:20.804,331846,-3.04,-0.91,-0.04,0.5,-1.57,0.61
21:39:20.862,331904,-3.02,-0.90,-0.04,0.4,-1.64,0.63
21:39:20.920,331962,-3.01,-0.91,-0.05,0.4,-1.64,0.55
21:39:20.977,332019,-2.96,-0.90,-0.05,0.5,-1.55,0.61
21:39:21.034,332076,-2.94,-0.87,-0.05,0.5,-1.62,0.69
21:39:21.090,332132,-2.94,-0.87,-0.06,0.5,-1.68,0.61
21:39:21.148,332190,-2.99,-0.88,-0.06,0.4,-1.81,0.55
21:39:21.205,332247,-3.07,-0.90,-0.05,0.4,-1.99,0.58
21:39:21.262,332304,-3.12,-1.00,-0.07,0.4,-2.04,0.23
21:39:21.319,332361,-3.02,-1.04,-0.06,0.3,-1.54,0.34
21:39:21.376,332418,-2.90,-1.01,-0.05,0.3,-1.44,0.54
21:39:21.434,332476,-2.89,-1.01,-0.08,0.4,-1.70,0.50
21:39:21.491,332533,-2.85,-1.03,-0.07,0.4,-1.62,0.44
21:39:21.548,332590,-2.97,-1.13,-0.08,0.4,-2.06,0.19
21:39:21.606,332648,-3.05,-1.22,-0.07,0.4,-2.13,0.08
21:39:21.663,332705,-3.13,-1.26,-0.08,0.4,-2.17,0.21
21:39:21.719,332761,-3.13,-1.24,-0.09,0.3,-2.05,0.35
21:39:21.777,332819,-3.12,-1.21,-0.08,0.3,-1.95,0.39
21:39:21.834,332876,-3.12,-1.20,-0.10,0.3,-2.02,0.30
21:39:21.891,332933,-3.13,-1.12,-0.09,0.4,-2.07,0.57
21:39:21.948,332990,-3.12,-1.08,-0.10,0.5,-2.03,0.49
21:39:22.006,333048,-3.12,-1.13,-0.10,0.4,-2.06,0.27
21:39:22.063,333105,-3.19,-1.21,-0.10,0.4,-2.25,0.06
21:39:22.121,333163,-3.30,-1.30,-0.11,0.5,-2.52,-0.02
21:39:22.177,333219,-3.37,-1.29,-0.11,0.4,-2.42,0.22
21:39:22.234,333276,-3.44,-1.27,-0.10,0.5,-2.48,0.32
21:39:22.291,333333,-3.49,-1.25,-0.09,0.4,-2.58,0.24
21:39:22.348,333390,-3.42,-1.17,-0.11,0.4,-2.26,0.49
21:39:22.406,333448,-3.15,-1.05,-0.10,0.4,-1.58,0.65
21:39:22.463,333505,-2.91,-0.96,-0.11,0.4,-1.53,0.62
21:39:22.521,333563,-2.64,-0.92,-0.12,0.5,-1.32,0.49
21:39:22.577,333619,-2.36,-0.84,-0.12,0.4,-1.10,0.65
21:39:22.634,333676,-2.06,-0.77,-0.14,0.4,-0.90,0.64
21:39:22.692,333734,-1.79,-0.72,-0.14,0.4,-0.87,0.66
21:39:22.749,333791,-1.47,-0.65,-0.15,0.4,-0.51,0.70
21:39:22.806,333848,-1.15,-0.63,-0.17,0.5,-0.36,0.61
21:39:22.863,333905,-0.77,-0.67,-0.17,0.4,-0.11,0.46
21:39:22.921,333963,-0.38,-0.68,-0.19,0.4,0.35,0.48
21:39:22.978,334020,-0.01,-0.71,-0.20,0.3,0.49,0.44
21:39:23.035,334077,0.37,-0.68,-0.21,0.4,0.69,0.53
21:39:23.093,334135,0.63,-0.65,-0.21,0.4,0.67,0.65
21:39:23.150,334192,0.63,-0.68,-0.22,0.5,-0.03,0.44
21:39:23.206,334248,0.56,-0.69,-0.22,0.4,-0.27,0.47
21:39:23.264,334306,0.53,-0.74,-0.23,0.5,-0.16,0.36
21:39:23.321,334363,0.35,-0.60,-0.22,0.3,-0.67,0.82
21:39:23.378,334420,0.23,-0.21,-0.21,0.4,-0.60,1.67
21:39:23.436,334478,0.23,0.49,-0.19,0.4,-0.32,2.73
21:39:23.493,334535,0.36,1.41,-0.17,0.4,0.09,4.02
21:39:23.550,334592,0.63,2.68,-0.15,0.5,0.57,5.42
21:39:23.607,334649,1.00,4.10,-0.12,0.5,1.02,6.65
21:39:23.664,334706,1.48,5.71,-0.08,0.4,1.57,8.01
21:39:23.722,334764,2.01,7.23,-0.04,0.4,2.19,9.26
21:39:23.779,334821,2.65,8.91,0.01,0.4,2.72,10.45
21:39:23.836,334878,3.36,10.60,0.06,0.4,3.33,11.46
21:39:23.893,334935,3.52,12.24,0.13,0.3,2.71,12.67
21:39:23.950,334992,2.69,14.08,0.23,0.4,-0.58,14.07
21:39:24.008,335050,1.90,15.68,0.32,0.4,-1.05,14.54
21:39:24.065,335107,1.22,16.93,0.40,0.4,-1.17,14.58
21:39:24.122,335164,0.95,17.40,0.42,0.3,-1.18,14.54
21:39:24.180,335222,0.58,17.97,0.47,0.3,-0.67,13.53
21:39:24.237,335279,0.48,18.28,0.50,0.3,-0.23,13.22
21:39:24.294,335336,0.35,19.09,0.55,0.3,-0.41,15.32
21:39:24.351,335393,0.42,19.65,0.57,0.3,0.04,15.17
21:39:24.407,335449,0.65,19.70,0.57,0.3,0.64,14.16
21:39:24.466,335508,1.04,19.35,0.55,0.3,1.25,13.01
21:39:51.520,362562,5.64,8.35,4.93,0.2,18.29,29.88
21:39:51.577,362619,2.28,9.82,-0.00,0.1,8.98,38.49
21:39:51.634,362676,2.26,9.81,-0.00,0.1,1.33,6.00
21:39:51.691,362733,2.26,9.82,0.01,0.1,1.36,6.08
21:39:51.748,362790,2.25,9.83,0.01,0.1,1.36,6.12
21:39:51.805,362847,2.23,9.83,0.01,0.0,1.37,6.18
21:39:51.863,362905,2.22,9.83,0.01,0.1,1.37,6.24
21:39:51.920,362962,2.21,9.83,0.01,0.1,1.40,6.26
21:39:51.977,363019,2.21,9.84,0.01,0.2,1.43,6.36
21:39:52.035,363077,2.21,9.84,0.01,0.1,1.44,6.39
21:39:52.092,363134,2.21,9.85,0.00,-0.0,1.45,6.50
21:39:52.149,363191,2.22,9.85,0.00,-0.0,1.48,6.54
21:39:52.206,363248,2.23,9.85,-0.00,0.0,1.51,6.60
21:39:52.263,363305,2.24,9.85,-0.00,0.1,1.54,6.62
21:39:52.320,363362,2.25,9.86,-0.00,0.1,1.56,6.72
21:39:52.378,363420,2.27,9.86,-0.00,0.1,1.60,6.76
21:39:52.434,363476,2.27,9.86,0.00,0.1,1.57,6.82
21:39:52.491,363533,2.26,9.86,0.00,0.2,1.55,6.85
21:39:52.549,363591,2.26,9.85,0.01,0.3,1.57,6.90
21:39:52.606,363648,2.24,9.85,0.01,0.2,1.55,6.96
21:39:52.663,363705,2.22,9.84,0.01,0.1,1.53,7.00
21:39:52.720,363762,2.19,9.84,0.00,0.2,1.51,7.06
21:39:52.778,363820,2.16,9.83,0.00,0.1,1.50,7.11
21:39:52.835,363877,2.12,9.83,0.01,0.2,1.48,7.19
21:39:52.893,363935,2.09,9.83,0.01,0.1,1.47,7.24
21:39:52.950,363992,2.06,9.83,0.01,0.1,1.50,7.30
21:39:53.007,364049,2.04,9.83,0.01,0.1,1.49,7.36
21:39:53.064,364106,2.02,9.84,0.01,0.1,1.51,7.42
21:39:53.120,364162,2.01,9.84,0.00,-0.0,1.54,7.47
21:39:53.178,364220,2.00,9.84,-0.00,0.0,1.51,7.53
21:39:53.235,364277,1.99,9.83,-0.01,0.1,1.54,7.55
21:39:53.293,364335,1.99,9.84,-0.01,0.1,1.57,7.63
21:39:53.350,364392,1.98,9.84,-0.01,0.1,1.58,7.69
21:39:53.406,364448,1.99,9.85,-0.01,0.1,1.62,7.77
21:39:53.464,364506,2.00,9.85,-0.02,0.1,1.63,7.81
21:39:53.521,364563,2.02,9.84,-0.02,0.1,1.69,7.84
21:39:53.578,364620,2.04,9.85,-0.02,0.2,1.72,7.95
21:39:53.636,364678,2.12,9.99,-0.02,0.1,1.92,8.39
21:39:53.693,364735,2.23,10.25,0.00,0.1,2.06,8.91
21:39:53.749,364791,2.31,10.45,0.01,0.1,2.09,8.96
21:39:53.807,364849,2.25,10.73,0.01,0.2,1.74,9.37
21:39:53.865,364907,2.16,10.98,0.03,-0.0,1.57,9.52
21:39:53.922,364964,2.19,11.02,0.03,0.1,1.95,9.39
21:39:53.979,365021,2.09,10.73,0.02,0.1,1.53,8.16
21:39:54.036,365078,1.95,10.19,-0.00,0.1,1.36,7.41
21:39:54.093,365135,1.90,9.54,-0.03,0.0,1.59,6.83
21:39:54.151,365193,1.75,8.81,-0.06,0.1,1.21,6.10
21:39:54.207,365249,1.71,8.29,-0.07,0.1,1.30,5.83
21:39:54.265,365307,1.32,7.13,-0.10,0.0,0.70,4.92
21:39:54.321,365363,1.05,6.30,-0.12,0.1,0.54,4.40
21:39:54.379,365421,0.78,5.42,-0.15,0.2,0.39,3.90
21:39:54.436,365478,0.44,4.47,-0.16,0.1,0.11,3.29
21:39:54.493,365535,-0.09,3.42,-0.19,0.2,-0.63,2.48
21:39:54.551,365593,-0.56,2.52,-0.21,0.2,-0.99,1.96
21:39:54.608,365650,-0.89,1.74,-0.22,0.1,-0.79,1.94
21:39:54.665,365707,-1.01,1.23,-0.23,0.2,-0.34,2.34
21:39:54.723,365765,-1.08,0.82,-0.23,0.2,-0.27,2.27
21:39:54.780,365822,-1.12,0.60,-0.23,0.1,-0.20,2.66
21:39:54.837,365879,-1.08,0.56,-0.23,0.3,-0.01,3.07
21:39:54.894,365936,-1.02,0.63,-0.24,0.2,0.13,3.39
21:39:54.951,365993,-1.05,0.67,-0.23,0.3,-0.13,3.41
21:39:55.008,366050,-1.10,0.72,-0.23,0.2,-0.23,3.44
21:39:55.066,366108,-1.13,0.72,-0.22,0.2,-0.19,3.33
21:39:55.122,366164,-1.25,0.68,-0.22,0.2,-0.49,3.22
21:39:55.179,366221,-1.33,0.64,-0.21,0.2,-0.51,3.18
21:39:55.236,366278,-1.40,0.51,-0.21,0.1,-0.47,2.92
21:39:55.294,366336,-1.56,0.28,-0.21,0.1,-0.80,2.51
21:39:55.351,366393,-1.75,-0.05,-0.21,0.1,-0.99,2.12
21:39:55.408,366450,-1.95,-0.44,-0.21,0.1,-1.13,1.74
21:39:55.466,366508,-2.13,-0.89,-0.22,0.0,-1.28,1.23
21:39:55.523,366565,-2.28,-1.37,-0.23,0.1,-1.20,1.04
21:39:55.580,366622,-2.41,-1.71,-0.23,0.1,-1.35,0.90
21:39:55.638,366680,-2.53,-2.08,-0.24,0.2,-1.38,0.70
21:39:55.694,366736,-2.68,-2.42,-0.23,0.1,-1.54,0.58
21:39:55.752,366794,-2.78,-2.61,-0.23,0.1,-1.53,0.75
21:39:55.809,366851,-2.76,-2.58,-0.22,0.1,-1.24,1.35
21:39:55.866,366908,-2.67,-2.60,-0.22,0.0,-0.97,1.20
21:39:55.924,366966,-2.62,-2.72,-0.23,0.1,-1.07,0.93
21:39:55.981,367023,-2.75,-3.02,-0.23,0.1,-1.57,0.26
21:39:56.038,367080,-2.87,-3.22,-0.23,0.1,-1.73,0.29
21:39:56.094,367136,-2.84,-3.25,-0.23,0.2,-1.33,0.70
21:39:56.152,367194,-2.77,-3.21,-0.24,0.1,-1.19,0.84
21:39:56.209,367251,-2.70,-3.15,-0.24,0.2,-1.14,1.01
21:39:56.267,367309,-2.71,-3.17,-0.24,0.2,-1.38,0.73
21:39:56.324,367366,-2.71,-3.19,-0.23,0.1,-1.37,0.73
21:39:56.381,367423,-2.72,-3.12,-0.24,0.2,-1.43,0.92
21:39:56.438,367480,-2.72,-3.05,-0.23,0.1,-1.40,1.00
21:39:56.495,367537,-2.73,-2.98,-0.22,0.1,-1.45,1.00
21:39:56.553,367595,-2.74,-2.95,-0.21,0.2,-1.45,0.90
21:39:56.610,367652,-2.75,-2.91,-0.21,0.3,-1.53,0.93
21:39:56.667,367709,-2.76,-2.92,-0.22,0.1,-1.51,0.79
21:39:56.724,367766,-2.74,-2.88,-0.21,0.1,-1.43,0.91
21:39:56.782,367824,-2.71,-2.90,-0.21,0.1,-1.45,0.77
21:39:56.838,367880,-2.66,-2.89,-0.22,0.1,-1.38,0.79
21:39:56.895,367937,-2.57,-2.79,-0.21,-0.0,-1.23,1.02
21:39:56.953,367995,-2.48,-2.67,-0.21,-0.0,-1.19,1.17
21:39:57.010,368052,-2.43,-2.53,-0.21,-0.0,-1.24,1.33
21:39:57.068,368110,-2.39,-2.42,-0.20,-0.0,-1.25,1.28
21:39:57.124,368166,-2.36,-2.40,-0.20,0.1,-1.29,1.07
21:39:57.182,368224,-2.34,-2.32,-0.20,0.1,-1.38,1.16
21:39:57.239,368281,-2.30,-2.21,-0.19,0.2,-1.24,1.38
21:39:57.296,368338,-2.25,-2.02,-0.20,0.2,-1.25,1.63
21:39:57.353,368395,-2.19,-1.90,-0.19,0.1,-1.17,1.52
21:39:57.411,368453,-2.14,-1.87,-0.19,0.1,-1.17,1.34
21:39:57.467,368509,-2.12,-1.85,-0.19,0.1,-1.23,1.30
21:39:57.525,368567,-2.08,-1.80,-0.18,0.1,-1.22,1.41
21:39:57.582,368624,-2.04,-1.72,-0.19,0.1,-1.18,1.53
21:39:57.639,368681,-2.00,-1.58,-0.19,0.2,-1.16,1.69
21:39:57.697,368739,-1.97,-1.43,-0.18,0.2,-1.16,1.87
21:39:57.754,368796,-1.89,-1.31,-0.17,0.1,-1.06,1.81
21:39:57.811,368853,-1.79,-1.16,-0.16,0.1,-0.93,1.99
21:39:57.867,368909,-1.71,-1.04,-0.16,0.1,-0.94,1.98
21:39:57.925,368967,-1.64,-0.95,-0.15,0.2,-0.93,1.98
21:39:57.982,369024,-1.55,-0.89,-0.15,0.1,-0.86,1.92
21:39:58.040,369082,-1.43,-0.79,-0.16,0.2,-0.69,2.07
21:39:58.097,369139,-1.35,-0.73,-0.15,0.0,-0.74,2.00
21:39:58.154,369196,-1.29,-0.70,-0.15,0.0,-0.76,1.96
21:39:58.211,369253,-1.25,-0.72,-0.15,0.2,-0.83,1.79
21:39:58.268,369310,-1.20,-0.78,-0.15,0.2,-0.78,1.70
21:39:58.326,369368,-1.18,-0.81,-0.15,0.1,-0.83,1.66
21:39:58.382,369424,-1.15,-0.82,-0.15,0.1,-0.82,1.76
21:39:58.440,369482,-1.13,-0.82,-0.15,0.1,-0.83,1.76
21:39:58.497,369539,-1.12,-0.81,-0.15,-0.0,-0.85,1.80
21:39:58.554,369596,-1.13,-0.79,-0.14,0.0,-0.90,1.86
21:39:58.612,369654,-1.12,-0.78,-0.14,0.0,-0.86,1.82
21:39:58.668,369710,-1.09,-0.81,-0.14,0.0,-0.81,1.65
21:39:58.726,369768,-1.11,-0.79,-0.14,0.1,-0.90,1.81
21:39:58.783,369825,-1.15,-0.72,-0.14,0.1,-1.01,1.96
21:39:58.841,369883,-1.16,-0.70,-0.13,0.1,-0.98,1.88
21:39:58.897,369939,-1.14,-0.70,-0.14,-0.1,-0.90,1.82
21:39:58.954,369996,-1.15,-0.70,-0.12,-0.0,-0.92,1.83
21:39:59.012,370054,-1.19,-0.72,-0.13,-0.0,-1.03,1.75
21:39:59.069,370111,-1.23,-0.71,-0.12,-0.0,-1.15,1.79
21:39:59.126,370168,-1.22,-0.66,-0.12,-0.1,-0.99,1.96
21:39:59.183,370225,-1.25,-0.69,-0.13,0.1,-1.05,1.75
21:39:59.241,370283,-1.27,-0.69,-0.11,0.1,-1.09,1.78
21:39:59.298,370340,-1.30,-0.71,-0.11,0.1,-1.13,1.75
21:39:59.355,370397,-1.33,-0.71,-0.12,0.1,-1.21,1.79
21:39:59.413,370455,-1.37,-0.70,-0.10,0.1,-1.22,1.83
21:39:59.470,370512,-1.36,-0.65,-0.12,0.2,-1.12,1.88
21:39:59.527,370569,-1.30,-0.59,-0.11,0.1,-0.96,1.97
21:39:59.584,370626,-1.26,-0.56,-0.11,0.1,-1.00,1.95
21:39:59.641,370683,-1.25,-0.58,-0.11,0.1,-1.04,1.77
21:39:59.698,370740,-1.27,-0.62,-0.11,0.1,-1.14,1.73
21:39:59.755,370797,-1.29,-0.64,-0.11,0.1,-1.19,1.74
21:39:59.813,370855,-1.30,-0.64,-0.10,0.1,-1.17,1.80
21:39:59.870,370912,-1.32,-0.61,-0.10,0.2,-1.18,1.87
21:39:59.927,370969,-1.32,-0.60,-0.09,0.1,-1.20,1.81
21:39:59.984,371026,-1.32,-0.61,-0.09,0.1,-1.19,1.77
21:40:00.042,371084,-1.35,-0.62,-0.09,0.1,-1.27,1.75
21:40:00.098,371140,-1.35,-0.60,-0.09,0.1,-1.19,1.81
21:40:00.156,371198,-1.31,-0.55,-0.08,0.1,-1.10,1.94
21:40:00.213,371255,-1.30,-0.58,-0.08,0.0,-1.14,1.70
21:40:00.270,371312,-1.31,-0.63,-0.09,0.1,-1.22,1.65
21:40:00.328,371370,-1.30,-0.65,-0.09,0.1,-1.19,1.72
21:40:00.385,371427,-1.27,-0.63,-0.09,0.3,-1.12,1.80
21:40:00.442,371484,-1.26,-0.60,-0.09,0.2,-1.17,1.84
21:40:00.499,371541,-1.28,-0.59,-0.09,0.2,-1.26,1.81
21:40:00.556,371598,-1.27,-0.58,-0.09,0.2,-1.21,1.83
21:40:00.613,371655,-1.29,-0.59,-0.08,0.3,-1.28,1.72
21:40:00.670,371712,-1.30,-0.61,-0.08,0.2,-1.28,1.70
21:40:00.727,371769,-1.30,-0.61,-0.08,0.1,-1.25,1.76
21:40:00.785,371827,-1.30,-0.61,-0.08,0.1,-1.27,1.74
21:40:00.842,371884,-1.31,-0.59,-0.08,0.1,-1.29,1.79
21:40:00.899,371941,-1.32,-0.59,-0.09,0.1,-1.31,1.77
21:40:00.956,371998,-1.33,-0.58,-0.09,-0.0,-1.35,1.76
21:40:01.013,372055,-1.34,-0.49,-0.07,0.1,-1.34,1.99
21:40:01.071,372113,-1.27,-0.39,-0.07,0.1,-1.21,2.11
21:40:01.128,372170,-1.14,-0.36,-0.08,0.1,-0.89,1.99
21:40:01.185,372227,-1.04,-0.32,-0.07,0.2,-0.88,2.00
21:40:01.242,372284,-1.08,-0.36,-0.08,0.0,-1.23,1.79
21:40:01.299,372341,-1.11,-0.43,-0.08,0.0,-1.32,1.66
21:40:01.357,372399,-1.16,-0.57,-0.07,0.0,-1.35,1.43
21:40:01.414,372456,-1.21,-0.62,-0.08,0.0,-1.40,1.53
21:40:01.471,372513,-1.23,-0.55,-0.07,0.0,-1.37,1.85
21:40:24.537,395579,0.72,3.81,3.63,-0.1,1.38,14.29
21:40:24.594,395636,0.88,2.66,0.01,0.0,3.46,10.50
21:40:24.651,395693,0.89,2.65,-0.00,0.0,0.58,1.58
21:40:24.709,395751,0.90,2.65,-0.01,-0.0,0.56,1.64
21:40:24.766,395808,0.90,2.65,-0.01,0.0,0.57,1.64
21:40:24.823,395865,0.90,2.65,-0.01,0.1,0.56,1.67
21:40:24.880,395922,0.89,2.65,-0.01,0.1,0.55,1.68
21:40:24.938,395980,0.89,2.65,-0.01,0.0,0.56,1.67
21:40:24.995,396037,0.89,2.64,-0.01,0.0,0.56,1.69
21:40:25.052,396094,0.89,2.64,-0.01,0.1,0.58,1.70
21:40:25.109,396151,0.88,2.64,-0.01,0.1,0.56,1.73
21:40:25.166,396208,0.88,2.64,-0.00,0.0,0.58,1.78
21:40:25.223,396265,0.88,2.64,-0.00,0.3,0.58,1.77
21:40:25.281,396323,0.89,2.65,0.00,0.1,0.62,1.80
21:40:25.337,396379,0.89,2.66,0.01,0.0,0.60,1.80
21:40:25.396,396438,0.89,2.66,0.01,-0.0,0.61,1.82
21:40:25.452,396494,0.89,2.65,0.00,0.0,0.60,1.83
21:40:25.510,396552,0.89,2.65,-0.00,0.1,0.63,1.83
21:40:25.566,396608,0.90,2.65,0.00,0.0,0.64,1.87
21:40:25.624,396666,0.90,2.66,0.00,0.1,0.64,1.90
21:40:25.681,396723,0.89,2.64,0.01,0.2,0.62,1.85
21:40:25.739,396781,0.87,2.62,0.01,0.1,0.62,1.85
21:40:25.795,396837,0.54,2.14,0.00,0.1,-0.32,0.52
21:40:25.853,396895,0.37,1.47,0.00,0.2,-0.13,-0.31
21:40:25.910,396952,0.34,0.65,-0.01,0.0,0.20,-1.32
21:40:25.967,397009,0.09,0.02,-0.01,0.1,-0.35,-1.26
21:40:26.024,397066,-0.10,-0.42,-0.01,0.1,-0.45,-1.02
21:40:26.082,397124,-0.17,-0.57,0.00,0.1,-0.15,-0.47
21:40:26.138,397180,-0.36,-0.48,-0.00,0.0,-0.56,0.27
21:40:26.197,397239,-0.43,-0.34,0.00,0.2,-0.36,0.52
21:40:26.253,397295,-0.44,-0.48,0.01,0.1,-0.15,-0.26
21:40:26.310,397352,-0.47,-0.76,0.01,0.1,-0.25,-0.72
21:40:26.367,397409,-0.44,-1.08,0.00,0.0,-0.11,-1.13
21:40:26.424,397466,-0.37,-1.29,0.01,-0.0,0.02,-0.94
21:40:26.482,397524,-0.23,-1.48,0.01,0.1,0.30,-1.07
21:40:26.539,397581,-0.10,-1.61,0.00,0.1,0.38,-1.02
21:40:26.596,397638,0.03,-1.49,-0.01,0.1,0.44,-0.32
21:40:26.653,397695,0.14,-1.45,0.00,-0.0,0.46,-0.44
21:40:26.710,397752,0.21,-1.54,0.00,0.0,0.37,-0.80
21:40:26.768,397810,0.32,-1.81,-0.00,0.1,0.54,-1.44
21:40:26.825,397867,0.38,-1.98,-0.00,0.1,0.51,-1.33
21:40:26.883,397925,0.38,-2.10,-0.00,0.1,0.33,-1.36
21:40:26.939,397981,0.28,-2.09,0.00,0.1,0.10,-1.06
21:40:26.997,398039,0.09,-1.96,0.01,0.1,-0.30,-0.67
21:40:27.053,398095,-0.13,-1.75,0.02,0.1,-0.49,-0.33
21:40:27.111,398153,-0.33,-1.48,0.02,0.2,-0.62,-0.05
21:40:27.168,398210,-0.47,-1.12,0.02,0.1,-0.52,0.32
21:40:27.225,398267,-0.61,-0.75,0.03,0.1,-0.60,0.63
21:40:27.282,398324,-0.85,-0.34,0.05,-0.0,-0.97,0.95
21:40:27.339,398381,-1.06,-0.04,0.05,0.0,-1.05,0.91
21:40:27.396,398438,-1.22,0.19,0.06,0.0,-1.09,0.90
21:40:27.454,398496,-1.37,0.34,0.06,0.0,-1.13,0.76
21:40:27.511,398553,-1.45,0.37,0.07,0.1,-0.98,0.59
21:40:27.569,398611,-1.53,0.30,0.08,0.0,-1.03,0.21
21:40:27.625,398667,-1.57,0.25,0.08,0.0,-1.02,0.24
21:40:27.683,398725,-1.62,0.13,0.08,0.1,-1.05,0.03
21:40:27.739,398781,-1.67,0.01,0.08,0.2,-1.08,-0.11
21:40:27.797,398839,-1.71,-0.04,0.08,0.2,-1.13,0.05
21:40:27.854,398896,-1.71,-0.10,0.09,0.2,-1.00,-0.02
21:40:27.911,398953,-1.66,-0.05,0.08,0.2,-0.93,0.23
21:40:27.969,399011,-1.56,-0.03,0.08,0.1,-0.71,0.24
21:40:28.027,399069,-1.57,0.05,0.08,0.1,-0.97,0.38
21:40:28.083,399125,-1.48,0.13,0.07,0.2,-0.76,0.49
21:40:28.140,399182,-1.44,0.07,0.08,-0.0,-0.77,0.09
21:40:28.197,399239,-1.39,-0.01,0.08,0.1,-0.74,-0.02
21:40:28.255,399297,-1.29,-0.08,0.07,0.1,-0.60,-0.04
21:40:28.312,399354,-1.23,0.02,0.07,0.2,-0.63,0.41
21:40:28.369,399411,-1.17,0.16,0.07,0.2,-0.61,0.64
21:40:28.426,399468,-1.07,0.32,0.07,0.2,-0.46,0.76
21:40:28.484,399526,-0.93,0.56,0.07,0.1,-0.34,1.04
21:40:28.540,399582,-0.73,0.81,0.07,-0.0,-0.03,1.33
21:40:28.597,399639,-0.47,1.11,0.08,-0.0,0.28,1.63
21:40:28.655,399697,-0.13,1.42,0.07,-0.1,0.63,1.80
21:40:28.712,399754,0.22,1.71,0.07,-0.0,0.93,1.97
21:40:28.770,399812,0.64,1.98,0.06,-0.0,1.30,2.07
21:40:28.827,399869,1.06,2.24,0.05,-0.0,1.53,2.19
21:40:28.884,399926,1.43,2.49,0.05,0.0,1.64,2.32
21:40:28.941,399983,1.69,2.65,0.05,0.1,1.68,2.35
21:40:28.998,400040,1.95,2.79,0.05,0.2,1.76,2.29
21:40:29.055,400097,2.19,2.88,0.04,0.2,1.84,2.28
21:40:29.113,400155,2.36,2.89,0.04,0.1,1.84,2.10
21:40:29.170,400212,2.47,2.88,0.04,0.1,1.76,2.05
21:40:29.226,400268,2.46,2.83,0.04,0.1,1.49,1.95
21:40:29.284,400326,2.37,2.75,0.04,0.2,1.24,1.84
21:40:29.342,400384,2.22,2.66,0.05,0.1,1.00,1.75
21:40:29.399,400441,2.04,2.58,0.05,0.1,0.85,1.75
21:40:29.456,400498,1.82,2.50,0.05,0.1,0.63,1.72
21:40:29.513,400555,1.57,2.44,0.06,0.2,0.36,1.76
21:40:29.570,400612,1.26,2.40,0.07,0.1,0.13,1.80
21:40:29.627,400669,0.96,2.39,0.08,-0.1,-0.10,1.85
21:40:29.684,400726,0.67,2.37,0.08,-0.0,-0.24,1.85
21:40:29.742,400784,0.40,2.36,0.09,0.0,-0.33,1.86
21:40:29.798,400840,0.17,2.36,0.09,0.0,-0.37,1.90
21:40:29.856,400898,-0.02,2.37,0.09,0.1,-0.42,1.96
21:40:29.913,400955,-0.19,2.39,0.11,0.1,-0.42,1.99
21:40:29.971,401013,-0.31,2.41,0.11,0.1,-0.40,2.06
21:40:30.028,401070,-0.35,2.42,0.11,0.2,-0.25,2.01
21:40:30.084,401126,-0.33,2.41,0.11,0.2,-0.08,1.98
21:40:30.141,401183,-0.25,2.40,0.11,-0.0,0.09,2.00
21:40:30.200,401242,-0.14,2.41,0.11,0.0,0.25,2.08
21:40:30.257,401299,-0.02,2.41,0.11,0.1,0.38,2.05
21:40:30.313,401355,0.16,2.40,0.12,0.1,0.59,2.03
21:40:30.371,401413,0.36,2.39,0.11,0.1,0.77,2.05
21:40:30.428,401470,0.57,2.39,0.10,0.2,0.95,2.09
21:40:30.486,401528,0.79,2.39,0.11,0.2,1.08,2.09
21:40:30.542,401584,1.00,2.39,0.10,0.1,1.16,2.12
21:40:30.600,401642,1.17,2.40,0.11,-0.0,1.27,2.16
21:40:30.656,401698,1.33,2.40,0.11,0.1,1.31,2.14
21:40:30.713,401755,1.47,2.40,0.12,0.1,1.35,2.15
21:40:30.771,401813,1.56,2.41,0.12,0.1,1.33,2.21
21:40:30.828,401870,1.61,2.40,0.11,0.2,1.22,2.13
21:40:30.886,401928,1.61,2.40,0.12,0.1,1.12,2.20
21:40:30.942,401984,1.57,2.40,0.13,0.1,1.02,2.22
21:40:31.000,402042,1.51,2.40,0.13,0.1,0.90,2.23
21:40:31.058,402100,1.42,2.38,0.13,0.1,0.80,2.15
21:40:31.115,402157,1.29,2.37,0.14,0.1,0.67,2.22
21:40:31.172,402214,1.15,2.36,0.14,0.0,0.52,2.23
21:40:31.229,402271,1.00,2.36,0.15,0.0,0.42,2.23
21:40:31.286,402328,0.85,2.36,0.16,-0.0,0.35,2.27
21:40:31.342,402384,0.71,2.36,0.17,0.1,0.30,2.28
21:40:31.400,402442,0.59,2.36,0.17,0.0,0.24,2.30
21:40:31.458,402500,0.47,2.37,0.18,0.1,0.20,2.34
21:40:31.515,402557,0.37,2.37,0.18,0.2,0.18,2.35
21:40:31.572,402614,0.31,2.37,0.18,0.1,0.23,2.35
21:40:31.629,402671,0.28,2.36,0.19,0.0,0.30,2.35
21:40:31.686,402728,0.28,2.36,0.18,0.1,0.37,2.37
21:40:31.744,402786,0.31,2.36,0.19,0.0,0.46,2.39
21:40:31.801,402843,0.36,2.37,0.19,0.1,0.56,2.41
21:40:31.858,402900,0.44,2.38,0.19,0.1,0.65,2.44
21:40:31.915,402957,0.53,2.38,0.19,0.0,0.76,2.45
21:40:31.972,403014,0.63,2.38,0.19,0.1,0.84,2.42
21:40:32.029,403071,0.73,2.38,0.20,0.0,0.91,2.48
21:40:32.087,403129,0.83,2.38,0.19,0.2,0.97,2.50
21:40:32.144,403186,0.91,2.38,0.20,0.1,0.99,2.46
21:40:32.201,403243,1.00,2.37,0.20,0.0,1.05,2.45
21:40:32.259,403301,1.06,2.37,0.20,-0.0,1.04,2.52
21:40:32.315,403357,1.10,2.37,0.20,0.1,1.03,2.53
21:40:32.372,403414,1.11,2.38,0.19,0.1,0.98,2.55
21:40:32.429,403472,1.11,2.37,0.19,0.1,0.93,2.52
21:40:32.487,403529,1.09,2.36,0.19,0.1,0.90,2.54
21:40:32.544,403586,1.06,2.36,0.19,0.1,0.84,2.58
21:40:32.601,403643,1.01,2.35,0.19,0.0,0.78,2.54
21:40:32.658,403700,0.95,2.36,0.20,0.0,0.72,2.61
