Timestamp,ElapsedMillis,Yaw,Pitch,Roll,Altitude,YawServo,PitchServo
22:05:42.218,8786,4.08,3.74,-4.55,0.0,-8.03,10.50
22:05:42.219,8787,4.08,3.74,-4.55,0.0,-8.03,10.50
22:05:42.219,8787,4.08,3.74,-4.55,0.0,-8.03,10.50
22:05:42.220,8788,4.08,3.74,-4.55,0.0,-8.03,10.50
22:05:42.220,8788,0.07,1.40,2.09,0.0,-3.15,-4.69
22:05:42.318,8886,0.07,1.40,2.09,0.0,-3.15,-4.69
22:05:42.418,8986,0.07,1.40,2.09,0.0,-3.15,-4.69
22:05:42.523,9091,0.07,1.40,2.09,0.0,-3.15,-4.69
22:05:42.623,9191,0.07,1.40,2.09,0.0,-3.15,-4.69
22:05:42.723,9291,0.07,1.40,2.09,0.0,-3.15,-4.69
22:05:42.824,9392,0.07,1.40,2.09,0.0,-3.15,-4.69
22:05:42.929,9497,0.07,1.40,2.09,0.0,-3.15,-4.69
22:05:43.029,9597,0.07,1.40,2.09,0.0,-3.15,-4.69
22:05:43.133,9701,0.07,1.40,2.09,0.0,-3.15,-4.69
22:05:43.234,9802,0.07,1.40,2.09,0.0,-3.15,-4.69
22:05:43.333,9901,0.07,1.40,2.09,0.0,-3.15,-4.69
22:05:43.439,10007,0.07,1.40,2.09,0.0,-3.15,-4.69
22:05:43.539,10108,0.07,1.40,2.09,0.0,-3.15,-4.69
22:05:43.639,10207,0.07,1.40,2.09,0.0,-3.15,-4.69
22:05:43.739,10307,0.07,1.40,2.09,0.0,-3.15,-4.69
22:05:43.840,10408,0.07,1.40,2.09,0.0,-3.15,-4.69
22:05:43.940,10508,0.07,1.40,2.09,0.0,-3.15,-4.69
22:05:44.040,10608,0.07,1.40,2.09,0.0,-3.15,-4.69
22:05:44.139,10707,0.07,1.40,2.09,0.0,-3.15,-4.69
22:05:44.240,10808,0.07,1.40,2.09,0.0,-3.15,-4.69
22:05:44.344,10912,0.07,1.40,2.09,0.0,-3.15,-4.69
22:05:44.444,11012,0.07,1.40,2.09,0.0,-3.15,-4.69
22:05:44.545,11113,0.07,1.40,2.09,0.0,-3.15,-4.69
22:05:44.650,11218,0.07,1.40,2.09,0.0,-3.15,-4.69
22:05:44.749,11318,0.07,1.40,2.09,0.0,-3.15,-4.69
22:05:44.850,11418,0.07,1.40,2.09,0.0,-3.15,-4.69
22:05:44.950,11518,0.07,1.40,2.09,0.0,-3.15,-4.69
22:05:45.050,11618,0.07,1.40,2.09,0.0,-3.15,-4.69
22:05:45.150,11718,0.07,1.40,2.09,0.0,-3.15,-4.69
22:05:45.251,11819,0.07,1.40,2.09,0.0,-3.15,-4.69
22:05:45.351,11919,0.07,1.40,2.09,0.0,-3.15,-4.69
22:05:45.451,12019,0.07,1.40,2.09,0.0,-3.15,-4.69
22:05:45.557,12125,0.07,1.40,2.09,0.0,-3.15,-4.69
22:05:45.656,12224,0.07,1.40,2.09,0.0,-3.15,-4.69
22:05:45.756,12324,0.07,1.40,2.09,0.0,-3.15,-4.69
22:05:45.862,12430,0.07,1.40,2.09,0.0,-3.15,-4.69
22:05:45.962,12530,0.07,1.40,2.09,0.0,-3.15,-4.69
22:05:46.062,12630,0.07,1.40,2.09,0.0,-3.15,-4.69
22:05:46.162,12730,0.07,1.40,2.09,0.0,-3.15,-4.69
22:05:46.262,12830,0.07,1.40,2.09,0.0,-3.15,-4.69
22:05:46.363,12931,0.07,1.40,2.09,0.0,-3.15,-4.69
22:05:46.462,13030,0.07,1.40,2.09,0.0,-3.15,-4.69
22:05:46.566,13134,0.07,1.40,2.09,0.0,-3.15,-4.69
22:05:46.667,13235,0.07,1.40,2.09,0.0,-3.15,-4.69
22:05:46.767,13335,0.07,1.40,2.09,0.0,-3.15,-4.69
22:05:46.872,13440,0.07,1.40,2.09,0.0,-3.15,-4.69
22:05:46.972,13540,0.07,1.40,2.09,0.0,-3.15,-4.69
22:05:47.072,13640,0.07,1.40,2.09,0.0,-3.15,-4.69
22:05:47.173,13741,0.07,1.40,2.09,0.0,-3.15,-4.69
22:05:47.277,13846,0.07,1.40,2.09,0.0,-3.15,-4.69
22:05:47.378,13946,0.07,1.40,2.09,0.0,-3.15,-4.69
22:05:47.478,14046,0.07,1.40,2.09,0.0,-3.15,-4.69
22:05:47.578,14147,0.07,1.40,2.09,0.0,-3.15,-4.69
22:05:47.683,14251,0.07,1.40,2.09,0.0,-3.15,-4.69
22:05:47.783,14351,0.07,1.40,2.09,0.0,-3.15,-4.69
22:05:47.888,14456,0.07,1.40,2.09,0.0,-3.15,-4.69
22:05:47.988,14557,0.07,1.40,2.09,0.0,-3.15,-4.69
22:05:48.088,14657,0.07,1.40,2.09,0.0,-3.15,-4.69
22:05:48.193,14761,0.07,1.40,2.09,0.0,-3.15,-4.69
22:05:48.293,14861,0.07,1.40,2.09,0.0,-3.15,-4.69
22:05:48.393,14961,0.07,1.40,2.09,0.0,-3.15,-4.69
22:05:48.498,15066,0.07,1.40,2.09,0.0,-3.15,-4.69
22:05:48.598,15166,0.07,1.40,2.09,0.0,-3.15,-4.69
22:05:48.703,15271,0.07,1.40,2.09,0.0,-3.15,-4.69
22:05:48.803,15371,0.07,1.40,2.09,0.0,-3.15,-4.69
22:05:48.908,15476,0.07,1.40,2.09,0.0,-3.15,-4.69
22:05:49.009,15577,0.07,1.40,2.09,0.0,-3.15,-4.69
22:05:49.109,15677,0.07,1.40,2.09,0.0,-3.15,-4.69
22:05:49.209,15777,0.07,1.40,2.09,0.0,-3.15,-4.69
22:05:49.314,15882,0.07,1.40,2.09,0.0,-3.15,-4.69
22:05:49.418,15986,0.07,1.40,2.09,0.0,-3.15,-4.69
22:05:49.519,16087,0.07,1.40,2.09,0.0,-3.15,-4.69
22:05:49.619,16187,0.07,1.40,2.09,0.0,-3.15,-4.69
22:05:49.719,16287,0.07,1.40,2.09,0.0,-3.15,-4.69
22:05:49.819,16387,0.07,1.40,2.09,0.0,-3.15,-4.69
22:05:49.925,16493,0.07,1.40,2.09,0.0,-3.15,-4.69
22:05:50.024,16592,0.07,1.40,2.09,0.0,-3.15,-4.69
22:05:50.125,16693,0.06,1.40,2.09,0.0,-3.20,-4.74
22:05:50.230,16798,0.06,1.41,2.10,0.0,-3.17,-4.76
22:05:50.329,16897,0.06,1.41,2.10,0.0,-3.11,-4.76
22:05:50.430,16998,0.06,1.40,2.10,0.0,-3.10,-4.70
22:05:50.530,17098,0.07,1.41,2.10,0.0,-3.23,-4.65
22:05:50.630,17198,0.07,1.41,2.10,0.0,-3.18,-4.70
22:05:50.735,17303,0.06,1.41,2.09,0.0,-3.23,-4.64
22:05:50.835,17403,0.07,1.41,2.10,0.0,-3.17,-4.76
22:05:50.935,17503,0.06,1.42,2.09,0.0,-3.18,-4.75
22:05:51.035,17603,0.05,1.42,2.10,0.0,-3.13,-4.66
22:05:51.136,17704,0.05,1.42,2.10,0.0,-3.18,-4.70
22:05:51.240,17808,0.05,1.42,2.10,0.0,-3.18,-4.70
22:05:51.340,17908,0.05,1.42,2.10,0.0,-3.18,-4.70
22:05:51.441,18009,0.05,1.42,2.10,0.0,-3.18,-4.70
22:05:51.540,18108,0.05,1.42,2.10,0.0,-3.18,-4.70
22:05:51.640,18208,0.05,1.42,2.10,0.0,-3.18,-4.70
22:05:51.741,18309,0.05,1.42,2.10,0.0,-3.18,-4.70
22:05:51.840,18408,0.05,1.42,2.10,0.0,-3.18,-4.70
22:05:51.941,18509,0.05,1.42,2.10,0.0,-3.18,-4.70
22:05:52.041,18609,0.05,1.42,2.10,0.0,-3.18,-4.70
22:05:52.146,18714,0.05,1.42,2.10,0.0,-3.18,-4.70
22:05:52.245,18813,0.05,1.42,2.10,0.0,-3.18,-4.70
22:05:52.346,18915,0.05,1.42,2.10,0.0,-3.18,-4.70
22:05:52.451,19019,0.05,1.42,2.10,0.0,-3.18,-4.70
22:05:52.551,19119,0.05,1.42,2.10,0.0,-3.18,-4.70
22:05:52.651,19219,0.05,1.42,2.10,0.0,-3.18,-4.70
22:05:52.756,19324,0.05,1.42,2.10,0.0,-3.18,-4.70
22:05:52.861,19429,0.05,1.42,2.10,0.0,-3.18,-4.70
22:05:52.962,19530,0.05,1.42,2.10,0.0,-3.18,-4.70
22:05:53.061,19629,0.05,1.42,2.10,0.0,-3.18,-4.70
22:05:53.166,19734,0.05,1.42,2.10,0.0,-3.18,-4.70
22:05:53.267,19835,0.05,1.42,2.10,0.0,-3.18,-4.70
22:05:53.366,19934,0.05,1.42,2.10,0.0,-3.18,-4.70
22:05:53.471,20039,0.05,1.42,2.10,0.0,-3.18,-4.70
22:05:53.572,20140,0.05,1.42,2.10,0.0,-3.18,-4.70
22:05:53.677,20245,0.05,1.42,2.10,0.0,-3.18,-4.70
22:05:53.777,20345,0.05,1.42,2.10,0.0,-3.18,-4.70
22:05:53.882,20450,0.05,1.42,2.10,0.0,-3.18,-4.70
22:05:53.982,20550,0.05,1.42,2.10,0.0,-3.18,-4.70
22:05:54.082,20650,0.05,1.42,2.10,0.0,-3.18,-4.70
22:05:54.187,20755,0.05,1.42,2.10,0.0,-3.18,-4.70
22:05:54.287,20855,0.06,1.39,2.09,0.0,-2.92,-4.53
22:05:54.392,20960,0.01,1.40,2.06,0.0,-3.35,-4.57
22:05:54.492,21060,0.02,1.40,2.06,0.0,-3.19,-4.67
22:05:54.597,21165,0.00,1.41,2.07,0.0,-3.10,-4.64
22:05:54.697,21265,0.00,1.40,2.07,0.0,-3.09,-4.70
22:05:54.798,21366,0.02,1.40,2.08,0.0,-3.10,-4.61
22:05:54.897,21466,0.04,1.40,2.09,0.0,-3.15,-4.73
22:05:55.002,21571,0.03,1.40,2.08,0.0,-3.25,-4.67
22:05:55.107,21675,0.03,1.41,2.08,0.0,-3.16,-4.72
22:05:55.207,21776,0.02,1.41,2.09,0.0,-3.16,-4.74
22:05:55.308,21876,0.01,1.41,2.09,0.0,-3.17,-4.64
22:05:55.408,21976,-0.00,1.41,2.09,0.0,-3.22,-4.68
22:05:55.508,22076,0.01,1.41,2.09,0.0,-3.17,-4.74
22:05:55.607,22175,0.01,1.42,2.09,0.0,-3.30,-4.74
22:05:55.712,22280,-0.00,1.42,2.09,0.0,-3.24,-4.68
22:05:55.813,22381,-0.00,1.42,2.09,0.0,-3.19,-4.70
22:05:55.913,22481,-0.00,1.42,2.09,0.0,-3.19,-4.70
22:05:56.018,22586,-0.00,1.42,2.09,0.0,-3.19,-4.70
22:05:56.118,22686,-0.00,1.42,2.09,0.0,-3.19,-4.70
22:05:56.218,22786,-0.00,1.42,2.09,0.0,-3.19,-4.70
22:05:56.318,22886,-0.00,1.42,2.09,0.0,-3.19,-4.70
22:05:56.423,22991,-0.00,1.42,2.09,0.0,-3.19,-4.70
22:05:56.523,23091,-0.00,1.42,2.09,0.0,-3.19,-4.70
22:05:56.623,23191,-0.00,1.42,2.09,0.0,-3.19,-4.70
22:05:56.724,23292,-0.00,1.42,2.09,0.0,-3.19,-4.70
22:05:56.828,23396,-0.00,1.42,2.09,0.0,-3.19,-4.70
22:05:56.929,23497,-0.00,1.42,2.09,0.0,-3.19,-4.70
22:05:57.028,23596,-0.00,1.42,2.09,0.0,-3.19,-4.70
22:05:57.128,23696,-0.00,1.42,2.09,0.0,-3.19,-4.70
22:05:57.228,23796,-0.00,1.42,2.09,0.0,-3.19,-4.70
22:05:57.334,23902,-0.00,1.42,2.09,0.0,-3.19,-4.70
22:05:57.439,24007,-0.00,1.42,2.09,0.0,-3.19,-4.70
22:05:57.538,24106,-0.00,1.42,2.09,0.0,-3.19,-4.70
22:05:57.639,24207,-0.00,1.42,2.09,0.0,-3.19,-4.70
22:05:57.739,24307,-0.00,1.42,2.09,0.0,-3.19,-4.70
22:05:57.844,24412,-0.00,1.42,2.09,0.0,-3.19,-4.70
22:05:57.944,24512,-0.00,1.42,2.09,0.0,-3.19,-4.70
22:05:58.043,24611,-0.00,1.42,2.09,0.0,-3.19,-4.70
22:05:58.144,24712,-0.00,1.42,2.09,0.0,-3.19,-4.70
22:05:58.244,24812,-0.00,1.42,2.09,0.0,-3.19,-4.70
22:05:58.469,25037,-0.00,1.42,2.09,0.0,-3.19,-4.70
22:05:58.569,25137,-0.00,1.42,2.09,0.0,-3.19,-4.70
22:05:58.670,25238,-0.00,1.42,2.09,0.0,-3.19,-4.70
22:05:58.770,25338,-0.00,1.42,2.09,0.0,-3.19,-4.70
22:05:58.869,25437,-0.00,1.42,2.09,0.0,-3.19,-4.70
22:05:58.975,25543,-0.00,1.42,2.09,0.0,-3.19,-4.70
22:05:59.079,25647,-0.00,1.42,2.09,0.0,-3.19,-4.69
22:05:59.180,25748,-0.01,1.42,2.10,0.0,-3.19,-4.76
22:05:59.279,25847,-0.01,1.43,2.10,0.0,-3.21,-4.82
22:05:59.380,25948,-0.01,1.43,2.10,0.0,-3.21,-4.70
22:05:59.485,26054,-0.00,1.43,2.10,0.0,-3.15,-4.83
22:05:59.585,26153,0.01,1.43,2.10,0.0,-3.21,-4.78
22:05:59.685,26253,0.02,1.43,2.12,0.0,-3.26,-4.76
22:05:59.791,26359,0.02,1.43,2.11,0.0,-3.16,-4.69
22:05:59.890,26458,0.01,1.43,2.11,0.0,-3.26,-4.74
22:05:59.990,26558,0.02,1.44,2.11,0.0,-3.22,-4.73
22:06:00.091,26659,0.03,1.44,2.11,0.0,-3.23,-4.74
22:06:00.195,26763,0.03,1.44,2.11,0.0,-3.23,-4.74
22:06:00.300,26869,0.03,1.44,2.11,0.0,-3.23,-4.74
22:06:00.401,26969,0.03,1.44,2.11,0.0,-3.23,-4.74
22:06:00.500,27068,0.03,1.44,2.11,0.0,-3.23,-4.74
22:06:00.601,27169,0.03,1.44,2.11,0.0,-3.23,-4.74
22:06:00.706,27274,0.03,1.44,2.11,0.0,-3.23,-4.74
22:06:00.807,27375,0.03,1.44,2.11,0.0,-3.23,-4.74
22:06:00.906,27474,0.03,1.44,2.11,0.0,-3.23,-4.74
22:06:01.011,27579,0.03,1.44,2.11,0.0,-3.23,-4.74
22:06:01.112,27680,0.03,1.44,2.11,0.0,-3.23,-4.74
22:06:01.212,27780,0.03,1.45,2.11,0.0,-3.36,-4.67
22:06:01.311,27879,0.02,1.45,2.10,0.0,-3.25,-4.71
22:06:01.412,27980,0.02,1.45,2.10,0.0,-3.30,-4.77
22:06:01.516,28084,0.01,1.45,2.10,0.0,-3.25,-4.66
22:06:01.622,28190,0.02,1.45,2.10,0.0,-3.36,-4.70
22:06:01.722,28290,0.02,1.45,2.09,0.0,-3.31,-4.64
22:06:01.821,28390,0.02,1.45,2.09,0.0,-3.26,-4.68
22:06:01.922,28490,0.03,1.45,2.09,0.0,-3.30,-4.63
22:06:02.027,28595,0.04,1.45,2.08,0.0,-3.32,-4.62
22:06:02.128,28696,0.04,1.45,2.08,0.0,-3.26,-4.67
22:06:02.232,28800,0.03,1.46,2.08,0.0,-3.27,-4.67
22:06:02.332,28900,0.03,1.46,2.08,0.0,-3.27,-4.67
22:06:02.433,29001,0.03,1.46,2.08,0.0,-3.27,-4.67
22:06:02.538,29106,0.03,1.46,2.08,0.0,-3.27,-4.67
22:06:02.638,29206,0.03,1.46,2.08,0.0,-3.27,-4.67
22:06:02.738,29306,0.04,1.46,2.08,0.0,-3.28,-4.73
22:06:02.838,29406,0.04,1.46,2.08,0.0,-3.29,-4.73
22:06:02.943,29511,0.05,1.46,2.10,0.0,-3.27,-4.65
22:06:03.043,29611,0.05,1.45,2.08,0.0,-3.26,-4.63
22:06:03.143,29711,0.04,1.45,2.08,0.0,-3.19,-4.68
22:06:03.243,29811,0.05,1.44,2.08,0.0,-3.29,-4.66
22:06:03.348,29916,0.06,1.45,2.07,0.0,-3.31,-4.60
22:06:03.448,30016,0.05,1.45,2.07,0.0,-3.26,-4.59
22:06:03.548,30116,0.04,1.46,2.07,0.0,-3.28,-4.64
22:06:03.648,30216,0.05,1.46,2.07,0.0,-3.27,-4.65
22:06:18.575,45143,0.00,1.45,2.08,0.0,-3.26,-4.67
22:06:18.674,45242,0.00,1.45,2.08,0.0,-3.26,-4.67
22:06:18.775,45343,0.00,1.45,2.08,0.0,-3.26,-4.67
22:06:18.875,45443,0.00,1.45,2.08,0.0,-3.26,-4.61
22:06:18.980,45548,0.01,1.45,2.07,0.0,-3.26,-4.65
22:06:19.080,45648,0.02,1.45,2.07,0.0,-3.25,-4.65
22:06:19.180,45748,0.02,1.45,2.07,0.0,-3.25,-4.60
22:06:19.280,45848,0.02,1.45,2.07,0.0,-3.30,-4.58
22:06:19.380,45948,0.02,1.45,2.06,0.0,-3.25,-4.57
22:06:19.485,46053,0.02,1.44,2.06,0.0,-3.24,-4.56
22:06:19.586,46154,0.03,1.44,2.05,0.0,-3.24,-4.55
22:06:19.686,46254,0.05,1.44,2.04,0.0,-3.23,-4.59
22:06:19.785,46353,0.06,1.44,2.05,0.0,-3.23,-4.71
22:06:19.891,46459,0.07,1.44,2.05,0.0,-3.23,-4.55
22:06:19.991,46559,0.07,1.44,2.05,0.0,-3.28,-4.54
22:06:20.095,46663,0.07,1.44,2.04,0.0,-3.12,-4.53
22:06:20.196,46764,0.07,1.43,2.04,0.0,-3.16,-4.53
22:06:20.296,46864,0.08,1.43,2.04,0.0,-3.20,-4.53
22:06:20.396,46964,0.08,1.42,2.04,0.0,-3.25,-4.51
22:06:20.501,47069,0.08,1.42,2.04,0.0,-3.18,-4.52
22:06:20.606,47174,0.08,1.41,2.04,0.0,-3.12,-4.53
22:06:20.706,47274,0.08,1.41,2.03,0.0,-3.18,-4.61
22:06:20.807,47375,0.09,1.42,2.03,0.0,-3.14,-4.50
22:06:20.912,47480,0.09,1.42,2.03,0.0,-3.19,-4.55
22:06:21.012,47580,0.09,1.42,2.03,0.0,-3.19,-4.55
22:06:21.111,47679,0.09,1.42,2.03,0.0,-3.19,-4.55
22:06:21.216,47784,0.09,1.42,2.03,0.0,-3.19,-4.55
22:06:21.317,47885,0.09,1.42,2.03,0.0,-3.19,-4.55
22:06:21.421,47989,0.09,1.42,2.03,0.0,-3.19,-4.55
22:06:21.526,48094,0.09,1.42,2.03,0.0,-3.19,-4.55
22:06:21.627,48195,0.09,1.42,2.03,0.0,-3.19,-4.55
22:06:21.726,48294,0.09,1.42,2.03,0.0,-3.19,-4.55
22:06:21.826,48394,0.09,1.42,2.03,0.0,-3.19,-4.55
22:06:21.932,48500,0.09,1.42,2.03,0.0,-3.19,-4.55
22:06:22.032,48600,0.09,1.42,2.03,0.0,-3.19,-4.55
22:06:22.137,48705,0.09,1.42,2.03,0.0,-3.19,-4.55
22:06:22.237,48805,0.09,1.42,2.03,0.0,-3.19,-4.55
22:06:22.337,48905,0.09,1.42,2.03,0.0,-3.19,-4.55
22:06:22.442,49010,0.09,1.42,2.03,0.0,-3.19,-4.55
22:06:22.548,49116,0.09,1.42,2.03,0.0,-3.19,-4.55
22:06:22.647,49216,0.09,1.42,2.03,0.0,-3.19,-4.55
22:06:22.747,49316,0.09,1.42,2.03,0.0,-3.19,-4.55
22:06:22.847,49415,0.09,1.42,2.03,0.0,-3.19,-4.55
22:06:22.952,49520,0.09,1.42,2.03,0.0,-3.19,-4.55
22:06:23.052,49620,0.09,1.42,2.03,0.0,-3.19,-4.55
22:06:23.158,49726,0.09,1.42,2.03,0.0,-3.19,-4.55
22:06:23.257,49825,0.09,1.42,2.03,0.0,-3.19,-4.55
22:06:23.363,49931,0.09,1.42,2.03,0.0,-3.19,-4.55
22:06:23.463,50031,0.09,1.42,2.03,0.0,-3.19,-4.55
22:06:23.563,50131,0.09,1.42,2.03,0.0,-3.19,-4.55
22:06:23.668,50236,0.09,1.42,2.03,0.0,-3.19,-4.55
22:06:23.768,50336,0.09,1.42,2.03,0.0,-3.19,-4.55
22:06:23.873,50441,0.09,1.42,2.03,0.0,-3.19,-4.55
22:06:23.973,50541,0.09,1.42,2.03,0.0,-3.19,-4.55
22:06:24.073,50641,0.09,1.42,2.03,0.0,-3.19,-4.55
22:06:24.178,50746,0.09,1.42,2.03,0.0,-3.19,-4.55
22:06:24.278,50846,0.09,1.42,2.03,0.0,-3.19,-4.55
22:06:24.384,50952,0.09,1.42,2.03,0.0,-3.19,-4.55
22:06:24.484,51052,0.09,1.42,2.03,0.0,-3.19,-4.55
22:06:24.589,51157,0.09,1.42,2.03,0.0,-3.19,-4.55
22:06:24.689,51257,0.09,1.42,2.03,0.0,-3.19,-4.55
22:06:24.788,51357,0.09,1.42,2.03,0.0,-3.19,-4.55
22:06:24.895,51463,0.09,1.42,2.03,0.0,-3.19,-4.55
22:06:24.994,51562,0.09,1.42,2.03,0.0,-3.19,-4.55
22:06:25.094,51662,0.09,1.42,2.03,0.0,-3.19,-4.55
22:06:25.194,51762,0.09,1.42,2.03,0.0,-3.19,-4.55
22:06:25.299,51867,0.09,1.42,2.03,0.0,-3.19,-4.55
22:06:25.399,51967,0.09,1.42,2.03,0.0,-3.19,-4.55
22:06:25.499,52067,0.09,1.42,2.03,0.0,-3.19,-4.55
22:06:25.599,52167,0.09,1.42,2.03,0.0,-3.19,-4.55
22:06:25.704,52272,0.09,1.42,2.03,0.0,-3.19,-4.55
22:06:25.804,52372,0.09,1.42,2.03,0.0,-3.19,-4.55
22:06:25.904,52472,0.09,1.42,2.03,0.0,-3.19,-4.55
22:06:26.005,52573,0.09,1.42,2.03,0.0,-3.19,-4.55
22:06:26.110,52678,0.09,1.42,2.03,0.0,-3.19,-4.55
22:06:26.209,52777,0.09,1.42,2.03,0.0,-3.19,-4.55
22:06:26.310,52878,0.09,1.42,2.03,0.0,-3.19,-4.55
22:06:26.410,52978,0.09,1.42,2.03,0.0,-3.19,-4.55
22:06:26.515,53083,0.09,1.42,2.03,0.0,-3.19,-4.55
22:06:26.615,53183,0.09,1.42,2.03,0.0,-3.19,-4.55
22:06:26.715,53283,0.09,1.42,2.03,0.0,-3.19,-4.55
22:06:26.819,53387,0.09,1.42,2.03,0.0,-3.19,-4.55
22:06:26.919,53487,0.09,1.42,2.03,0.0,-3.19,-4.55
22:06:27.025,53593,0.09,1.42,2.03,0.0,-3.19,-4.55
22:06:27.125,53693,0.09,1.42,2.03,0.0,-3.19,-4.55
22:06:27.225,53793,0.09,1.42,2.04,0.0,-3.25,-4.93
22:06:27.330,53898,0.11,1.42,2.10,0.0,-3.24,-4.98
22:06:27.435,54003,0.11,1.43,2.15,0.0,-3.31,-4.99
22:06:27.535,54103,0.12,1.42,2.17,0.0,-3.20,-4.97
22:06:27.635,54203,0.12,1.42,2.18,0.0,-3.20,-4.83
22:06:27.735,54303,0.12,1.42,2.18,0.0,-3.19,-4.94
22:06:27.840,54408,0.12,1.42,2.18,0.0,-3.19,-4.94
22:06:27.941,54509,0.13,1.41,2.19,0.0,-3.07,-4.90
22:06:28.045,54613,0.14,1.41,2.19,0.0,-3.16,-4.85
22:06:28.146,54714,0.13,1.41,2.19,0.0,-3.17,-4.97
22:06:28.250,54818,0.14,1.41,2.20,0.0,-3.17,-4.99
22:06:28.351,54919,0.15,1.41,2.20,0.0,-3.11,-4.94
22:06:28.456,55024,0.15,1.40,2.20,0.0,-3.16,-4.89
22:06:28.555,55123,0.16,1.40,2.20,0.0,-3.09,-4.93
22:06:28.655,55223,0.17,1.39,2.19,0.0,-3.19,-4.87
22:06:28.756,55324,0.17,1.40,2.19,0.0,-3.21,-4.85
22:06:28.856,55424,0.16,1.40,2.19,0.0,-3.16,-4.85
22:06:28.957,55525,0.16,1.40,2.19,0.0,-3.16,-4.90
22:06:29.057,55625,0.16,1.40,2.19,0.0,-3.16,-4.90
22:06:29.161,55730,0.16,1.40,2.19,0.0,-3.16,-4.90
22:06:29.261,55829,0.16,1.40,2.19,0.0,-3.16,-4.90
22:06:29.361,55929,0.16,1.40,2.19,0.0,-3.16,-4.90
22:06:29.466,56034,0.16,1.40,2.19,0.0,-3.16,-4.90
22:06:29.567,56135,0.16,1.41,2.19,0.0,-3.22,-4.96
22:06:29.672,56240,0.17,1.41,2.19,0.0,-3.11,-4.96
22:06:29.772,56340,0.18,1.41,2.19,0.0,-3.11,-4.91
22:06:29.871,56439,0.18,1.40,2.19,0.0,-3.20,-4.92
22:06:29.977,56545,0.19,1.40,2.19,0.0,-3.15,-4.87
22:06:30.077,56645,0.19,1.40,2.19,0.0,-3.21,-4.86
22:06:30.182,56750,0.19,1.40,2.19,0.0,-3.15,-4.91
22:06:30.287,56855,0.19,1.40,2.20,0.0,-3.16,-4.98
22:06:30.387,56955,0.20,1.40,2.19,0.0,-3.16,-4.81
22:06:30.487,57055,0.19,1.40,2.19,0.0,-3.20,-4.92
22:06:30.592,57160,0.19,1.40,2.19,0.0,-3.15,-4.91
22:06:30.693,57261,0.19,1.40,2.19,0.0,-3.15,-4.91
22:06:30.793,57361,0.19,1.40,2.19,0.0,-3.15,-4.91
22:06:30.892,57460,0.19,1.40,2.19,0.0,-3.15,-4.91
22:06:30.997,57565,0.19,1.40,2.19,0.0,-3.15,-4.91
22:06:31.097,57665,0.19,1.40,2.19,0.0,-3.15,-4.91
22:06:31.197,57765,0.19,1.40,2.19,0.0,-3.15,-4.91
22:06:31.303,57871,0.19,1.40,2.19,0.0,-3.15,-4.91
22:06:31.402,57970,0.19,1.40,2.19,0.0,-3.15,-4.91
22:06:31.503,58071,0.19,1.40,2.19,0.0,-3.15,-4.91
22:06:31.602,58170,0.19,1.40,2.19,0.0,-3.15,-4.91
22:06:31.703,58271,0.19,1.40,2.19,0.0,-3.15,-4.91
22:06:31.803,58371,0.19,1.40,2.19,0.0,-3.15,-4.91
22:06:31.908,58476,0.19,1.40,2.19,0.0,-3.15,-4.91
22:06:32.013,58581,0.19,1.40,2.19,0.0,-3.15,-4.91
22:06:32.113,58681,0.19,1.40,2.19,0.0,-3.15,-4.91
22:06:32.213,58781,0.19,1.40,2.19,0.0,-3.15,-4.91
22:06:32.313,58881,0.19,1.40,2.19,0.0,-3.15,-4.91
22:06:32.419,58987,0.19,1.40,2.19,0.0,-3.15,-4.91
22:06:32.519,59087,0.19,1.40,2.19,0.0,-3.15,-4.91
22:06:32.618,59186,0.19,1.40,2.19,0.0,-3.15,-4.91
22:06:32.719,59287,0.19,1.40,2.19,0.0,-3.15,-4.91
22:06:32.824,59392,0.19,1.40,2.19,0.0,-3.15,-4.91
22:06:32.924,59492,0.19,1.40,2.19,0.0,-3.15,-4.91
22:06:33.024,59592,0.19,1.40,2.19,0.0,-3.15,-4.91
22:06:33.129,59697,0.19,1.40,2.19,0.0,-3.15,-4.91
22:06:33.229,59797,0.19,1.40,2.19,0.0,-3.15,-4.91
22:06:33.333,59901,0.19,1.40,2.19,0.0,-3.15,-4.91
22:06:33.434,60002,0.19,1.40,2.19,0.0,-3.15,-4.91
22:06:33.538,60106,0.19,1.40,2.19,0.0,-3.15,-4.91
22:06:33.640,60208,0.19,1.40,2.19,0.0,-3.15,-4.91
22:06:33.739,60307,0.19,1.40,2.19,0.0,-3.15,-4.91
22:06:33.844,60412,0.19,1.40,2.19,0.0,-3.15,-4.91
22:06:33.944,60512,0.19,1.40,2.19,0.0,-3.15,-4.91
22:06:34.044,60612,0.19,1.40,2.19,0.0,-3.15,-4.91
22:06:34.144,60712,0.19,1.40,2.19,0.0,-3.15,-4.91
22:06:34.244,60812,0.19,1.40,2.19,0.0,-3.15,-4.91
22:06:34.344,60912,0.20,1.39,2.19,0.0,-3.02,-4.85
22:06:34.445,61013,0.18,1.39,2.18,0.0,-3.01,-4.67
22:06:34.545,61113,1.44,1.39,2.19,0.0,-3.17,-5.14
22:06:34.650,61218,8.00,1.39,2.26,0.0,-1.45,-4.69
22:06:34.751,61319,13.91,0.52,2.35,0.0,5.58,-7.20
22:06:34.850,61418,22.22,-1.17,2.14,0.0,12.55,-6.54
22:06:34.951,61519,32.94,-3.46,1.12,0.0,18.06,-5.14
22:06:35.050,61618,42.44,-4.45,0.18,0.0,7.27,-4.42
22:06:35.155,61723,45.18,-4.28,0.55,0.0,7.13,-5.57
22:06:35.256,61824,38.41,-3.74,0.09,0.0,7.69,3.63
22:06:35.355,61923,29.08,-2.77,-0.38,0.0,0.90,0.65
22:06:35.456,62024,18.43,-1.09,-0.03,0.0,-7.90,0.58
22:06:35.557,62125,7.04,0.83,0.14,0.0,-9.78,1.23
22:06:35.661,62229,-3.16,2.68,-0.14,0.0,-9.98,-0.27
22:06:35.762,62330,-11.62,2.40,-0.12,0.0,-1.60,1.35
22:06:35.861,62430,-19.55,1.43,-0.64,0.0,-0.20,4.24
22:06:35.961,62529,-27.12,1.20,-1.53,0.0,-7.59,7.23
22:06:36.061,62629,-33.53,1.70,-1.34,0.0,-3.41,-4.29
22:06:36.162,62730,-34.80,2.52,-0.77,0.0,-4.56,-4.46
22:06:36.267,62835,-28.85,2.88,-0.14,0.0,-9.02,-1.77
22:06:36.366,62934,-19.94,3.33,-0.35,0.0,-8.87,0.38
22:06:36.466,63034,-10.01,2.73,-0.53,0.0,-2.62,-0.08
22:06:36.567,63135,-1.02,1.95,-0.15,0.0,3.04,-1.54
22:06:36.672,63240,8.61,0.85,0.13,0.0,5.56,-0.67
22:06:36.778,63346,20.06,-0.49,-0.27,0.0,5.93,2.61
22:06:36.878,63446,31.40,-2.06,-1.10,0.0,11.86,1.76
22:06:36.977,63545,40.94,-3.17,-2.55,0.0,18.61,7.29
22:06:37.078,63646,50.45,-3.40,-4.10,0.0,10.72,6.44
22:06:37.183,63751,58.76,-3.58,-4.51,0.0,13.71,4.13
22:06:37.282,63850,63.27,-4.16,-4.67,0.0,15.61,1.60
22:06:37.387,63956,64.24,-4.42,-4.77,0.0,11.81,2.04
22:06:37.487,64055,58.32,-4.65,-4.89,0.0,17.39,6.33
22:06:37.588,64156,44.62,-3.24,-4.53,0.0,-2.58,9.39
22:06:37.688,64256,31.51,-0.90,-3.04,0.0,-4.10,5.85
22:06:37.789,64357,19.18,0.00,-2.63,0.0,-3.29,5.98
22:06:37.889,64457,7.08,1.24,-2.10,0.0,-8.65,3.03
22:06:37.994,64562,-5.12,2.77,-2.14,0.0,-14.86,5.68
22:06:38.093,64661,-15.93,3.22,-2.43,0.0,-1.91,4.81
22:06:38.198,64766,-27.38,2.50,-1.41,0.0,-6.83,0.44
22:06:38.298,64866,-37.23,3.06,-0.88,0.0,-4.39,-6.42
22:06:38.399,64967,-43.55,3.48,-0.15,0.0,-7.17,-4.28
22:06:38.504,65072,-48.17,4.40,0.18,0.0,-10.65,-7.82
22:06:38.709,65277,-44.56,4.51,-0.50,0.0,-6.27,1.79
22:06:38.809,65377,-37.14,3.55,-0.07,0.0,-3.86,-2.49
22:06:38.909,65477,-29.29,3.74,-0.79,0.0,-13.00,3.03
22:06:39.014,65582,-19.93,3.63,-1.46,0.0,-8.97,5.51
22:06:39.114,65682,-10.74,2.92,-1.79,0.0,-4.43,4.70
22:06:39.219,65787,-1.88,2.05,-1.61,0.0,-0.12,7.96
22:06:39.319,65887,9.02,1.47,-2.45,0.0,2.51,5.07
22:06:39.419,65987,17.49,1.08,-2.07,0.0,-2.16,0.43
22:06:39.524,66092,25.89,0.60,-1.56,0.0,1.75,2.81
22:06:39.625,66193,34.44,-0.42,-1.90,0.0,9.28,3.49
22:06:39.725,66293,41.62,-1.37,-2.78,0.0,11.84,6.10
22:06:39.825,66393,46.30,-2.02,-3.49,0.0,9.88,5.69
22:06:39.930,66498,48.91,-2.27,-3.81,0.0,8.13,4.30
22:06:40.030,66598,49.46,-2.39,-3.66,0.0,8.25,5.53
22:06:40.130,66698,47.36,-2.56,-3.37,0.0,9.83,2.84
22:06:40.230,66798,39.92,-2.54,-3.27,0.0,4.55,6.21
22:06:40.336,66904,26.92,-1.55,-2.69,0.0,-6.74,4.95
22:06:40.435,67003,14.22,1.38,-1.17,0.0,-14.70,2.46
22:06:40.540,67108,2.50,3.16,-1.00,0.0,-13.48,3.45
22:06:40.640,67208,-7.67,3.93,-1.76,0.0,-8.22,8.21
22:06:40.741,67309,-16.56,2.84,-1.55,0.0,2.25,-0.38
22:06:40.846,67414,-24.74,1.43,-0.22,0.0,4.36,-4.53
22:06:40.946,67514,-32.54,0.82,1.17,0.0,-0.71,-5.30
22:06:41.051,67619,-37.54,1.27,2.01,0.0,0.59,-11.45
22:06:41.150,67718,-39.92,1.90,2.75,0.0,-1.37,-9.95
22:06:41.255,67823,-38.49,1.69,2.68,0.0,-1.49,-3.83
22:06:41.355,67923,-34.94,1.01,1.91,0.0,1.70,0.65
22:06:41.461,68029,-33.79,0.90,1.83,0.0,-2.96,-1.30
22:06:41.561,68129,-31.48,0.99,1.67,0.0,-5.28,-4.74
22:06:41.661,68229,-28.95,1.32,1.51,0.0,-3.39,-3.08
22:06:41.765,68333,-23.32,1.48,0.81,0.0,-3.26,-1.19
22:06:41.867,68435,-18.04,1.85,1.36,0.0,-6.42,-10.73
22:06:41.966,68534,-14.86,2.53,1.95,0.0,-9.03,-8.60
22:06:42.066,68634,-9.38,2.11,2.48,0.0,-3.79,-6.66
22:06:42.166,68734,-4.65,2.10,2.47,0.0,-5.53,-6.62
22:06:42.267,68835,-0.38,2.20,2.71,0.0,-6.07,-4.88
22:06:42.371,68939,4.08,2.11,2.66,0.0,-4.95,-5.86
22:06:42.471,69039,5.05,2.10,2.85,0.0,-3.93,-7.61
22:06:42.572,69140,4.13,2.11,2.73,0.0,-5.47,-6.53
22:06:42.677,69245,-3.06,2.07,2.68,0.0,-4.11,-5.81
22:06:42.776,69344,-11.67,2.03,2.64,0.0,-3.83,-6.20
22:06:42.876,69444,-14.55,2.02,2.64,0.0,-3.70,-6.51
22:06:42.976,69544,-14.56,2.03,2.63,0.0,-3.77,-6.32
22:06:43.082,69650,-14.57,2.04,2.62,0.0,-3.85,-6.36
22:06:43.182,69750,-14.58,2.04,2.62,0.0,-3.80,-6.42
22:06:43.286,69854,-14.58,2.04,2.62,0.0,-3.85,-6.36
22:06:43.386,69954,-14.59,2.04,2.62,0.0,-3.85,-6.35
22:06:43.487,70055,-14.58,2.04,2.61,0.0,-3.80,-6.35
22:06:43.588,70156,-14.58,2.04,2.62,0.0,-3.80,-6.40
22:06:43.693,70261,-14.57,2.04,2.62,0.0,-3.73,-6.47
22:06:43.792,70360,-14.57,2.04,2.63,0.0,-3.84,-6.43
22:06:43.893,70461,-14.57,2.04,2.63,0.0,-3.80,-6.48
22:06:43.998,70566,-14.57,2.05,2.63,0.0,-3.86,-6.43
22:06:44.098,70666,-14.57,2.04,2.63,0.0,-3.80,-6.45
22:06:44.198,70766,-14.57,2.04,2.63,0.0,-3.80,-6.45
22:06:44.299,70867,-14.57,2.04,2.63,0.0,-3.80,-6.45
22:06:44.399,70968,-14.57,2.04,2.63,0.0,-3.80,-6.45
22:06:44.498,71066,-14.57,2.04,2.63,0.0,-3.80,-6.45
22:06:44.598,71166,-14.57,2.04,2.63,0.0,-3.80,-6.45
22:06:44.703,71271,-14.57,2.04,2.63,0.0,-3.80,-6.45
22:06:44.803,71371,-14.57,2.04,2.63,0.0,-3.80,-6.45
22:06:44.903,71471,-14.57,2.04,2.63,0.0,-3.80,-6.45
22:06:45.003,71571,-14.57,2.04,2.63,0.0,-3.80,-6.45
22:06:45.104,71672,-14.57,2.04,2.63,0.0,-3.80,-6.45
22:06:45.203,71771,-14.57,2.04,2.63,0.0,-3.80,-6.45
22:06:45.309,71877,-14.57,2.04,2.63,0.0,-3.80,-6.45
22:06:45.409,71977,-14.57,2.04,2.63,0.0,-3.80,-6.45
22:06:45.509,72077,-14.57,2.04,2.63,0.0,-3.80,-6.45
22:06:45.614,72182,-14.57,2.04,2.63,0.0,-3.80,-6.45
22:06:45.714,72282,-14.57,2.04,2.63,0.0,-3.80,-6.45
22:06:45.815,72383,-14.57,2.04,2.63,0.0,-3.80,-6.45
22:06:45.919,72487,-14.57,2.04,2.63,0.0,-3.80,-6.45
22:06:46.024,72592,-14.57,2.04,2.63,0.0,-3.80,-6.45
22:06:46.125,72693,-14.57,2.04,2.63,0.0,-3.80,-6.45
22:06:46.225,72793,-14.57,2.04,2.63,0.0,-3.80,-6.45
22:06:46.330,72898,-14.57,2.04,2.63,0.0,-3.80,-6.45
22:06:46.429,72997,-14.57,2.04,2.63,0.0,-3.80,-6.45
22:06:46.535,73103,-14.57,2.04,2.63,0.0,-3.80,-6.45
22:06:46.635,73203,-14.57,2.04,2.63,0.0,-3.80,-6.45
22:06:46.747,73315,-14.57,2.04,2.63,0.0,-3.80,-6.45
22:06:46.839,73408,-14.57,2.04,2.63,0.0,-3.80,-6.45
22:06:46.940,73508,-14.57,2.04,2.63,0.0,-3.80,-6.45
22:06:47.040,73608,-14.57,2.04,2.63,0.0,-3.80,-6.45
22:06:47.145,73713,-14.57,2.04,2.63,0.0,-3.80,-6.45
22:06:47.246,73814,-14.57,2.04,2.63,0.0,-3.80,-6.45
22:06:47.345,73913,-14.57,2.04,2.63,0.0,-3.80,-6.45
22:06:47.445,74013,-14.57,2.04,2.63,0.0,-3.80,-6.45
22:06:47.546,74114,-14.57,2.04,2.63,0.0,-3.80,-6.45
22:06:47.650,74218,-14.57,2.04,2.63,0.0,-3.80,-6.45
22:06:47.751,74319,-14.57,2.04,2.63,0.0,-3.80,-6.45
22:06:47.850,74418,-14.57,2.04,2.63,0.0,-3.80,-6.45
22:06:47.956,74524,-14.57,2.04,2.63,0.0,-3.80,-6.45
22:06:48.056,74624,-14.57,2.04,2.63,0.0,-3.80,-6.45
22:06:48.156,74724,-14.57,2.04,2.63,0.0,-3.80,-6.45
22:06:48.261,74829,-14.57,2.04,2.63,0.0,-3.80,-6.45
22:06:48.361,74929,-14.57,2.04,2.63,0.0,-3.80,-6.45
22:06:48.466,75034,-14.57,2.04,2.63,0.0,-3.80,-6.45
22:06:48.571,75139,-14.57,2.04,2.63,0.0,-3.80,-6.45
22:06:48.672,75240,-14.57,2.04,2.63,0.0,-3.80,-6.45
22:06:48.772,75340,-14.57,2.04,2.63,0.0,-3.80,-6.45
22:06:48.871,75439,-14.57,2.04,2.63,0.0,-3.80,-6.45
22:06:48.977,75545,-14.57,2.04,2.63,0.0,-3.80,-6.45
22:06:49.076,75644,-14.57,2.04,2.63,0.0,-3.80,-6.45
22:06:49.177,75745,-14.57,2.04,2.63,0.0,-3.80,-6.45
22:06:49.282,75850,-14.57,2.04,2.63,0.0,-3.80,-6.45
22:06:49.382,75950,-14.57,2.04,2.63,0.0,-3.80,-6.45
22:06:49.487,76055,-14.57,2.04,2.63,0.0,-3.80,-6.45
22:06:49.587,76155,-14.57,2.04,2.63,0.0,-3.80,-6.45
22:06:49.693,76261,-14.57,2.04,2.63,0.0,-3.80,-6.45
22:06:49.792,76360,-14.57,2.04,2.63,0.0,-3.80,-6.45
22:06:49.897,76465,-14.57,2.04,2.63,0.0,-3.80,-6.45
22:06:49.997,76565,-14.57,2.04,2.63,0.0,-3.80,-6.45
22:06:50.098,76666,-14.57,2.04,2.63,0.0,-3.80,-6.45
22:06:50.202,76770,-14.57,2.04,2.63,0.0,-3.80,-6.45
22:06:50.303,76871,-14.57,2.04,2.63,0.0,-3.80,-6.45
22:06:50.407,76975,-14.57,2.04,2.63,0.0,-3.80,-6.45
22:06:50.507,77075,-14.57,2.04,2.63,0.0,-3.80,-6.45
22:06:50.608,77176,-14.57,2.04,2.63,0.0,-3.80,-6.45
22:06:50.708,77276,-14.57,2.04,2.63,0.0,-3.80,-6.45
22:06:50.807,77375,-14.57,2.04,2.63,0.0,-3.80,-6.45
22:06:50.908,77476,-14.57,2.04,2.63,0.0,-3.80,-6.45
22:06:51.008,77576,-14.57,2.04,2.63,0.0,-3.80,-6.45
22:06:51.108,77676,-14.57,2.04,2.63,0.0,-3.80,-6.45
22:06:51.217,77785,-14.57,2.04,2.63,0.0,-3.80,-6.45
22:06:51.318,77886,-15.69,2.05,2.64,0.0,-3.65,-6.28
22:06:51.418,77986,-21.45,1.66,2.34,0.0,0.53,-0.12
22:06:51.523,78091,-36.64,0.56,3.78,0.0,11.07,-18.35
22:06:51.622,78190,-47.59,0.35,6.21,0.0,9.42,-21.49
22:06:51.729,78297,-55.95,1.13,8.28,0.0,11.90,-24.49
22:06:51.828,78396,-53.24,1.38,8.81,0.0,1.40,-14.46
22:06:51.929,78497,-38.90,1.12,6.49,0.0,-3.52,0.99
22:06:52.028,78596,-22.52,0.02,3.07,0.0,-0.50,8.51
22:06:52.129,78697,-10.22,0.49,0.22,0.0,-8.44,7.32
22:06:52.234,78802,1.07,1.35,-1.13,0.0,-6.85,7.53
22:06:52.334,78902,11.91,1.03,-2.35,0.0,4.58,9.13
22:06:52.434,79002,19.18,0.41,-2.94,0.0,-1.98,6.97
22:06:52.539,79107,23.18,1.19,-2.74,0.0,-6.29,5.51
22:06:52.639,79207,26.70,1.91,-2.32,0.0,-4.23,6.63
22:06:52.739,79307,26.74,1.70,-2.29,0.0,0.95,2.36
22:06:52.844,79412,17.92,0.67,-1.58,0.0,1.90,-1.85
22:06:52.945,79513,-0.85,0.49,2.48,0.0,-4.76,-25.76
22:06:53.045,79613,-19.21,1.67,5.29,0.0,-4.87,-22.35
22:06:53.149,79717,-34.85,2.76,6.60,0.0,-2.74,-24.09
22:06:53.250,79818,-48.01,3.16,7.32,0.0,3.06,-23.34
22:06:53.354,79922,-57.39,3.56,8.61,0.0,6.44,-25.77
22:06:53.455,80023,-59.78,3.87,9.09,0.0,0.44,-20.50
22:06:53.559,80127,-51.83,2.51,7.02,0.0,-0.70,-0.49
22:06:53.659,80227,-37.65,0.84,3.95,0.0,-6.68,4.01
22:06:53.760,80328,-20.29,1.45,0.35,0.0,-13.77,9.04
22:06:53.964,80532,1.43,1.84,-3.87,0.0,0.78,15.47
22:06:54.065,80633,2.36,1.63,-4.52,0.0,-4.29,10.47
22:06:54.170,80738,0.54,1.84,-3.96,0.0,-3.65,3.43
22:06:54.269,80837,0.25,1.18,-3.11,0.0,1.96,4.61
22:06:54.375,80943,0.87,0.55,-2.75,0.0,-1.18,4.50
22:06:54.476,81044,0.99,0.94,-2.09,0.0,-7.18,-0.83
22:06:54.575,81143,-0.77,2.14,-0.21,0.0,-9.77,-9.31
22:06:54.681,81249,-1.68,2.83,1.32,0.0,-6.68,-6.00
22:06:54.780,81348,-0.73,2.85,1.37,0.0,-4.48,-0.05
22:06:54.885,81453,-0.64,2.42,1.82,0.0,-0.99,-8.85
22:06:54.986,81554,0.04,1.97,1.91,0.0,-3.69,-3.91
22:06:55.091,81659,-0.77,1.63,2.30,0.0,-1.78,-4.40
22:06:55.191,81759,-0.39,1.44,2.21,0.0,-3.23,-4.65
22:06:55.291,81859,-3.85,1.51,2.16,0.0,-3.65,-5.18
22:06:55.396,81964,-9.59,1.52,2.16,0.0,-2.74,-4.81
22:06:55.496,82064,-9.99,1.51,2.16,0.0,-2.89,-5.07
22:06:55.595,82163,-9.98,1.50,2.16,0.0,-2.82,-4.97
22:06:55.700,82268,-9.98,1.49,2.16,0.0,-2.92,-5.08
22:06:55.801,82369,-9.98,1.49,2.16,0.0,-2.92,-5.12
22:06:55.906,82474,-9.98,1.49,2.16,0.0,-2.96,-5.12
22:06:56.011,82579,-9.97,1.48,2.17,0.0,-2.90,-5.19
22:06:56.112,82680,-9.98,1.49,2.16,0.0,-2.96,-5.02
22:06:56.216,82784,-9.97,1.49,2.16,0.0,-2.85,-5.12
22:06:56.316,82884,-9.96,1.49,2.16,0.0,-2.90,-5.17
22:06:56.416,82984,-9.95,1.49,2.16,0.0,-2.85,-5.11
22:06:56.517,83085,-9.95,1.49,2.15,0.0,-2.96,-5.15
22:06:56.616,83184,-9.95,1.49,2.15,0.0,-2.86,-5.05
22:06:56.722,83290,-9.94,1.48,2.15,0.0,-2.95,-5.09
22:06:56.822,83390,-9.94,1.49,2.16,0.0,-2.85,-5.06
22:06:56.926,83494,-9.94,1.48,2.15,0.0,-2.84,-5.15
22:06:57.032,83600,-9.93,1.48,2.16,0.0,-2.94,-5.12
22:06:57.131,83699,-9.95,1.49,2.17,0.0,-2.90,-5.19
22:06:57.237,83805,-9.95,1.49,2.17,0.0,-2.96,-5.09
22:06:57.337,83905,-9.96,1.49,2.17,0.0,-2.85,-5.03
22:06:57.437,84005,-9.96,1.48,2.16,0.0,-2.90,-5.12
22:06:57.538,84106,-9.96,1.48,2.16,0.0,-2.90,-5.12
22:06:57.638,84206,-9.96,1.48,2.16,0.0,-2.90,-5.12
22:06:57.738,84306,-9.96,1.48,2.16,0.0,-2.90,-5.12
22:06:57.842,84410,-9.96,1.48,2.16,0.0,-2.90,-5.12
22:06:57.943,84511,-9.96,1.48,2.16,0.0,-2.90,-5.12
22:06:58.042,84610,-9.96,1.48,2.16,0.0,-2.90,-5.12
22:06:58.148,84716,-9.96,1.48,2.16,0.0,-2.90,-5.12
22:06:58.247,84815,-9.96,1.48,2.16,0.0,-2.90,-5.12
22:06:58.348,84916,-9.96,1.48,2.16,0.0,-2.90,-5.12
22:06:58.447,85015,-9.96,1.48,2.16,0.0,-2.90,-5.12
22:06:58.548,85116,-9.96,1.48,2.16,0.0,-2.90,-5.12
22:06:58.658,85226,-9.96,1.48,2.16,0.0,-2.90,-5.12
22:06:58.758,85326,-9.96,1.48,2.16,0.0,-2.90,-5.12
22:06:58.858,85426,-9.96,1.48,2.16,0.0,-2.90,-5.12
22:06:58.959,85527,-9.96,1.48,2.16,0.0,-2.90,-5.12
22:06:59.059,85627,-9.96,1.48,2.16,0.0,-2.90,-5.12
22:06:59.163,85731,-9.96,1.48,2.16,0.0,-2.90,-5.12
22:06:59.268,85836,-9.96,1.48,2.16,0.0,-2.90,-5.12
22:06:59.369,85937,-9.96,1.48,2.16,0.0,-2.90,-5.12
22:06:59.474,86042,-9.96,1.48,2.16,0.0,-2.94,-5.18
22:06:59.579,86147,-9.97,1.49,2.16,0.0,-2.96,-5.12
22:06:59.679,86247,-9.97,1.49,2.16,0.0,-2.92,-5.12
22:06:59.779,86347,-9.97,1.49,2.16,0.0,-2.86,-5.07
22:06:59.878,86446,-9.96,1.49,2.16,0.0,-2.92,-5.07
22:06:59.979,86547,-9.96,1.49,2.16,0.0,-2.90,-5.13
22:07:00.079,86647,-9.96,1.49,2.17,0.0,-2.85,-5.19
22:07:00.179,86747,-9.96,1.48,2.17,0.0,-2.90,-5.14
22:07:00.280,86848,-9.95,1.48,2.17,0.0,-2.89,-5.15
22:07:00.384,86952,-9.95,1.47,2.18,0.0,-2.82,-5.15
22:07:00.489,87057,-9.95,1.47,2.18,0.0,-2.87,-5.15
22:07:00.590,87158,-9.95,1.47,2.18,0.0,-2.87,-5.15
22:07:00.690,87258,-9.95,1.47,2.18,0.0,-2.87,-5.15
22:07:00.791,87359,-9.95,1.47,2.18,0.0,-2.87,-5.15
22:07:00.895,87463,-9.95,1.47,2.18,0.0,-2.87,-5.15
22:07:00.995,87563,-9.95,1.47,2.18,0.0,-2.87,-5.15
22:07:01.101,87669,-9.95,1.47,2.18,0.0,-2.87,-5.15
22:07:01.201,87769,-9.95,1.47,2.18,0.0,-2.87,-5.15
22:07:01.306,87874,-9.95,1.47,2.18,0.0,-2.87,-5.15
22:07:01.406,87974,-9.95,1.47,2.18,0.0,-2.87,-5.15
22:07:01.506,88074,-9.95,1.47,2.18,0.0,-2.87,-5.15
22:07:01.610,88178,-9.95,1.47,2.18,0.0,-2.87,-5.15
22:07:01.711,88279,-9.95,1.47,2.18,0.0,-2.87,-5.15
22:07:01.816,88384,-9.95,1.47,2.18,0.0,-2.87,-5.15
22:07:01.916,88484,-9.95,1.47,2.18,0.0,-2.87,-5.15
22:07:02.021,88589,-9.95,1.47,2.18,0.0,-2.87,-5.15
22:07:02.121,88689,-9.95,1.47,2.18,0.0,-2.87,-5.15
22:07:02.221,88789,-9.95,1.47,2.18,0.0,-2.87,-5.15
22:07:02.327,88895,-9.95,1.47,2.18,0.0,-2.87,-5.15
22:07:02.427,88995,-9.95,1.47,2.18,0.0,-2.87,-5.15
22:07:02.532,89100,-9.95,1.47,2.18,0.0,-2.87,-5.15
22:07:02.631,89199,-7.67,1.46,2.23,0.0,-3.73,-2.31
22:07:02.732,89300,-2.29,1.58,2.23,0.0,-2.88,-5.50
22:07:02.837,89405,1.41,1.53,2.20,0.0,-3.75,-5.22
22:07:02.942,89510,1.54,1.53,2.20,0.0,-3.51,-4.73
22:07:03.042,89610,-6.17,1.55,2.20,0.0,-2.14,-4.38
22:07:03.142,89710,-12.38,1.48,2.18,0.0,-3.21,-5.64
22:07:03.247,89815,-12.37,1.48,2.18,0.0,-3.04,-5.42
22:07:03.347,89915,-12.37,1.48,2.18,0.0,-2.87,-5.32
22:07:03.452,90020,-12.38,1.49,2.18,0.0,-2.79,-5.17
22:07:03.552,90120,-13.36,1.61,2.22,0.0,-3.65,-5.37
22:07:03.657,90225,-5.61,1.71,2.29,0.0,-3.79,-5.68
22:07:03.757,90325,-1.45,1.75,2.32,0.0,-3.91,-5.10
22:07:03.857,90425,0.03,1.77,2.32,0.0,-4.66,-5.68
22:07:03.962,90530,-0.30,1.75,2.32,0.0,-3.96,-5.32
22:07:04.062,90630,-1.10,1.75,2.32,0.0,-3.82,-5.24
22:07:04.162,90730,-1.66,1.61,2.35,0.0,-3.70,-5.01
22:07:04.268,90836,-1.81,1.63,2.28,0.0,-2.85,-4.54
22:07:04.368,90936,-2.16,1.62,2.29,0.0,-3.44,-5.25
22:07:04.467,91035,-5.28,1.56,2.21,0.0,-2.65,-4.22
22:07:04.573,91141,-7.96,1.54,2.17,0.0,-3.16,-5.15
22:07:04.673,91241,-8.45,1.55,2.18,0.0,-3.22,-5.20
22:07:04.778,91346,-8.45,1.56,2.18,0.0,-3.14,-5.09
22:07:04.878,91446,-8.46,1.57,2.19,0.0,-3.10,-5.10
22:07:04.978,91546,-8.46,1.56,2.19,0.0,-3.14,-5.27
22:07:05.083,91651,-8.46,1.57,2.20,0.0,-3.10,-5.13
22:07:05.183,91751,-8.45,1.56,2.19,0.0,-3.13,-5.11
22:07:05.288,91856,-8.45,1.56,2.19,0.0,-3.08,-5.10
22:07:05.388,91956,-8.45,1.56,2.19,0.0,-3.07,-5.10
22:07:05.489,92057,-8.44,1.56,2.19,0.0,-3.12,-5.21
22:07:05.588,92156,-8.45,1.56,2.19,0.0,-3.18,-5.10
22:07:05.693,92261,-8.44,1.56,2.19,0.0,-3.18,-5.10
22:07:05.793,92361,-8.44,1.56,2.18,0.0,-3.12,-5.09
22:07:05.894,92462,-8.44,1.55,2.17,0.0,-3.12,-5.07
22:07:05.993,92562,-8.43,1.55,2.16,0.0,-3.11,-5.10
22:07:06.099,92667,-8.43,1.55,2.16,0.0,-3.11,-5.10
22:07:06.199,92767,-8.43,1.55,2.16,0.0,-3.11,-5.10
22:07:06.299,92867,-8.43,1.55,2.16,0.0,-3.11,-5.10
22:07:06.399,92967,-8.43,1.55,2.16,0.0,-3.11,-5.10
22:07:06.498,93066,-8.43,1.55,2.16,0.0,-3.11,-5.10
22:07:06.599,93167,-8.43,1.55,2.16,0.0,-3.11,-5.10
22:07:06.699,93267,-8.43,1.55,2.16,0.0,-3.11,-5.10
22:07:06.804,93372,-8.43,1.55,2.16,0.0,-3.11,-5.10
22:07:06.905,93473,-8.43,1.55,2.16,0.0,-3.11,-5.10
22:07:07.009,93577,-8.43,1.55,2.16,0.0,-3.11,-5.10
22:07:07.110,93678,-8.43,1.55,2.16,0.0,-3.11,-5.10
22:07:07.215,93783,-8.43,1.55,2.16,0.0,-3.11,-5.10
22:07:07.315,93883,-8.43,1.55,2.16,0.0,-3.11,-5.10
22:07:07.421,93989,-8.43,1.55,2.16,0.0,-3.11,-5.10
22:07:07.521,94089,-8.43,1.55,2.16,0.0,-3.11,-5.10
22:07:07.620,94188,-8.43,1.55,2.16,0.0,-3.11,-5.10
22:07:07.725,94293,-8.43,1.55,2.16,0.0,-3.11,-5.10
22:07:07.830,94398,-8.43,1.55,2.16,0.0,-3.11,-5.10
22:07:07.931,94499,-8.43,1.55,2.16,0.0,-3.11,-5.10
22:07:08.030,94598,-8.43,1.55,2.16,0.0,-3.11,-5.10
22:07:08.130,94698,-8.43,1.55,2.16,0.0,-3.11,-5.10
22:07:08.231,94799,-8.43,1.55,2.18,0.0,-3.11,-5.18
22:07:08.330,94898,-8.44,1.55,2.17,0.0,-3.17,-5.12
22:07:08.430,94998,-8.43,1.56,2.18,0.0,-3.12,-5.19
22:07:08.536,95104,-8.44,1.56,2.18,0.0,-3.12,-5.15
22:07:08.636,95204,-8.43,1.55,2.18,0.0,-3.12,-5.14
22:07:08.735,95303,-8.43,1.56,2.17,0.0,-3.07,-5.06
22:07:08.836,95404,-8.42,1.56,2.18,0.0,-3.12,-5.19
22:07:08.936,95504,-8.42,1.57,2.19,0.0,-3.15,-5.21
22:07:09.036,95604,-8.42,1.57,2.19,0.0,-3.21,-5.15
22:07:09.136,95704,-8.41,1.58,2.19,0.0,-3.17,-5.11
22:07:09.241,95809,-8.41,1.58,2.18,0.0,-3.17,-5.15
22:07:09.341,95909,-8.41,1.58,2.18,0.0,-3.17,-5.15
22:07:09.446,96014,-8.31,1.55,2.33,0.0,-2.61,-12.12
22:07:09.546,96114,-8.30,2.27,2.72,0.0,-20.23,-7.25
22:07:09.652,96220,-9.10,9.39,3.60,0.0,-26.40,-26.40
22:07:09.752,96320,-11.69,27.21,2.86,0.0,-26.40,-10.04
22:07:09.851,96419,-17.09,41.15,-5.21,0.0,-26.40,18.96
22:07:09.956,96524,-21.55,48.02,-12.01,0.0,-26.40,2.85
22:07:10.062,96630,-23.34,54.55,-13.52,0.0,-26.40,-3.60
22:07:10.162,96730,-21.83,50.78,-12.26,0.0,-26.40,13.46
22:07:10.262,96830,-13.50,29.63,-4.50,0.0,26.40,-2.71
22:07:10.367,96935,-10.37,5.79,1.80,0.0,26.40,-7.35
22:07:10.466,97034,-10.21,-7.77,3.62,0.0,26.40,0.11
22:07:10.567,97135,-10.43,-5.68,3.45,0.0,-3.89,-14.45
22:07:10.667,97235,-10.98,-3.08,4.72,0.0,4.68,-22.63
22:07:10.772,97340,-13.42,-1.90,10.91,0.0,16.67,-26.40
22:07:10.877,97445,-16.01,-0.16,22.59,0.0,8.15,-26.40
22:07:10.977,97545,-18.48,0.66,30.44,0.0,26.40,-26.40
22:07:11.077,97645,-20.17,-0.35,37.29,0.0,24.05,-26.40
22:07:11.182,97750,-20.19,2.30,41.72,0.0,0.14,-26.40
22:07:11.282,97850,-18.96,4.28,42.34,0.0,0.39,-26.40
22:07:11.387,97955,-19.50,3.57,36.48,0.0,-0.51,-26.40
22:07:11.487,98055,-16.57,2.20,24.63,0.0,-4.50,-7.55
22:07:11.587,98155,-13.79,-1.35,13.97,0.0,14.17,26.40
22:07:11.688,98256,-11.87,-5.44,-5.44,0.0,1.02,26.40
22:07:11.793,98361,-10.85,-4.59,-16.07,0.0,-1.35,26.40
22:07:11.897,98465,-7.54,-4.93,-19.98,0.0,10.22,26.40
22:07:11.998,98566,-6.14,-5.60,-22.00,0.0,10.05,26.40
22:07:12.198,98766,-13.27,-4.60,-9.32,0.0,17.30,-26.13
22:07:12.297,98865,-18.97,-3.07,4.73,0.0,24.61,-26.40
22:07:12.403,98971,-22.97,-1.50,18.58,0.0,26.40,-26.40
22:07:12.503,99071,-24.95,-0.96,24.73,0.0,14.58,-26.40
22:07:12.603,99171,-25.22,0.80,26.26,0.0,11.25,-26.40
22:07:12.703,99271,-22.29,-2.37,20.37,0.0,14.76,3.18
22:07:12.803,99371,-19.19,-3.69,10.91,0.0,-9.98,9.58
22:07:12.904,99472,-16.85,-1.83,3.29,0.0,-15.57,26.23
22:07:13.004,99572,-13.00,-2.09,-5.56,0.0,-7.76,26.40
22:07:13.108,99676,-9.57,-1.64,-14.65,0.0,-0.63,26.40
22:07:13.209,99777,-6.93,-1.50,-14.56,0.0,2.53,22.36
22:07:13.309,99877,-5.26,0.36,-8.85,0.0,-10.78,-12.55
22:07:13.414,99982,-4.61,3.14,0.96,0.0,-6.33,-26.40
22:07:13.514,100082,-4.02,3.35,11.08,0.0,-0.24,-26.40
22:07:13.619,100187,-3.90,2.75,18.00,0.0,-8.63,-26.40
22:07:13.719,100287,-5.98,2.27,24.52,0.0,16.80,-26.40
22:07:13.819,100387,-6.09,0.48,25.58,0.0,2.03,-26.40
22:07:13.924,100492,-4.53,-0.23,17.83,0.0,2.51,3.13
22:07:14.024,100592,-0.86,-3.89,6.04,0.0,24.64,26.40
22:07:14.129,100697,2.07,-5.72,-9.59,0.0,13.66,26.40
22:07:14.229,100797,2.41,-4.38,-15.70,0.0,3.68,26.40
22:07:14.330,100898,1.89,-2.40,-13.53,0.0,-4.05,13.08
22:07:14.429,100997,0.84,0.13,-6.57,0.0,-16.78,-26.40
22:07:14.629,101198,-0.05,4.01,10.64,0.0,-8.22,-26.40
22:07:14.735,101303,-0.88,2.86,12.06,0.0,0.05,-26.40
22:07:14.835,101403,-2.36,2.60,10.46,0.0,-1.33,-4.90
22:07:14.935,101503,-3.37,0.56,6.80,0.0,11.52,-12.29
22:07:15.135,101703,-4.04,-1.09,5.77,0.0,-1.48,-2.79
22:07:15.240,101808,-3.87,2.62,6.19,0.0,-22.31,-18.34
22:07:15.340,101908,-3.41,3.63,4.92,0.0,5.64,2.32
22:07:15.440,102008,-4.02,2.80,3.43,0.0,-10.16,-11.12
22:07:15.540,102108,-4.59,2.38,1.79,0.0,-2.80,13.80
22:07:15.640,102209,-5.36,2.49,-1.59,0.0,-9.06,26.40
22:07:15.740,102308,-5.13,1.95,-11.22,0.0,-13.29,26.40
22:07:15.840,102408,-5.85,2.38,-22.51,0.0,-12.07,26.40
22:07:15.945,102513,-7.78,2.32,-21.21,0.0,-0.47,1.14
22:07:52.851,139419,5.62,0.84,-5.95,0.0,-1.23,-12.68
22:07:52.852,139420,5.62,0.84,-5.95,0.0,-1.23,-12.68
22:07:52.852,139420,5.62,0.84,-5.95,0.0,-1.23,-12.68
22:07:52.853,139421,5.62,0.84,-5.95,0.0,-1.23,-12.68
22:07:52.853,139421,5.62,0.84,-5.95,0.0,-1.23,-12.68
22:07:52.950,139518,5.62,0.84,-5.95,0.0,-1.23,-12.68
22:07:53.051,139619,5.62,0.84,-5.95,0.0,-1.23,-12.68
22:07:53.151,139719,5.62,0.84,-5.95,0.0,-1.23,-12.68
22:07:53.252,139820,5.62,0.84,-5.95,0.0,-1.23,-12.68
22:07:53.352,139920,5.62,0.84,-5.95,0.0,-1.23,-12.68
22:07:53.452,140020,5.62,0.84,-5.95,0.0,-1.23,-12.68
22:07:53.552,140120,5.62,0.84,-5.95,0.0,-1.23,-12.68
22:07:53.657,140225,5.62,0.84,-5.95,0.0,-1.23,-12.68
22:07:53.752,140320,5.62,0.84,-5.95,0.0,-1.23,-12.68
22:07:53.852,140420,5.62,0.84,-5.95,0.0,-1.23,-12.68
22:07:53.957,140525,5.62,0.84,-5.95,0.0,-1.23,-12.68
22:07:54.058,140626,5.62,0.84,-5.95,0.0,-1.23,-12.68
22:07:54.163,140731,5.62,0.84,-5.95,0.0,-1.23,-12.68
22:07:54.263,140831,5.62,0.84,-5.95,0.0,-1.23,-12.68
22:07:54.363,140931,5.62,0.84,-5.95,0.0,-1.23,-12.68
22:07:54.462,141030,5.62,0.84,-5.95,0.0,-1.23,-12.68
22:07:54.563,141131,5.62,0.84,-5.95,0.0,-1.23,-12.68
22:07:54.664,141232,5.62,0.84,-5.95,0.0,-1.23,-12.68
22:07:54.763,141331,5.62,0.84,-5.95,0.0,-1.23,-12.68
22:07:54.863,141431,5.62,0.84,-5.95,0.0,-1.23,-12.68
22:07:54.964,141532,5.62,0.84,-5.95,0.0,-1.23,-12.68
22:07:55.068,141636,5.62,0.84,-5.95,0.0,-1.23,-12.68
22:07:55.168,141736,5.62,0.84,-5.95,0.0,-1.23,-12.68
22:07:55.274,141842,5.62,0.84,-5.95,0.0,-1.23,-12.68
22:07:55.373,141941,5.62,0.84,-5.95,0.0,-1.23,-12.68
22:07:55.474,142042,5.62,0.84,-5.95,0.0,-1.23,-12.68
22:07:55.573,142141,5.62,0.84,-5.95,0.0,-1.23,-12.68
22:07:55.674,142242,5.62,0.84,-5.95,0.0,-1.23,-12.68
22:07:55.774,142342,5.62,0.84,-5.95,0.0,-1.23,-12.68
22:07:55.878,142446,5.62,0.84,-5.95,0.0,-1.23,-12.68
22:07:55.979,142547,5.62,0.84,-5.95,0.0,-1.23,-12.68
22:07:56.078,142646,5.62,0.84,-5.95,0.0,-1.23,-12.68
22:07:56.179,142747,5.62,0.84,-5.95,0.0,-1.23,-12.68
22:07:56.279,142847,5.62,0.84,-5.95,0.0,-1.23,-12.68
22:07:56.379,142947,5.62,0.84,-5.95,0.0,-1.23,-12.68
22:07:56.484,143052,5.62,0.84,-5.95,0.0,-1.23,-12.68
22:07:56.584,143152,5.62,0.84,-5.95,0.0,-1.23,-12.68
22:07:56.689,143257,5.62,0.84,-5.95,0.0,-1.23,-12.68
22:07:56.790,143358,5.62,0.84,-5.95,0.0,-1.23,-12.68
22:07:56.894,143462,5.62,0.84,-5.95,0.0,-1.23,-12.68
22:07:56.995,143563,5.62,0.84,-5.95,0.0,-1.23,-12.68
22:07:57.095,143663,5.62,0.84,-5.95,0.0,-1.23,-12.68
22:07:57.200,143768,5.62,0.84,-5.95,0.0,-1.23,-12.68
22:07:57.300,143868,5.62,0.84,-5.95,0.0,-1.23,-12.68
22:07:57.400,143968,5.62,0.84,-5.95,0.0,-1.23,-12.68
22:07:57.500,144068,5.62,0.84,-5.95,0.0,-1.23,-12.68
22:07:57.605,144173,5.62,0.84,-5.95,0.0,-1.23,-12.68
22:07:57.705,144273,5.62,0.84,-5.95,0.0,-1.23,-12.68
22:07:57.906,144474,5.62,0.84,-5.95,0.0,-1.23,-12.68
22:07:58.006,144574,5.62,0.84,-5.95,0.0,-1.23,-12.68
22:07:58.112,144680,5.62,0.84,-5.95,0.0,-1.23,-12.68
22:07:58.308,144876,5.62,0.84,-5.95,0.0,-1.23,-12.68
22:07:58.413,144981,5.62,0.84,-5.95,0.0,-1.23,-12.68
22:07:58.514,145082,5.62,0.84,-5.95,0.0,-1.23,-12.68
22:07:58.613,145181,5.62,0.84,-5.95,0.0,-1.23,-12.68
22:07:58.716,145284,5.62,0.84,-5.95,0.0,-1.23,-12.68
22:07:58.816,145384,5.62,0.84,-5.95,0.0,-1.23,-12.68
22:07:58.920,145488,5.62,0.84,-5.95,0.0,-1.23,-12.68
22:07:59.020,145588,5.62,0.84,-5.95,0.0,-1.23,-12.68
22:07:59.227,145795,5.62,0.84,-5.95,0.0,-1.23,-12.68
22:07:59.327,145895,5.62,0.84,-5.95,0.0,-1.23,-12.68
22:07:59.432,146000,5.62,0.84,-5.95,0.0,-1.23,-12.68
22:07:59.638,146206,5.62,0.84,-5.95,0.0,-1.23,-12.68
22:07:59.739,146307,5.62,0.84,-5.95,0.0,-1.23,-12.68
22:07:59.838,146406,5.62,0.84,-5.95,0.0,-1.23,-12.68
22:08:00.041,146609,5.62,0.84,-5.95,0.0,-1.23,-12.68
22:08:00.141,146709,5.62,0.84,-5.95,0.0,-1.23,-12.68
22:08:00.241,146809,5.62,0.84,-5.95,0.0,-1.23,-12.68
22:08:00.346,146914,5.62,0.84,-5.95,0.0,-1.23,-12.68
22:08:00.548,147116,5.62,0.84,-5.95,0.0,-1.23,-12.68
22:08:00.647,147215,5.62,0.84,-5.95,0.0,-1.23,-12.68
22:08:00.748,147316,5.62,0.84,-5.95,0.0,-1.23,-12.68
22:08:00.955,147523,5.62,0.84,-5.95,0.0,-1.23,-12.68
22:08:01.054,147622,5.62,0.84,-5.95,0.0,-1.23,-12.68
22:08:01.155,147723,5.62,0.84,-5.95,0.0,-1.23,-12.68
22:08:01.361,147929,5.62,0.84,-5.95,0.0,-1.23,-12.68
22:08:01.466,148034,5.62,0.84,-5.95,0.0,-1.23,-12.68
22:08:01.566,148134,5.62,0.84,-5.95,0.0,-1.23,-12.68
22:08:01.773,148341,5.62,0.84,-5.95,0.0,-1.23,-12.68
22:08:01.873,148441,5.62,0.84,-5.95,0.0,-1.23,-12.68
22:08:01.978,148546,5.62,0.84,-5.95,0.0,-1.23,-12.68
22:08:02.184,148752,5.62,0.84,-5.95,0.0,-1.23,-12.68
22:08:02.285,148853,5.62,0.84,-5.95,0.0,-1.23,-12.68
22:08:02.385,148953,5.62,0.84,-5.95,0.0,-1.23,-12.68
22:08:02.485,149053,5.62,0.84,-5.95,0.0,-1.23,-12.68
22:08:02.686,149254,5.62,0.84,-5.95,0.0,-1.23,-12.68
22:08:02.787,149355,5.62,0.84,-5.95,0.0,-1.23,-12.68
22:08:02.887,149455,5.62,0.84,-5.95,0.0,-1.23,-12.68
22:08:02.987,149555,5.62,0.84,-5.95,0.0,-1.23,-12.68
22:08:03.188,149756,5.62,0.84,-5.95,0.0,-1.23,-12.68
22:08:03.289,149857,5.62,0.84,-5.95,0.0,-1.23,-12.68
22:08:03.388,149956,5.62,0.84,-5.95,0.0,-1.23,-12.68
22:08:03.494,150062,5.62,0.84,-5.95,0.0,-1.23,-12.68
22:08:03.695,150263,5.62,0.84,-5.95,0.0,-1.23,-12.68
22:08:03.800,150368,5.62,0.84,-5.95,0.0,-1.23,-12.68
22:08:03.900,150468,5.62,0.84,-5.95,0.0,-1.23,-12.68
22:08:04.005,150573,5.62,0.84,-5.95,0.0,-1.23,-12.68
22:08:04.207,150775,5.62,0.84,-5.95,0.0,-1.23,-12.68
22:08:04.307,150875,5.62,0.84,-5.95,0.0,-1.23,-12.68
22:08:04.407,150975,5.62,0.84,-5.95,0.0,-1.23,-12.68
22:08:04.507,151075,5.62,0.84,-5.95,0.0,-1.23,-12.68
22:08:04.613,151181,5.62,0.84,-5.95,0.0,-1.23,-12.68
22:08:04.712,151280,5.62,0.84,-5.95,0.0,-1.23,-12.68
22:08:04.914,151482,5.62,0.84,-5.95,0.0,-1.23,-12.68
22:08:05.019,151587,5.62,0.84,-5.95,0.0,-1.23,-12.68
22:08:05.119,151687,5.62,0.84,-5.95,0.0,-1.23,-12.68
22:08:05.219,151787,5.62,0.84,-5.95,0.0,-1.23,-12.68
22:08:05.320,151888,5.62,0.84,-5.95,0.0,-1.23,-12.68
22:08:11.628,158196,5.62,0.84,-5.95,0.0,-3.11,-4.77
22:08:11.728,158296,2.12,1.39,0.00,0.0,-3.11,-4.77
22:08:11.829,158397,2.12,1.39,0.00,0.0,-3.11,-4.77
22:08:11.933,158501,2.12,1.39,0.00,0.0,-3.11,-4.77
22:08:12.034,158602,2.12,1.39,0.01,0.0,-3.11,-4.71
22:08:12.134,158702,2.13,1.38,-0.00,0.0,-3.11,-4.89
22:08:12.239,158807,2.14,1.38,-0.00,0.0,-3.11,-4.85
22:08:12.339,158907,2.14,1.38,-0.00,0.0,-3.09,-4.81
22:08:12.439,159007,2.15,1.38,-0.00,0.0,-3.09,-4.83
22:08:12.539,159107,2.15,1.37,-0.00,0.0,-3.08,-4.83
22:08:12.639,159207,2.16,1.37,-0.00,0.0,-3.02,-4.89
22:08:12.745,159313,2.16,1.37,0.00,0.0,-3.13,-4.79
22:08:12.844,159412,2.15,1.38,0.00,0.0,-3.10,-4.78
22:08:12.945,159513,2.16,1.38,0.01,0.0,-3.10,-4.95
22:08:13.044,159612,2.15,1.38,0.01,0.0,-3.09,-4.84
22:08:13.149,159717,2.15,1.38,0.01,0.0,-3.09,-4.84
22:08:13.250,159818,2.15,1.38,0.01,0.0,-3.09,-4.84
22:08:13.350,159918,2.15,1.38,0.01,0.0,-3.09,-4.84
22:08:13.450,160018,2.15,1.38,0.01,0.0,-3.09,-4.84
22:08:13.550,160118,2.15,1.38,0.01,0.0,-3.09,-4.84
22:08:13.655,160223,2.15,1.38,0.01,0.0,-3.09,-4.84
22:08:13.755,160323,2.15,1.38,0.01,0.0,-3.09,-4.84
22:08:13.855,160423,2.15,1.38,0.01,0.0,-3.09,-4.84
22:08:13.955,160523,2.15,1.38,0.01,0.0,-3.09,-4.84
22:08:14.055,160623,2.15,1.38,0.01,0.0,-3.09,-4.84
22:08:14.155,160723,2.15,1.38,0.01,0.0,-3.09,-4.84
22:08:14.255,160823,2.15,1.38,0.01,0.0,-3.09,-4.84
22:08:14.361,160929,2.15,1.38,0.01,0.0,-3.09,-4.84
22:08:14.461,161029,2.15,1.38,0.01,0.0,-3.09,-4.84
22:08:14.565,161133,2.15,1.38,0.01,0.0,-3.09,-4.84
22:08:14.666,161234,2.15,1.38,0.01,0.0,-3.09,-4.84
22:08:14.771,161339,2.15,1.38,0.01,0.0,-3.09,-4.84
22:08:14.870,161438,2.15,1.38,0.01,0.0,-3.09,-4.84
22:08:14.971,161539,2.15,1.38,0.01,0.0,-3.09,-4.84
22:08:15.076,161644,2.15,1.38,0.01,0.0,-3.09,-4.84
22:08:15.176,161744,2.15,1.38,0.01,0.0,-3.09,-4.84
22:08:15.281,161849,2.15,1.38,0.01,0.0,-3.09,-4.84
22:08:15.381,161949,2.15,1.38,0.01,0.0,-3.09,-4.84
22:08:15.486,162054,2.15,1.38,0.01,0.0,-3.09,-4.84
22:08:15.586,162154,2.15,1.38,0.01,0.0,-3.09,-4.84
22:08:15.686,162254,2.15,1.38,0.01,0.0,-3.09,-4.84
22:08:15.791,162359,2.15,1.38,0.01,0.0,-3.09,-4.84
22:08:15.892,162460,2.15,1.38,0.01,0.0,-3.09,-4.84
22:08:15.992,162560,2.15,1.38,0.01,0.0,-3.09,-4.84
22:08:16.092,162660,2.15,1.38,0.01,0.0,-3.09,-4.84
22:08:16.192,162760,2.15,1.38,0.01,0.0,-3.09,-4.84
22:08:16.292,162860,2.15,1.38,0.01,0.0,-3.09,-4.84
22:08:16.392,162960,2.15,1.38,0.01,0.0,-3.09,-4.84
22:08:16.492,163060,2.15,1.38,0.01,0.0,-3.09,-4.84
22:08:16.592,163160,2.15,1.38,0.01,0.0,-3.09,-4.84
22:08:16.692,163260,2.15,1.38,0.01,0.0,-3.09,-4.84
22:08:16.792,163360,2.15,1.38,0.01,0.0,-3.09,-4.84
22:08:16.897,163465,2.15,1.38,0.01,0.0,-3.09,-4.84
22:08:16.997,163565,2.15,1.38,0.01,0.0,-3.09,-4.84
22:08:17.103,163671,2.15,1.38,0.01,0.0,-3.09,-4.84
22:08:17.203,163771,2.15,1.38,0.01,0.0,-3.09,-4.84
22:08:17.303,163871,2.26,1.52,-1.08,0.0,-3.36,-4.95
22:08:17.403,163971,2.24,1.50,-1.72,0.0,-4.13,-5.81
22:08:17.503,164071,2.26,1.51,-1.71,0.0,-2.47,-4.34
22:08:17.603,164171,2.24,1.47,-1.71,0.0,-2.65,-4.66
22:08:17.704,164272,2.23,1.46,-1.70,0.0,-3.25,-5.21
22:08:17.808,164376,2.24,1.46,-1.70,0.0,-3.15,-4.97
22:08:17.909,164477,2.23,1.45,-1.70,0.0,-2.97,-5.00
22:08:18.008,164576,2.21,1.43,-2.75,0.0,-2.98,-4.88
22:08:18.109,164677,2.18,1.41,-7.71,0.0,-2.61,-4.83
22:08:18.209,164777,2.17,1.35,-12.51,0.0,-2.28,-5.27
22:08:18.314,164882,2.15,1.33,-16.29,0.0,-2.07,-5.04
22:08:18.414,164982,2.11,1.26,-18.74,0.0,-2.07,-5.14
22:08:18.514,165082,2.10,1.25,-19.19,0.0,-1.97,-5.12
22:08:18.619,165187,2.09,1.22,-18.06,0.0,-1.71,-4.85
22:08:18.719,165287,2.13,1.27,-12.95,0.0,-3.14,-5.65
22:08:18.819,165387,2.13,1.29,-4.99,0.0,-2.75,-4.86
22:08:18.924,165492,2.11,1.29,0.89,0.0,-2.68,-4.62
22:08:19.025,165593,2.15,1.33,4.93,0.0,-3.14,-4.74
22:08:19.129,165697,2.16,1.33,6.32,0.0,-3.25,-4.72
22:08:19.235,165803,2.15,1.34,6.32,0.0,-3.26,-4.65
22:08:19.334,165902,2.14,1.33,2.92,0.0,-2.16,-3.88
22:08:19.435,166003,2.09,1.27,0.45,0.0,-3.09,-4.78
22:08:19.535,166103,2.21,1.42,0.38,0.0,-4.35,-5.90
22:08:19.640,166208,2.03,1.25,0.29,0.0,-0.77,-1.71
22:08:19.740,166308,0.37,0.65,0.86,0.0,0.80,18.31
22:08:19.840,166408,-7.00,0.25,0.55,0.0,4.74,26.40
22:08:19.940,166508,-20.35,-1.30,1.78,0.0,15.90,26.40
22:08:20.040,166608,-33.71,-2.90,5.36,0.0,17.04,26.40
22:08:20.140,166708,-42.79,-2.59,6.18,0.0,10.20,26.40
22:08:20.246,166814,-49.31,-2.18,6.27,0.0,13.91,26.40
22:08:20.345,166913,-48.13,-2.62,5.60,0.0,14.71,26.40
22:08:20.451,167019,-35.89,-4.99,3.31,0.0,14.46,8.86
22:08:20.550,167118,-19.36,-4.12,-1.73,0.0,-1.07,-26.40
22:08:20.655,167223,-3.14,-1.84,-6.94,0.0,5.80,-26.40
22:08:20.756,167324,6.51,0.37,-9.19,0.0,-6.41,-26.40
22:08:20.856,167424,11.24,2.30,-9.92,0.0,-5.47,-26.40
22:08:20.955,167523,14.98,3.77,-11.20,0.0,-10.60,-26.40
22:08:21.056,167624,17.55,7.10,-11.90,0.0,-26.40,-26.40
22:08:21.155,167724,11.24,15.57,-6.19,0.0,-26.40,15.67
22:08:21.255,167823,3.89,33.95,-5.62,0.0,-26.40,-2.74
22:08:21.356,167924,-1.32,50.50,-9.35,0.0,-26.40,2.85
22:08:21.460,168028,-5.41,56.34,-12.38,0.0,-26.40,-1.07
22:08:21.561,168129,-7.18,53.33,-13.91,0.0,-26.40,10.77
22:08:21.660,168228,-4.32,33.80,-7.89,0.0,26.40,8.12
22:08:21.766,168334,-2.55,9.68,-2.93,0.0,26.40,6.25
22:08:21.867,168435,-2.59,-11.03,-1.12,0.0,26.40,4.12
22:08:21.966,168534,-1.17,-18.19,-1.94,0.0,26.40,-5.41
22:08:22.066,168634,1.34,-20.21,-3.67,0.0,26.40,-7.84
22:08:22.167,168735,1.94,-17.75,-4.01,0.0,16.78,-8.86
22:08:22.266,168835,2.56,-7.24,-5.24,0.0,-26.40,-12.53
22:08:22.366,168934,2.54,7.33,-4.99,0.0,-26.40,-8.36
22:08:22.471,169039,-0.35,23.61,-4.31,0.0,-26.40,5.96
22:08:22.571,169139,-2.56,31.12,-6.02,0.0,-26.40,8.17
22:08:22.677,169245,-3.86,22.72,-4.40,0.0,20.95,16.18
22:08:22.777,169345,-4.72,4.01,-1.90,0.0,26.40,18.29
22:08:22.877,169445,-4.95,-14.33,-0.39,0.0,26.40,7.23
22:08:22.976,169544,-2.30,-27.14,-2.15,0.0,26.40,-3.29
22:08:23.077,169645,-0.77,-33.05,-3.91,0.0,26.40,1.21
22:08:23.178,169746,-0.03,-37.99,-4.76,0.0,26.40,5.37
22:08:23.282,169850,-0.62,-41.91,-4.19,0.0,26.40,8.99
22:08:23.383,169951,-1.60,-42.68,-3.11,0.0,26.40,7.72
22:08:23.483,170051,-1.28,-40.15,-4.14,0.0,26.40,2.51
22:08:23.588,170156,0.19,-34.40,-8.09,0.0,26.40,-9.05
22:08:23.688,170256,4.01,-20.43,-17.76,0.0,-26.40,-26.40
22:08:23.788,170356,3.49,2.43,-30.46,0.0,-26.40,-26.40
22:08:23.888,170456,-4.31,14.64,-35.74,0.0,-26.40,19.79
22:08:23.993,170561,-14.45,8.13,-30.46,0.0,-15.45,26.40
22:08:24.093,170661,-26.32,5.16,-28.51,0.0,-26.40,26.40
22:08:24.193,170761,-29.09,15.48,-35.61,0.0,-26.40,23.34
22:08:24.293,170861,-27.56,25.97,-42.72,0.0,-26.40,-8.41
22:08:24.394,170962,-19.24,29.52,-39.70,0.0,-26.40,-15.74
22:08:24.493,171061,-8.66,27.37,-32.13,0.0,-23.85,-26.40
22:08:24.593,171161,0.49,17.11,-23.34,0.0,26.40,-9.54
22:08:24.694,171262,3.69,0.52,-14.91,0.0,26.40,8.12
22:08:24.799,171367,1.03,-13.89,-9.35,0.0,26.40,26.40
22:08:24.898,171466,-6.13,-22.11,-4.06,0.0,26.40,26.40
22:08:24.999,171567,-15.38,-24.86,2.35,0.0,26.40,26.40
22:08:25.098,171666,-22.49,-17.44,2.86,0.0,-15.85,26.40
22:08:25.199,171767,-24.57,-4.06,-3.61,0.0,-26.40,26.40
22:08:25.299,171867,-21.62,8.37,-10.44,0.0,-26.40,14.68
22:08:25.405,171973,-15.10,14.69,-13.63,0.0,-26.40,-8.27
22:08:25.504,172072,-7.22,14.57,-13.37,0.0,-12.03,-15.81
22:08:25.604,172172,-0.30,8.02,-12.86,0.0,22.99,-25.01
22:08:25.710,172278,5.85,1.30,-13.60,0.0,26.40,-26.40
22:08:25.809,172377,10.19,-5.50,-15.06,0.0,26.40,-26.40
22:08:25.910,172478,12.40,-13.93,-15.60,0.0,26.40,-22.18
22:08:26.014,172582,8.00,-24.85,-11.59,0.0,26.40,19.34
22:08:26.114,172682,0.42,-30.50,-7.19,0.0,26.40,26.40
22:08:26.219,172787,-7.40,-26.30,-5.01,0.0,18.97,26.40
22:08:26.320,172888,-9.91,-14.41,-8.31,0.0,-26.40,13.83
22:08:26.420,172988,-9.08,-2.08,-11.11,0.0,-26.40,5.48
22:08:26.524,173092,-5.41,1.86,-10.08,0.0,-2.80,-7.13
22:08:26.624,173192,-1.50,0.86,-7.49,0.0,6.07,-12.74
22:08:26.729,173297,1.00,-0.24,-6.51,0.0,3.99,-5.90
22:08:26.830,173398,1.46,-0.79,-6.11,0.0,5.21,-6.50
22:08:26.930,173498,2.49,-0.92,-6.42,0.0,2.43,-10.53
22:08:27.034,173602,2.79,-0.53,-6.54,0.0,1.91,-6.02
22:08:27.135,173703,2.75,-0.75,-6.46,0.0,2.14,-6.22
22:08:27.235,173803,3.04,-0.77,-6.66,0.0,3.13,-8.87
22:08:27.335,173903,3.81,-1.23,-6.98,0.0,8.96,-12.27
22:08:27.435,174003,4.67,-2.52,-6.66,0.0,12.46,-11.15
22:08:27.541,174109,5.18,-3.30,-6.73,0.0,10.12,-13.91
22:08:27.640,174208,4.80,-3.15,-7.96,0.0,7.52,-1.49
22:08:27.741,174309,3.15,-3.48,-7.90,0.0,8.92,-5.89
22:08:27.845,174413,3.09,-3.51,-8.60,0.0,8.16,-6.53
22:08:27.946,174514,3.16,-3.42,-8.88,0.0,8.73,-6.04
22:08:28.046,174614,3.12,-3.47,-8.95,0.0,8.25,-6.43
22:08:28.151,174719,3.15,-3.42,-9.05,0.0,8.00,-6.60
22:08:28.251,174819,3.14,-3.42,-9.12,0.0,8.27,-6.47
22:08:28.356,174924,3.15,-3.42,-9.13,0.0,8.21,-6.43
22:08:28.456,175024,3.15,-3.42,-9.14,0.0,8.22,-6.49
22:08:28.555,175123,3.16,-3.42,-9.14,0.0,8.21,-6.45
22:08:28.661,175229,3.15,-3.42,-9.14,0.0,8.22,-6.39
22:08:28.766,175334,3.15,-3.43,-9.14,0.0,8.23,-6.44
22:08:28.866,175434,3.15,-3.43,-9.13,0.0,8.24,-6.43
22:08:28.967,175535,3.15,-3.43,-9.14,0.0,8.23,-6.38
22:08:29.071,175639,3.15,-3.43,-9.14,0.0,8.23,-6.49
22:08:29.177,175745,3.15,-3.43,-9.14,0.0,7.98,-6.44
22:08:29.276,175844,3.11,-3.52,-8.99,0.0,10.27,-5.12
22:08:29.378,175946,3.18,-3.60,-6.25,0.0,9.45,-7.58
22:08:29.476,176044,3.12,-3.56,-6.18,0.0,8.15,-6.35
22:08:29.576,176144,3.10,-3.57,-8.65,0.0,7.78,-7.07
22:08:29.676,176244,3.06,-3.63,-8.68,0.0,8.58,-6.28
22:08:29.777,176345,3.05,-3.65,-8.72,0.0,8.48,-6.52
22:08:29.876,176444,3.10,-3.60,-8.79,0.0,8.84,-6.17
22:08:29.977,176545,3.08,-3.64,-8.81,0.0,8.41,-6.53
22:08:30.082,176650,3.11,-3.60,-8.84,0.0,8.58,-6.34
22:08:30.177,176745,3.11,-3.59,-8.84,0.0,8.53,-6.45
22:08:30.282,176850,3.11,-3.61,-8.84,0.0,8.66,-6.38
22:08:30.382,176951,3.11,-3.61,-8.84,0.0,8.57,-6.33
22:08:30.483,177051,3.11,-3.62,-8.85,0.0,8.68,-6.33
22:08:30.582,177150,3.11,-3.62,-8.84,0.0,8.63,-6.34
22:08:30.683,177251,3.12,-3.60,-8.84,0.0,8.49,-6.45
22:08:30.783,177351,3.12,-3.60,-8.84,0.0,8.59,-6.36
22:08:30.888,177456,3.13,-3.60,-8.84,0.0,8.53,-6.48
22:08:30.987,177555,3.13,-3.60,-8.84,0.0,8.58,-6.44
22:08:31.088,177656,3.14,-3.59,-8.84,0.0,8.62,-6.39
22:08:31.193,177761,3.14,-3.59,-8.84,0.0,8.53,-6.39
22:08:31.293,177861,3.14,-3.59,-8.84,0.0,8.57,-6.40
22:08:31.393,177961,3.14,-3.59,-8.84,0.0,8.57,-6.40
22:08:31.498,178066,3.14,-3.59,-8.84,0.0,8.57,-6.40
22:08:31.598,178166,3.14,-3.59,-8.84,0.0,8.57,-6.40
22:08:31.703,178271,3.14,-3.59,-8.84,0.0,8.57,-6.40
22:08:31.803,178371,3.14,-3.59,-8.84,0.0,8.57,-6.40
22:08:31.903,178471,3.14,-3.59,-8.84,0.0,8.57,-6.40
22:08:32.003,178571,3.14,-3.59,-8.84,0.0,8.57,-6.40
22:08:32.109,178677,3.14,-3.59,-8.84,0.0,8.57,-6.40
22:08:32.208,178776,3.14,-3.59,-8.84,0.0,8.57,-6.40
22:08:32.309,178877,3.14,-3.59,-8.84,0.0,8.57,-6.40
22:08:32.409,178977,3.14,-3.59,-8.84,0.0,8.57,-6.40
22:08:32.508,179076,3.14,-3.59,-8.84,0.0,8.57,-6.40
22:08:32.614,179182,3.14,-3.59,-8.84,0.0,8.57,-6.40
22:08:32.714,179282,3.14,-3.59,-8.84,0.0,8.57,-6.40
22:08:32.814,179382,3.14,-3.59,-8.84,0.0,8.57,-6.40
22:08:32.913,179481,3.14,-3.59,-8.84,0.0,8.57,-6.40
22:08:33.014,179583,3.14,-3.59,-8.84,0.0,8.57,-6.40
22:08:33.120,179688,3.14,-3.59,-8.84,0.0,8.57,-6.40
22:08:33.219,179787,3.14,-3.59,-8.84,0.0,8.57,-6.40
22:08:33.319,179887,3.14,-3.59,-8.84,0.0,8.57,-6.40
22:08:33.419,179987,3.14,-3.59,-8.84,0.0,8.57,-6.40
22:08:33.525,180093,3.14,-3.59,-8.84,0.0,8.57,-6.40
22:08:33.624,180192,3.14,-3.59,-8.84,0.0,8.57,-6.40
22:08:33.729,180297,3.14,-3.59,-8.84,0.0,8.57,-6.40
22:08:33.829,180397,3.14,-3.59,-8.84,0.0,8.57,-6.40
22:08:33.930,180498,3.14,-3.59,-8.84,0.0,8.57,-6.40
22:08:34.034,180602,3.14,-3.59,-8.84,0.0,8.57,-6.40
22:08:34.140,180708,3.14,-3.59,-8.84,0.0,8.57,-6.40
22:08:34.240,180808,3.14,-3.59,-8.84,0.0,8.57,-6.40
22:08:34.340,180908,3.14,-3.59,-8.84,0.0,8.57,-6.40
22:08:34.440,181008,3.14,-3.59,-8.84,0.0,8.57,-6.40
22:08:34.545,181113,3.14,-3.59,-8.84,0.0,8.57,-6.40
22:08:34.645,181213,3.14,-3.59,-8.84,0.0,8.57,-6.40
22:08:34.750,181318,3.14,-3.59,-8.84,0.0,8.57,-6.40
22:08:34.850,181418,3.14,-3.59,-8.84,0.0,8.57,-6.40
22:08:34.955,181523,3.14,-3.59,-8.84,0.0,8.57,-6.40
22:08:35.055,181623,3.14,-3.59,-8.84,0.0,8.57,-6.40
22:08:35.155,181723,3.14,-3.59,-8.84,0.0,8.57,-6.40
22:08:35.255,181823,3.14,-3.59,-8.84,0.0,8.57,-6.40
22:08:35.356,181924,3.14,-3.59,-8.84,0.0,8.57,-6.40
22:08:35.456,182024,3.14,-3.59,-8.84,0.0,8.57,-6.40
22:08:35.561,182129,3.14,-3.59,-8.84,0.0,8.57,-6.40
22:08:35.661,182229,3.14,-3.59,-8.84,0.0,8.57,-6.40
22:08:35.761,182329,3.14,-3.59,-8.84,0.0,8.57,-6.40
22:08:35.866,182434,3.14,-3.59,-8.84,0.0,8.57,-6.40
22:08:35.966,182534,3.14,-3.59,-8.84,0.0,8.57,-6.40
22:08:36.066,182634,3.14,-3.59,-8.84,0.0,8.57,-6.40
22:08:36.166,182734,3.14,-3.59,-8.84,0.0,8.57,-6.40
22:08:36.271,182839,3.14,-3.59,-8.84,0.0,8.57,-6.40
22:08:36.371,182939,3.14,-3.59,-8.84,0.0,8.57,-6.40
22:08:36.471,183039,3.14,-3.59,-8.84,0.0,8.57,-6.40
22:08:36.571,183139,3.14,-3.59,-8.84,0.0,8.57,-6.40
22:08:36.677,183245,3.14,-3.59,-8.84,0.0,8.57,-6.40
22:08:36.776,183344,3.14,-3.59,-8.84,0.0,8.57,-6.40
22:08:36.877,183445,3.14,-3.59,-8.84,0.0,8.57,-6.40
22:08:36.982,183550,3.14,-3.59,-8.84,0.0,8.57,-6.40
22:08:37.086,183654,3.14,-3.59,-8.84,0.0,8.57,-6.40
22:08:37.187,183755,3.14,-3.59,-8.84,0.0,8.57,-6.40
22:08:37.286,183854,3.14,-3.59,-8.84,0.0,8.57,-6.40
22:08:37.387,183955,3.14,-3.59,-8.84,0.0,8.57,-6.40
22:08:37.487,184055,3.14,-3.59,-8.84,0.0,8.57,-6.40
22:08:37.587,184155,3.14,-3.59,-8.84,0.0,8.57,-6.40
22:08:37.687,184255,3.14,-3.59,-8.84,0.0,8.57,-6.40
22:08:37.792,184360,3.14,-3.59,-8.84,0.0,8.57,-6.40
22:08:37.892,184460,3.14,-3.59,-8.84,0.0,8.57,-6.40
22:08:37.997,184565,3.14,-3.59,-8.84,0.0,8.57,-6.40
22:08:38.097,184665,3.14,-3.59,-8.84,0.0,8.57,-6.40
22:08:38.197,184765,3.14,-3.59,-8.84,0.0,8.57,-6.40
22:08:38.298,184866,3.14,-3.59,-8.84,0.0,8.57,-6.40
22:08:38.402,184970,3.14,-3.59,-8.84,0.0,8.57,-6.40
22:08:38.502,185070,3.14,-3.59,-8.84,0.0,8.57,-6.40
22:08:38.608,185176,3.14,-3.59,-8.84,0.0,8.57,-6.40
22:08:38.708,185276,3.14,-3.59,-8.84,0.0,8.57,-6.40
22:08:38.808,185376,3.14,-3.59,-8.84,0.0,8.57,-6.40
22:08:38.908,185476,3.14,-3.59,-8.84,0.0,8.57,-6.40
22:08:39.008,185576,3.14,-3.59,-8.84,0.0,8.57,-6.40
22:08:39.108,185676,3.14,-3.59,-8.84,0.0,8.57,-6.40
22:08:39.213,185781,3.14,-3.59,-8.84,0.0,8.57,-6.40
22:08:39.318,185886,3.14,-3.59,-8.84,0.0,8.57,-6.40
22:08:39.418,185986,3.14,-3.59,-8.84,0.0,8.57,-6.40
